aer_data/combined_aer_data.csv

Time (UTCG),azimuth_1,elevation_1,range_1,azimuth_2,elevation_2,range_2,azimuth_3,elevation_3,range_3,azimuth_4,elevation_4,range_4
31 May 2023 16:07:00.000,94.024,24.979,1147.720896,100.827,7.845,1999.990104,27.623,21.265,1271.210924,46.104,19.150,1351.199651
05 Jan 2024 20:54:00.000,225.409,16.695,1451.787905,67.619,8.605,1940.472338,320.883,17.168,1440.982217,92.225,13.963,1600.154946
14 Nov 2023 14:22:00.000,16.018,53.239,686.472271,13.369,25.452,1136.555188,315.016,13.103,1650.169893,358.982,36.363,884.897578
30 Oct 2023 20:07:00.000,69.196,9.250,1894.622427,54.731,15.281,1531.839276,304.971,48.945,723.709240,31.053,32.188,965.012985
04 Jan 2024 21:01:00.000,158.303,7.663,1999.985360,1.296,25.376,1136.656882,68.016,7.881,1999.999775,85.920,17.851,1403.688178
13 May 2023 20:07:00.000,71.354,7.894,1999.979692,84.020,18.459,1381.581367,172.141,11.319,1751.139935,108.099,7.785,1999.983527
29 Jun 2023 01:34:00.000,273.370,13.514,1623.185282,48.599,19.928,1327.111819,327.360,18.699,1370.837805,312.124,27.547,1070.538255
03 May 2023 03:08:00.000,26.275,47.434,738.893341,300.509,22.338,1235.032953,339.600,21.257,1271.144427,233.793,42.343,797.372063
23 Aug 2023 00:02:00.000,196.902,30.825,989.043352,333.248,34.036,928.512265,121.246,42.398,790.821478,242.108,36.480,884.480094
08 Oct 2023 03:40:00.000,197.237,12.409,1678.828441,116.288,9.362,1885.038592,66.458,7.868,1999.990297,131.635,24.638,1154.291022
23 Feb 2024 20:39:00.000,288.764,7.794,1999.992613,121.316,33.186,945.097490,23.189,20.489,1301.075035,269.474,7.875,1999.986005
28 Oct 2023 02:54:00.000,205.243,13.947,1590.393234,84.301,7.771,1999.982401,359.263,22.917,1211.294158,259.055,30.073,1007.720021
08 Dec 2023 06:37:00.000,54.772,66.004,608.778823,102.813,8.568,1943.598305,179.555,17.490,1414.214087,265.373,7.781,1999.982354
12 Feb 2024 21:14:00.000,177.726,25.836,1111.628163,89.085,8.345,1959.843414,71.094,15.922,1494.933315,261.165,7.784,1999.973581
02 Jun 2023 16:01:00.000,153.139,69.445,597.795613,306.466,7.863,1999.998377,157.441,34.659,910.126879,252.565,13.642,1613.495824
30 Sep 2023 14:09:00.000,175.410,17.132,1435.008920,308.203,13.511,1628.409515,23.322,20.468,1300.764149,228.721,21.880,1239.851639
22 Apr 2023 03:28:00.000,161.793,14.418,1568.656693,81.946,7.780,1999.981492,2.153,34.583,915.984191,251.230,16.409,1470.720333
22 Sep 2023 12:46:00.000,17.626,58.755,648.587386,120.233,25.462,1127.772485,301.425,7.943,1999.990930,326.366,25.610,1125.371744
26 Apr 2023 08:28:00.000,128.538,8.337,1958.937013,23.049,23.046,1206.749734,259.428,21.621,1252.028626,282.000,13.282,1633.412035
10 Oct 2023 03:36:00.000,206.241,32.512,952.965828,53.555,8.845,1929.471891,54.374,7.856,1999.975241,259.099,7.803,1999.983972
11 Jan 2024 12:10:00.000,241.111,13.651,1612.147685,313.089,21.338,1266.828719,95.472,7.744,1999.982802,289.362,7.765,1999.991224
04 May 2023 23:46:00.000,72.043,7.871,1999.967762,66.210,7.841,1999.984946,92.241,13.084,1645.895859,269.393,7.775,1999.987502
23 Nov 2023 10:39:00.000,61.459,23.230,1201.648847,79.490,71.015,592.183222,307.312,7.910,1999.984279,302.157,22.101,1240.067611
21 Jan 2024 11:48:00.000,91.909,41.279,809.619930,28.319,25.983,1116.745265,26.656,22.470,1226.834897,209.241,13.071,1640.478669
16 Sep 2023 14:39:00.000,255.725,36.149,889.277785,49.926,12.944,1664.104220,63.400,9.218,1904.773824,61.715,9.275,1893.013880
06 Oct 2023 10:30:00.000,246.958,54.432,676.343499,73.120,32.309,961.672031,344.067,25.036,1143.458592,286.188,13.630,1621.084954
02 May 2023 04:47:00.000,291.810,13.730,1613.987936,85.352,7.857,1999.982096,241.945,7.779,1999.999699,121.918,7.698,1999.995085
21 Aug 2023 03:30:00.000,19.585,47.675,735.290779,265.010,7.868,1999.982984,273.503,20.953,1282.049844,120.524,53.616,682.052269
03 Jun 2023 11:00:00.000,75.833,14.974,1549.511601,3.293,36.937,876.969752,334.318,30.333,1002.125459,323.533,60.184,641.241364
27 Dec 2023 00:46:00.000,164.459,11.650,1722.655592,182.252,10.989,1773.677372,118.666,7.825,1999.983034,294.295,13.704,1616.027867
02 Mar 2024 18:37:00.000,287.405,22.184,1232.765920,265.865,7.827,1999.970460,316.491,12.704,1669.293945,136.146,21.712,1243.787481
30 Mar 2024 07:08:00.000,285.401,13.578,1617.361253,232.087,18.348,1380.617935,315.313,35.102,906.982360,210.405,60.050,638.922969
17 Feb 2024 22:42:00.000,26.011,47.211,737.626607,217.620,23.488,1188.434090,64.059,25.350,1133.743599,223.029,13.433,1621.920061
09 Aug 2023 12:17:00.000,267.460,12.650,1675.202357,4.909,27.449,1076.042991,143.644,39.391,835.948002,301.810,7.789,1999.975046
05 Jan 2024 15:53:00.000,50.668,37.906,859.375434,50.784,13.462,1631.140248,314.753,12.371,1697.171973,50.715,15.763,1509.882503
02 May 2023 04:51:00.000,62.201,68.506,599.920357,97.042,14.135,1587.116653,313.070,13.264,1642.576504,264.514,7.768,1999.985721
11 Jan 2024 13:52:00.000,285.282,21.382,1264.168114,158.504,38.276,851.918054,309.044,17.898,1404.016814,307.288,13.146,1642.558410
06 Apr 2023 12:20:00.000,252.366,22.342,1232.580803,290.137,7.930,1999.973001,51.312,7.835,1999.989505,20.020,28.109,1060.783840
07 Feb 2024 04:16:00.000,43.819,58.799,645.028911,46.899,13.383,1634.465452,102.017,24.339,1163.819149,70.540,7.858,1999.975819
04 Oct 2023 10:41:00.000,106.525,7.817,1999.975505,139.512,8.752,1923.595007,114.277,10.219,1821.833889,29.966,31.479,981.501246
13 Feb 2024 00:41:00.000,78.361,7.775,1999.999898,77.561,11.333,1757.036692,166.873,7.713,1999.992269,267.371,32.697,956.097306
09 Feb 2024 04:14:00.000,111.559,9.246,1887.953415,228.340,10.910,1777.666941,201.732,7.741,1999.999902,52.541,15.356,1522.396500
03 Jul 2023 03:06:00.000,287.669,7.850,1999.981556,204.375,11.026,1766.570397,47.053,41.419,808.876317,166.292,28.517,1046.192223
23 Oct 2023 22:03:00.000,80.111,23.691,1182.611761,0.940,45.091,764.249188,307.458,7.825,1999.984991,233.504,9.047,1901.444393
04 Dec 2023 03:22:00.000,200.671,12.595,1666.885677,72.839,13.719,1611.442868,208.575,8.298,1953.998963,58.695,7.909,1999.971533
18 Jun 2023 03:45:00.000,92.269,13.800,1607.142378,271.106,12.611,1680.125237,275.547,33.887,930.693184,109.414,9.170,1895.291312
02 Jul 2023 22:12:00.000,74.656,7.852,1999.981541,208.496,60.490,636.423096,170.451,10.272,1819.324525,213.614,21.143,1269.650404
04 Feb 2024 06:08:00.000,106.245,15.826,1496.788653,295.135,7.809,1999.976982,8.156,30.859,992.200831,187.957,7.641,1999.980819
09 Sep 2023 18:22:00.000,66.756,15.039,1543.127269,323.219,19.256,1349.446306,57.168,9.145,1902.721431,301.388,7.922,1999.982372
30 Dec 2023 21:08:00.000,292.640,22.073,1237.326370,358.016,25.215,1139.113913,1.263,41.958,801.975063,32.204,33.778,934.087951
27 Feb 2024 20:37:00.000,120.372,7.691,1999.978723,37.606,34.096,928.015153,17.061,21.448,1263.876565,211.483,9.690,1856.133555
05 Apr 2023 12:28:00.000,72.795,15.685,1514.879894,320.107,17.913,1411.640734,306.311,7.849,1999.990782,67.031,31.133,990.148354
21 May 2023 16:21:00.000,233.220,13.592,1619.877891,86.065,37.648,867.616814,316.486,12.743,1668.222906,72.148,7.907,1999.997610
13 Jun 2023 12:15:00.000,252.031,29.114,1034.159633,8.092,29.253,1031.813436,255.992,13.482,1618.913613,79.115,20.223,1305.004258
22 Oct 2023 03:13:00.000,108.940,7.755,1999.976581,303.877,28.422,1054.341546,353.026,24.189,1168.283892,312.128,21.250,1273.446238
14 Oct 2023 08:31:00.000,192.318,16.410,1466.819778,332.770,23.074,1208.128938,253.523,27.506,1070.271835,70.660,7.904,1999.999905
17 May 2023 18:09:00.000,238.799,7.831,1999.976181,45.434,18.919,1364.003337,29.307,19.152,1353.018680,338.457,34.168,927.371280
24 May 2023 19:45:00.000,114.872,9.340,1887.875544,111.452,14.807,1546.790418,90.576,12.729,1667.953645,261.933,58.466,649.621666
06 Sep 2023 21:46:00.000,305.599,34.635,915.937418,253.536,7.819,1999.989426,260.110,7.730,1999.985787,122.926,43.096,783.230444
30 Apr 2023 06:39:00.000,125.179,8.659,1934.384284,338.033,27.542,1074.865247,281.962,7.879,1999.989499,8.241,34.723,912.085219
22 Aug 2023 01:45:00.000,278.116,60.612,635.190441,184.469,54.313,675.226695,344.236,24.931,1144.923367,354.720,43.872,776.909941
06 Jul 2023 03:05:00.000,192.182,22.775,1210.343875,281.649,35.162,908.656363,43.156,40.287,822.310004,67.090,10.053,1836.299230
03 Oct 2023 07:21:00.000,70.700,9.331,1891.808748,142.674,16.287,1476.294899,242.268,22.185,1233.283467,358.776,36.545,886.442532
07 Sep 2023 18:26:00.000,68.709,25.581,1127.819834,301.401,7.851,1999.978333,42.707,12.855,1662.681263,286.423,20.367,1304.455563
21 Nov 2023 09:03:00.000,104.041,22.528,1222.476963,71.390,9.273,1896.380017,76.573,17.863,1407.760867,306.268,13.381,1632.281520
26 Aug 2023 01:35:00.000,303.859,32.336,960.122864,23.165,23.056,1205.348937,244.822,10.095,1831.402078,154.013,19.558,1324.006191
04 Dec 2023 06:51:00.000,77.170,7.837,1999.990521,337.956,27.648,1072.598323,157.748,7.693,1999.989976,54.919,14.180,1583.287853
20 Jun 2023 10:20:00.000,237.846,13.780,1607.083772,267.635,7.843,1999.999211,260.694,7.753,1999.978713,106.813,15.473,1513.851405
09 Oct 2023 05:20:00.000,291.182,58.507,647.894436,287.426,7.882,1999.984426,119.212,8.975,1910.782590,248.296,22.017,1234.208320
26 Nov 2023 13:54:00.000,161.125,7.725,1999.999924,157.302,21.107,1271.584128,296.615,7.845,1999.984296,300.576,7.792,1999.982920
27 Sep 2023 09:13:00.000,94.903,35.085,907.763991,306.267,7.877,1999.982855,60.102,61.725,629.449942,78.819,7.870,1999.990543
28 Jan 2024 06:22:00.000,278.188,21.495,1257.632023,337.067,28.179,1060.276261,5.190,22.977,1206.680012,293.866,7.779,1999.975798
13 Mar 2024 14:42:00.000,279.981,13.383,1629.567791,307.022,27.624,1071.887270,292.305,30.295,1004.232658,286.971,22.102,1242.864031
16 Dec 2023 02:58:00.000,94.329,7.770,1999.970559,69.652,7.860,1999.984381,50.777,7.918,1999.990971,48.178,22.004,1242.660639
12 May 2023 20:03:00.000,214.492,34.066,926.452713,32.497,27.848,1067.478324,309.123,7.811,1999.989816,69.180,10.289,1825.753874
26 Nov 2023 07:04:00.000,213.396,13.064,1642.258569,57.965,15.673,1507.912831,275.731,61.128,634.756522,211.209,60.476,633.341512
21 Aug 2023 03:27:00.000,288.429,21.158,1271.649937,144.421,13.088,1647.053413,316.785,12.574,1676.443603,261.718,21.740,1251.865240
22 Feb 2024 20:48:00.000,59.646,34.047,923.589598,126.198,42.069,797.167076,88.613,7.920,1994.399042,297.034,12.875,1660.636529
07 Oct 2023 08:50:00.000,87.487,24.058,1173.332730,236.121,13.600,1614.613542,201.625,7.710,1999.990562,244.993,14.901,1543.923809
11 Mar 2024 16:34:00.000,178.031,13.391,1620.402161,115.430,15.888,1497.188203,49.490,8.778,1932.555266,311.404,21.098,1274.246294
04 Nov 2023 18:06:00.000,268.115,21.836,1246.688326,306.105,7.880,1999.979765,293.319,22.132,1237.117223,298.054,13.768,1611.168172
20 Mar 2024 11:00:00.000,288.785,13.708,1612.164033,50.148,10.732,1798.165149,39.883,15.379,1527.301496,243.423,10.059,1835.849163
11 Mar 2024 16:35:00.000,167.743,9.079,1895.016779,297.287,7.970,1999.991602,213.397,18.448,1370.744378,228.993,17.299,1424.820246
19 May 2023 19:53:00.000,68.362,21.957,1246.936844,4.369,33.922,935.432758,245.646,7.782,1999.982607,257.573,62.397,624.520596
25 Mar 2024 07:28:00.000,62.127,34.532,916.170363,310.685,13.364,1636.193015,20.398,20.683,1292.462400,127.044,8.884,1914.160905
01 Apr 2023 17:39:00.000,97.561,7.888,1999.980191,308.788,13.417,1632.041226,89.137,37.870,862.611195,165.988,7.674,1999.989582
21 Oct 2023 04:51:00.000,223.122,35.156,902.674983,42.187,16.147,1486.875615,23.739,20.459,1297.939280,258.164,7.798,1999.995248
10 Jan 2024 12:17:00.000,125.083,53.567,682.016906,39.826,37.970,861.529964,217.723,11.802,1717.485565,100.553,14.555,1563.706003
28 Apr 2023 03:17:00.000,36.581,71.262,590.458182,151.138,33.136,942.009022,120.692,35.406,898.414592,87.244,36.963,874.169786
21 Nov 2023 09:05:00.000,83.710,9.995,1843.781244,59.857,9.424,1887.957986,149.304,7.735,2000.000002,299.699,12.785,1663.060907
24 Aug 2023 23:59:00.000,103.601,70.749,590.612059,293.989,36.171,885.898427,54.831,20.790,1282.546384,162.939,14.632,1560.895282
08 Apr 2023 15:43:00.000,126.516,24.592,1158.837015,61.488,7.951,1999.979463,320.143,34.394,920.157311,309.758,48.160,729.577971
26 Oct 2023 20:16:00.000,81.635,11.908,1716.411029,260.206,7.819,1999.982200,290.212,22.092,1239.573723,46.328,20.205,1308.284478
18 Dec 2023 01:12:00.000,79.807,7.789,1999.975549,304.537,49.516,717.362117,40.084,18.799,1366.655970,79.178,10.848,1781.669046
04 Nov 2023 21:35:00.000,115.119,9.213,1890.746903,284.634,13.012,1655.212221,10.772,64.819,613.456818,60.130,15.840,1500.045940
02 Feb 2024 04:34:00.000,71.517,8.474,1950.284404,78.390,10.521,1808.432550,29.785,21.941,1243.514479,67.381,8.899,1915.479029
11 May 2023 02:50:00.000,259.564,18.811,1364.173040,69.236,7.863,1999.973208,117.936,15.841,1501.022200,54.934,15.368,1524.241905
01 Feb 2024 07:49:00.000,288.044,7.820,1999.999958,107.191,41.710,802.668155,58.259,9.311,1895.105181,284.063,20.515,1297.940453
06 Apr 2023 10:39:00.000,196.957,12.591,1674.636157,4.718,34.142,929.232144,32.983,35.320,899.803952,307.962,18.912,1359.772421
07 Jun 2023 14:09:00.000,248.636,55.731,668.767013,72.733,13.732,1612.507319,343.731,25.446,1133.751046,355.185,43.183,784.893907
19 Feb 2024 19:15:00.000,119.179,62.031,625.604379,342.581,29.511,1022.200309,297.474,7.896,1999.994434,106.888,9.011,1908.543004
12 May 2023 20:09:00.000,73.851,7.888,1999.990190,93.445,31.300,983.363293,270.108,12.373,1685.456663,341.433,32.812,950.386554
09 May 2023 04:38:00.000,189.200,8.179,1965.163266,5.487,28.447,1050.664304,157.653,8.853,1917.568206,158.107,8.020,1981.111754
11 Oct 2023 05:19:00.000,61.882,22.703,1217.787216,82.690,38.401,856.320924,101.089,7.845,1999.971612,287.103,7.794,1999.990175
05 Nov 2023 21:28:00.000,247.362,54.973,670.711504,322.930,17.991,1402.292093,347.773,26.072,1116.563849,194.092,30.837,987.015048
01 Mar 2024 16:57:00.000,282.879,7.808,1999.971432,242.196,7.766,1999.991857,65.205,13.934,1599.356574,316.744,19.598,1336.377382
18 Apr 2023 11:59:00.000,259.254,31.577,978.717621,77.349,10.430,1815.673109,176.292,49.670,712.749976,353.634,29.846,1015.847525
22 Jan 2024 06:43:00.000,103.064,25.407,1129.490106,283.825,7.837,1999.984007,290.719,19.438,1333.973425,140.331,7.759,1999.990294
19 Jul 2023 16:27:00.000,279.046,34.772,915.278933,73.032,68.463,600.518275,86.880,20.933,1279.859549,7.613,58.905,646.855259
28 Jun 2023 06:43:00.000,210.220,19.311,1339.854701,105.728,15.333,1526.232167,38.608,16.028,1492.806744,182.828,7.727,1999.985162
03 May 2023 04:53:00.000,112.022,9.310,1888.261222,50.900,24.539,1159.874142,71.031,7.842,1999.988361,213.061,19.453,1332.528389
07 Jul 2023 23:40:00.000,70.193,36.605,880.997446,270.185,13.287,1633.325817,93.573,30.548,999.484271,14.145,29.845,1015.202461
16 Dec 2023 06:16:00.000,199.904,7.682,1999.997240,204.496,7.756,1999.977311,309.228,7.865,1999.990056,61.233,15.785,1500.077841
02 Nov 2023 00:59:00.000,229.280,11.641,1726.797165,300.535,22.169,1235.371245,44.373,12.202,1703.611512,98.322,24.189,1167.184666
27 May 2023 12:53:00.000,121.738,23.430,1194.913552,43.609,14.710,1560.288834,327.652,18.379,1384.118572,308.660,19.012,1361.653322
06 Mar 2024 18:31:00.000,164.811,11.335,1742.349454,143.359,9.073,1901.374581,72.594,16.528,1466.479760,42.172,21.754,1247.317247
18 Nov 2023 12:31:00.000,16.125,56.123,665.159656,286.896,13.476,1623.596760,45.960,11.824,1729.473238,181.602,55.908,662.942403
07 Aug 2023 07:24:00.000,84.596,40.288,824.544307,328.405,23.666,1189.656673,119.592,7.802,1999.994920,83.337,7.804,1999.981930
04 Jan 2024 17:36:00.000,25.852,47.159,740.078016,249.163,13.569,1616.983218,327.006,22.887,1211.543814,53.832,24.729,1151.423943
03 Sep 2023 01:17:00.000,255.299,30.068,1007.773201,158.017,8.455,1946.842403,49.041,50.631,705.202907,227.415,10.730,1783.546416
27 Jun 2023 03:20:00.000,286.814,13.488,1625.884691,68.375,7.835,1999.986946,136.810,8.513,1939.112793,7.320,58.118,648.802186
08 Nov 2023 18:03:00.000,80.090,8.220,1969.930330,341.066,24.671,1159.149445,195.971,31.587,971.523188,228.038,7.769,1999.994740
22 Sep 2023 12:47:00.000,51.740,38.494,852.598880,162.556,22.899,1211.231914,88.611,8.385,1960.161651,59.310,10.035,1839.626980
09 Mar 2024 13:17:00.000,19.384,47.781,733.840874,308.049,12.466,1684.854242,328.689,32.276,960.626135,224.419,13.583,1617.505166
09 May 2023 23:30:00.000,287.422,21.271,1270.390130,162.144,22.705,1218.755488,147.220,38.403,847.657564,316.113,20.040,1315.353062
15 Feb 2024 00:32:00.000,34.403,52.147,691.889832,291.441,13.666,1615.353521,56.321,7.837,2000.000004,206.122,12.846,1652.925228
04 Apr 2023 14:07:00.000,314.937,51.398,704.272260,291.246,54.948,672.722475,68.409,7.855,1999.979546,299.607,7.906,1999.991184
22 Oct 2023 23:48:00.000,69.474,8.927,1917.144730,223.906,21.851,1247.041885,73.736,41.016,813.537021,110.125,7.765,1999.971650
01 Jan 2024 22:48:00.000,190.584,10.556,1792.667835,3.531,35.792,895.295790,189.036,7.733,1999.997975,62.390,9.305,1888.685763
29 May 2023 14:30:00.000,61.591,23.884,1183.748054,244.578,63.271,623.733587,8.897,28.691,1039.945750,292.823,31.261,986.024689
25 Jun 2023 01:47:00.000,121.194,61.189,632.225750,52.363,9.236,1899.838755,232.161,11.800,1724.723412,326.958,25.606,1126.973061
04 Dec 2023 10:07:00.000,243.952,25.814,1117.995789,257.664,56.224,665.285712,150.567,11.539,1735.180499,267.516,7.760,1999.993200
12 Mar 2024 14:51:00.000,131.656,23.626,1181.835465,61.492,7.861,1999.984005,65.035,15.389,1519.640079,121.993,31.609,971.596862
06 Apr 2023 14:00:00.000,284.663,13.611,1624.752624,277.199,33.394,941.012348,316.187,12.335,1689.210723,84.156,21.546,1255.373967
22 Aug 2023 06:52:00.000,153.130,7.724,1999.999839,224.521,62.385,624.187722,27.730,30.141,1008.967874,89.901,8.688,1931.275116
29 Aug 2023 04:52:00.000,209.574,9.635,1858.800387,256.100,7.808,1999.985239,228.613,16.633,1461.733214,63.442,25.838,1123.258327
30 May 2023 11:05:00.000,144.310,15.903,1496.519816,162.949,15.103,1534.375788,230.267,7.749,1999.983642,60.573,7.824,1999.989834
12 Dec 2023 23:42:00.000,104.180,20.273,1300.652296,78.722,7.909,1999.985385,55.183,8.721,1935.470865,358.543,31.298,980.849796
21 Sep 2023 12:50:00.000,64.815,25.375,1135.554048,279.551,7.857,1999.987261,31.224,23.024,1205.846577,292.904,13.645,1613.914237
02 May 2023 06:31:00.000,220.372,31.888,968.512103,162.080,32.191,964.266903,85.944,36.057,888.028812,277.036,13.133,1648.057546
16 Jan 2024 08:43:00.000,88.160,7.820,1999.988219,6.499,59.900,641.538994,236.413,13.546,1614.566408,100.923,8.605,1938.632994
27 Aug 2023 23:49:00.000,275.307,21.645,1253.172513,31.280,20.542,1298.525798,8.549,25.402,1129.926351,96.741,7.788,1999.987073
08 Jun 2023 07:25:00.000,131.185,17.384,1425.413806,166.765,12.863,1654.292173,58.992,12.365,1691.297342,64.755,29.694,1017.276440
05 May 2023 21:56:00.000,192.472,12.296,1689.983297,25.006,23.330,1198.454048,49.523,8.749,1933.983719,53.914,24.896,1148.327299
17 Jul 2023 16:37:00.000,70.345,9.460,1884.871608,27.006,23.981,1178.166703,229.177,7.798,1999.976258,40.687,21.867,1247.349179
16 Apr 2023 10:23:00.000,336.624,47.119,743.976579,117.598,7.787,1999.993415,126.748,9.065,1899.669460,194.220,31.231,980.839881
27 May 2023 17:59:00.000,102.956,7.854,1999.990067,150.786,12.987,1647.683552,308.758,7.815,1999.982916,160.616,15.860,1493.747191
23 Apr 2023 05:11:00.000,70.146,15.897,1500.550082,303.464,12.542,1683.172410,298.951,63.184,623.689845,204.865,11.784,1713.549332
18 Nov 2023 15:53:00.000,166.917,64.117,617.539055,105.402,8.869,1926.839818,47.773,10.358,1824.520511,150.765,10.784,1780.605796
29 Oct 2023 20:01:00.000,249.982,13.685,1610.131573,153.217,10.405,1811.783733,99.308,7.821,1999.974783,163.477,67.619,601.192420
05 Dec 2023 08:27:00.000,116.355,42.407,794.131531,63.403,15.804,1501.791525,309.327,7.897,1999.984433,117.396,9.350,1884.409106
16 Jun 2023 10:34:00.000,126.845,7.805,1999.978659,74.534,12.971,1654.540544,48.917,13.333,1636.999063,71.739,7.765,1999.983986
20 Dec 2023 23:16:00.000,287.617,21.177,1268.679663,49.937,12.692,1677.524237,265.207,7.868,1999.979800,66.543,25.398,1133.040655
29 Feb 2024 13:47:00.000,88.199,7.789,1999.988372,304.532,7.951,1999.991589,241.051,7.775,1999.982809,177.767,17.988,1392.917347
06 Jan 2024 19:09:00.000,266.024,33.388,937.045915,120.503,13.189,1639.378842,196.661,22.076,1237.051878,245.803,15.066,1534.173917
21 Dec 2023 23:14:00.000,304.839,32.214,960.955293,129.885,15.296,1522.664039,321.153,39.878,832.054315,307.278,28.493,1048.644140
30 Jul 2023 09:23:00.000,118.753,19.198,1348.349124,276.463,13.190,1641.359476,271.347,7.861,1999.982845,268.476,13.273,1630.276417
02 Oct 2023 09:04:00.000,71.219,8.577,1947.236203,81.131,19.721,1323.677556,177.478,20.499,1290.011630,124.424,14.942,1543.685462
17 Jul 2023 20:00:00.000,100.102,7.821,1999.990329,340.375,23.295,1197.244508,73.398,16.764,1452.915534,260.176,57.967,651.464427
14 Aug 2023 10:24:00.000,270.773,7.842,1999.998967,302.278,7.884,1999.987487,56.735,9.138,1905.826788,343.338,32.145,966.091500
31 Aug 2023 23:43:00.000,29.654,49.077,721.322299,120.172,9.255,1889.617425,316.104,17.370,1428.751589,270.127,20.073,1313.802485
19 Oct 2023 22:08:00.000,186.403,7.676,1999.977061,339.623,23.151,1207.467427,210.720,60.932,632.449613,289.090,7.848,1999.991035
17 Jan 2024 08:34:00.000,193.994,19.015,1350.328512,209.704,15.377,1522.602020,141.168,11.406,1746.658202,42.886,21.999,1244.851085
23 May 2023 19:45:00.000,102.537,25.426,1132.861254,148.176,21.373,1259.994941,297.851,7.840,1999.975089,284.073,7.825,1999.982853
10 Feb 2024 23:02:00.000,119.787,62.434,623.212854,316.823,20.951,1281.737885,133.213,8.612,1934.646881,316.625,19.442,1340.087822
28 Mar 2024 09:01:00.000,160.146,14.374,1567.708380,241.224,13.957,1598.877820,67.273,14.999,1538.354159,46.267,18.246,1387.183270
16 Aug 2023 08:44:00.000,185.604,43.565,779.891888,191.762,12.542,1678.637709,37.964,16.129,1489.613417,56.760,15.096,1542.854899
28 Aug 2023 01:31:00.000,308.281,33.246,941.821551,277.170,13.043,1652.663310,276.427,12.878,1661.107787,259.625,30.288,999.843212
18 May 2023 21:33:00.000,322.444,58.264,651.799852,128.875,17.867,1403.659832,148.020,9.401,1871.435215,43.582,39.056,840.208063
04 May 2023 23:42:00.000,117.415,64.398,616.945628,122.399,7.753,1999.990051,167.095,7.755,1999.999875,14.803,29.535,1026.145801
21 May 2023 21:32:00.000,128.288,8.390,1954.237208,305.716,13.778,1618.496874,180.254,16.525,1457.864980,81.706,7.971,1987.090259
12 Jul 2023 23:24:00.000,279.691,13.419,1630.182496,283.739,12.999,1655.824043,321.289,39.720,829.971784,182.606,11.977,1711.545346
15 Nov 2023 12:38:00.000,221.982,61.190,632.795198,323.107,18.055,1400.500913,17.029,21.547,1263.402668,309.738,21.448,1263.910310
30 Apr 2023 23:54:00.000,92.267,7.864,1997.611865,306.043,12.517,1682.380621,52.806,7.868,1999.999893,85.775,17.946,1399.211622
07 Apr 2023 10:41:00.000,126.098,33.845,932.192607,292.487,30.521,999.220601,76.689,7.840,1999.984443,55.683,14.778,1558.320049
23 Nov 2023 09:01:00.000,73.321,7.863,1999.990577,350.565,50.077,715.273386,110.239,15.389,1518.156686,58.656,8.385,1962.853417
27 Oct 2023 01:16:00.000,117.314,42.331,793.611592,156.367,34.760,912.595118,49.770,8.628,1944.122521,151.923,19.614,1326.121234
29 Feb 2024 13:46:00.000,103.386,14.843,1547.016136,173.681,63.998,618.154374,84.942,17.086,1437.382070,150.351,7.700,1999.999364
17 May 2023 18:16:00.000,77.356,24.644,1158.165574,116.463,9.222,1889.745481,195.634,14.757,1548.893260,316.701,34.211,921.630148
29 Jul 2023 09:22:00.000,171.705,11.094,1764.434610,123.007,7.798,1999.974084,286.691,7.809,1999.997498,57.675,62.899,626.252197
29 Feb 2024 17:03:00.000,300.319,32.460,956.302420,48.082,50.624,711.641360,72.888,16.558,1467.654342,287.991,13.506,1621.526253
30 Jun 2023 22:15:00.000,92.335,13.296,1635.254800,54.876,15.265,1534.370459,157.594,10.167,1820.447157,303.617,12.844,1662.528892
30 Oct 2023 18:23:00.000,103.482,24.150,1167.784795,191.741,7.744,1999.989672,204.761,7.726,1999.999465,23.979,28.194,1054.539934
08 Jul 2023 01:14:00.000,285.929,7.853,1999.993074,279.543,7.844,1999.995294,190.060,48.284,725.375828,133.604,20.233,1305.790133
01 Jun 2023 16:06:00.000,107.644,15.991,1495.290578,62.251,74.864,581.729719,60.453,9.451,1883.294523,67.882,7.895,1999.991274
01 Feb 2024 04:35:00.000,61.654,23.715,1182.601483,50.130,10.780,1798.494583,294.557,29.876,1014.290601,70.834,18.037,1394.604761
12 Jun 2023 08:59:00.000,61.886,22.757,1219.228965,41.624,41.306,812.763851,54.701,15.457,1522.646337,103.063,7.715,1999.999935
16 Jun 2023 08:47:00.000,307.719,33.801,933.435752,306.294,12.565,1681.393271,37.908,16.059,1490.675760,90.959,23.105,1205.907547
28 Oct 2023 02:50:00.000,262.070,7.765,1999.992219,231.494,11.610,1733.134605,258.959,7.803,1999.990751,315.224,20.326,1305.968358
01 Oct 2023 07:23:00.000,98.683,32.042,966.210006,29.224,22.709,1219.098837,141.452,13.730,1601.119612,306.556,12.905,1658.052161
30 Apr 2023 04:59:00.000,88.550,7.845,1999.981755,42.245,19.661,1335.195157,323.760,17.163,1443.652697,75.546,7.845,1999.981654
09 Sep 2023 23:24:00.000,172.588,7.689,1999.996889,42.053,18.795,1365.505158,177.963,27.388,1070.192909,145.450,21.697,1246.176897
06 Sep 2023 01:09:00.000,250.360,10.968,1773.310988,319.973,17.852,1409.354039,326.189,19.310,1351.141562,128.778,15.239,1524.891401
13 Apr 2023 15:30:00.000,230.563,12.087,1708.445540,131.834,41.600,807.458421,328.161,18.100,1397.696441,189.899,44.462,767.331438
05 Sep 2023 23:28:00.000,281.542,21.940,1243.254589,277.777,13.150,1644.229981,88.244,12.229,1695.703543,38.797,36.666,880.497320
16 Nov 2023 16:01:00.000,101.640,15.655,1508.112153,266.772,7.811,1999.990250,143.758,11.751,1718.765470,103.398,7.742,1999.979019
30 Mar 2024 08:55:00.000,179.829,8.114,1966.528944,216.433,13.330,1625.089847,38.039,31.005,988.216417,70.786,7.822,1999.980660
06 Jun 2023 10:49:00.000,298.150,56.879,661.018269,72.585,9.604,1875.383213,27.130,21.164,1278.033086,72.734,7.770,1999.990003
08 Jan 2024 14:07:00.000,69.652,7.845,1999.985609,233.862,41.103,813.402942,146.994,17.713,1403.431795,41.185,37.982,860.666493
03 Aug 2023 15:56:00.000,213.883,8.275,1962.222115,181.599,12.891,1654.167377,196.247,29.027,1030.258252,163.010,10.525,1796.862341
02 Nov 2023 01:01:00.000,200.697,10.153,1821.017556,274.219,20.960,1279.016341,113.605,42.171,797.062471,158.899,16.653,1454.368641
11 Aug 2023 08:52:00.000,297.350,21.706,1254.393104,96.663,14.086,1588.590860,1.141,54.207,675.709626,299.407,13.683,1612.678282
01 Apr 2023 15:56:00.000,63.224,22.339,1236.346851,243.534,23.619,1181.991224,295.923,13.630,1612.578340,331.449,25.805,1123.387522
22 Jul 2023 18:03:00.000,310.932,61.184,634.569700,208.083,7.730,1999.997613,298.046,13.801,1611.103506,114.002,15.766,1502.039395
29 May 2023 12:44:00.000,224.626,13.540,1621.595067,69.345,7.845,1999.985966,334.933,30.104,1009.007409,287.190,21.894,1242.828888
12 Jan 2024 15:31:00.000,299.367,35.924,892.410511,312.955,12.928,1658.667354,312.647,21.518,1255.299235,60.050,7.911,1999.985015
03 Jun 2023 09:19:00.000,100.075,7.858,1999.984091,339.767,30.940,992.865059,39.506,16.854,1452.467030,117.128,20.792,1281.220172
17 Dec 2023 21:44:00.000,199.755,19.565,1325.577664,168.877,7.734,1999.982470,12.201,23.563,1190.954604,250.852,7.720,1999.979493
09 Jun 2023 10:39:00.000,280.514,7.883,1999.991233,351.563,26.582,1104.964037,159.057,7.703,1999.990620,283.714,21.708,1253.104880
23 Aug 2023 22:21:00.000,135.718,13.084,1641.727110,304.962,7.898,1999.998475,128.710,8.973,1909.165059,142.835,7.724,1999.969420
05 Apr 2023 15:45:00.000,305.393,34.891,915.758387,191.257,7.687,1999.989479,192.904,7.700,1999.997296,146.190,21.569,1252.143062
19 Apr 2023 08:32:00.000,280.945,7.876,1999.990900,109.252,15.525,1513.797043,300.464,13.762,1614.138781,58.677,8.479,1958.360962
11 May 2023 20:05:00.000,193.966,30.247,1005.530565,331.376,35.234,910.705589,218.858,7.711,1999.979690,286.943,32.090,963.498422
23 Jan 2024 06:34:00.000,227.727,7.713,1999.984703,301.117,7.883,1999.980242,93.395,39.154,841.402583,32.601,28.436,1053.043281
19 Jan 2024 11:55:00.000,84.985,14.606,1563.332385,275.119,7.825,1999.984744,2.184,40.977,811.494461,36.680,22.604,1218.243745
17 Mar 2024 14:32:00.000,242.432,10.126,1827.695167,299.688,13.752,1613.353840,64.090,13.648,1614.601524,125.355,15.469,1512.654575
12 Dec 2023 06:26:00.000,188.063,38.136,852.592146,4.993,27.807,1067.056409,359.927,39.902,828.950195,304.261,12.843,1661.020336
20 Jul 2023 18:11:00.000,86.372,14.743,1558.643622,56.715,7.844,1999.980708,54.066,8.361,1966.738660,320.916,26.138,1109.826535
10 Jan 2024 19:00:00.000,203.938,12.806,1655.232247,159.728,33.434,938.457614,169.639,24.935,1139.376054,207.247,33.482,933.431654
09 Jul 2023 01:19:00.000,150.356,18.776,1361.142955,158.832,7.758,1999.989355,292.543,7.769,1999.993892,290.128,22.113,1238.237506
10 Jul 2023 18:31:00.000,101.412,28.565,1046.817640,313.730,17.982,1402.414035,228.386,7.757,1999.971630,80.957,9.201,1901.566943
06 Oct 2023 05:33:00.000,74.057,8.450,1954.533747,99.782,14.676,1555.717600,263.819,7.803,1999.993212,110.116,9.145,1898.729890
26 Jul 2023 12:54:00.000,68.987,25.676,1127.568164,292.837,22.110,1237.097555,63.643,7.807,1999.998947,181.747,17.816,1400.185724
05 Jan 2024 14:13:00.000,97.831,32.450,956.782757,287.082,35.942,896.096392,39.411,16.113,1494.061516,326.335,31.400,979.251692
27 Mar 2024 05:45:00.000,74.047,7.810,1999.979137,85.509,36.845,876.390886,67.908,14.916,1547.408924,112.477,15.165,1527.351496
07 Jan 2024 14:08:00.000,71.507,25.646,1124.706143,74.158,9.808,1857.996221,56.891,9.043,1907.904212,326.962,25.666,1125.750942
15 Sep 2023 19:50:00.000,136.314,7.739,1999.990286,273.688,20.413,1301.424845,109.040,7.714,1999.989396,307.078,13.286,1641.618925
25 Mar 2024 07:27:00.000,30.534,49.301,718.485155,53.874,57.575,654.028153,228.151,10.783,1784.224575,256.391,56.814,659.725387
03 Nov 2023 16:34:00.000,91.899,14.615,1562.105317,229.829,17.343,1425.422161,307.127,22.021,1243.920055,29.640,31.133,982.846177
13 Nov 2023 11:03:00.000,146.394,7.744,1999.995698,342.924,29.554,1023.240126,154.081,19.610,1324.174087,202.430,7.726,1999.991127
17 Nov 2023 10:57:00.000,79.002,7.859,1999.975620,88.784,35.173,907.846460,225.495,21.932,1240.848769,38.115,22.278,1234.155811
06 Jan 2024 17:33:00.000,82.783,23.506,1188.780711,101.736,7.766,1999.990028,316.971,42.165,798.895449,287.645,22.095,1240.345136
18 Jan 2024 08:36:00.000,87.906,19.557,1333.104648,153.853,35.875,894.951085,120.284,32.393,958.812069,125.839,7.737,1999.981454
18 Sep 2023 17:59:00.000,135.600,39.719,831.357278,219.024,7.714,1999.983661,95.705,23.076,1204.346211,116.576,59.578,643.821266
28 Apr 2023 01:32:00.000,209.438,7.741,1999.974159,302.449,18.908,1367.435984,247.326,13.702,1611.724620,70.280,7.815,1999.997455
12 Jun 2023 07:17:00.000,86.535,39.448,837.084131,312.948,12.942,1659.868107,196.083,7.760,1999.997156,78.581,7.857,1999.997086
21 Jan 2024 10:09:00.000,72.091,13.967,1599.139254,143.183,13.245,1634.419180,110.281,8.438,1952.281523,312.565,18.850,1360.609621
25 Mar 2024 04:02:00.000,222.356,13.302,1625.739487,265.268,58.781,649.617599,58.626,7.849,1999.985132,185.753,7.638,1999.980557
24 Sep 2023 14:23:00.000,80.399,39.394,838.199637,115.842,20.219,1305.810341,305.034,7.922,1999.992448,356.488,41.343,810.120848
24 May 2023 17:58:00.000,307.892,32.829,954.528511,28.505,28.884,1042.549071,295.870,7.877,1999.991639,159.532,21.564,1256.612125
17 Jan 2024 15:18:00.000,241.036,24.461,1157.676572,142.646,7.775,1999.999873,291.016,7.908,1999.992685,66.014,16.952,1445.876566
15 Apr 2023 13:48:00.000,191.686,26.602,1098.599683,130.501,15.305,1523.870973,300.613,18.643,1373.490871,76.720,19.678,1331.548372
10 Apr 2023 12:11:00.000,279.247,7.906,1999.992519,317.902,20.704,1293.357341,80.262,38.621,844.281698,220.949,13.641,1615.018908
25 May 2023 17:56:00.000,308.017,33.548,940.212528,185.851,7.755,1999.978863,8.233,31.184,988.437660,219.950,13.125,1638.827150
11 Sep 2023 21:34:00.000,252.741,29.374,1024.995372,86.177,7.912,1999.981910,192.216,12.396,1678.795596,241.661,62.955,625.148477
07 Sep 2023 21:46:00.000,58.146,67.497,603.045871,61.424,9.459,1888.952884,79.284,7.803,1999.986523,323.812,32.485,960.290443
19 Jan 2024 08:34:00.000,76.749,14.500,1569.603212,46.264,22.792,1214.069084,327.129,18.567,1372.215143,188.283,46.668,742.945907
17 Apr 2023 10:20:00.000,307.923,33.501,940.522207,111.660,7.815,1999.982156,269.326,21.132,1267.415041,156.539,20.520,1292.084462
06 Jan 2024 17:31:00.000,37.588,54.832,672.687467,224.018,14.673,1553.446403,140.652,25.766,1118.930324,286.201,7.845,1999.984899
01 Oct 2023 05:40:00.000,160.037,7.708,1999.998612,284.078,32.090,964.132319,296.487,12.504,1683.113353,264.620,21.485,1254.972190
22 Mar 2024 04:15:00.000,131.223,17.257,1425.607277,135.603,41.047,814.253489,205.036,13.025,1645.832167,283.537,21.835,1251.123763
07 Jun 2023 10:49:00.000,49.884,36.755,881.631945,316.377,25.688,1122.575439,301.266,22.252,1231.069817,202.841,7.728,1999.994512
24 Sep 2023 14:19:00.000,296.202,21.902,1248.372007,130.325,18.829,1366.244019,307.881,7.862,1999.992020,47.632,40.333,820.694714
11 May 2023 20:10:00.000,81.194,12.272,1699.221103,289.968,13.632,1618.983664,84.785,36.760,878.062552,175.036,21.305,1263.112216
05 Mar 2024 13:33:00.000,69.843,9.407,1883.172488,52.101,56.113,662.832648,307.125,27.219,1085.220517,61.721,7.942,1999.997460
25 May 2023 21:20:00.000,204.356,13.241,1635.750560,157.298,7.733,1999.990502,40.226,14.769,1554.180120,251.420,16.419,1473.494231
22 Aug 2023 03:23:00.000,286.917,13.421,1628.558268,118.704,54.737,675.323471,135.023,24.516,1155.351364,181.901,56.364,660.486671
30 Nov 2023 11:57:00.000,256.338,18.081,1394.815766,282.978,21.432,1261.926009,206.097,20.842,1279.864839,142.947,26.206,1102.038758
16 May 2023 18:16:00.000,126.855,47.803,735.364580,228.851,7.749,1999.987271,39.947,15.282,1533.602075,312.054,62.095,626.745928
14 Apr 2023 12:12:00.000,97.423,9.138,1907.044917,306.326,22.054,1244.021493,323.531,19.855,1323.552627,125.516,25.258,1132.713528
29 Aug 2023 23:47:00.000,20.751,47.235,739.670363,144.404,13.031,1646.582554,111.164,74.259,578.655811,193.060,35.322,901.973880
31 Mar 2024 02:04:00.000,237.184,21.876,1238.676373,248.461,25.778,1119.513220,304.579,7.839,1999.992057,107.412,67.339,604.309145
30 Jan 2024 09:42:00.000,169.795,22.891,1205.992130,72.335,7.879,1999.984140,52.667,7.858,1999.990237,223.617,31.942,964.880448
02 Jul 2023 03:15:00.000,113.300,25.497,1127.158981,87.063,12.386,1686.869040,47.984,9.979,1840.777308,192.167,9.596,1864.723903
24 Feb 2024 19:03:00.000,68.967,14.152,1585.002456,312.553,12.972,1654.835697,196.123,19.817,1317.066735,258.870,7.836,1999.998058
18 Jul 2023 18:15:00.000,74.685,14.032,1597.987791,286.043,13.405,1626.492041,309.120,7.905,1999.984283,254.965,35.912,888.033353
29 Apr 2023 03:12:00.000,268.235,21.960,1243.350171,278.342,7.874,1999.975815,31.494,23.354,1196.926151,76.258,7.842,1999.978628
22 Oct 2023 22:02:00.000,200.264,31.456,974.663405,170.614,11.183,1757.864692,95.683,7.787,1999.972343,247.391,10.513,1807.072720
10 Jul 2023 20:13:00.000,66.833,15.331,1528.767648,96.061,7.862,1999.988795,239.965,7.842,1999.993136,33.178,25.666,1128.127676
09 May 2023 20:14:00.000,92.714,9.573,1873.701339,66.654,7.900,1999.987579,286.982,21.772,1250.015095,205.181,12.993,1648.095377
05 Sep 2023 18:26:00.000,223.491,21.531,1256.055305,93.321,7.827,1999.975742,96.015,13.780,1606.880748,74.526,7.785,1999.980613
16 Nov 2023 12:40:00.000,69.907,7.873,1999.990539,322.501,24.642,1161.621567,304.171,12.289,1692.393302,75.303,11.112,1770.310235
07 Apr 2023 12:18:00.000,264.284,22.175,1239.105219,185.447,12.023,1700.884308,50.641,7.910,1999.997758,71.362,7.822,1999.997589
13 Oct 2023 06:56:00.000,106.800,15.793,1500.402840,301.217,7.832,1999.979246,80.787,7.776,1999.999370,38.393,41.471,807.702324
14 Nov 2023 17:42:00.000,271.499,34.757,912.931205,218.375,35.064,904.709462,290.140,7.867,1999.978166,299.144,7.909,1999.972828
03 Sep 2023 23:36:00.000,71.990,71.526,588.362095,248.772,62.695,624.374023,266.521,7.808,1999.982718,122.735,15.709,1503.639935
31 May 2023 17:44:00.000,251.200,28.850,1041.355378,316.803,17.927,1410.489116,146.988,7.735,1999.971592,54.894,25.293,1135.184433
12 Nov 2023 12:48:00.000,104.103,21.781,1248.957538,58.775,9.295,1894.626129,169.070,24.804,1144.065237,278.615,13.345,1638.050582
04 Jun 2023 15:59:00.000,149.260,19.357,1341.929324,135.140,8.271,1961.876411,66.968,27.956,1061.915232,156.978,20.510,1288.198906
27 Nov 2023 07:06:00.000,127.159,49.018,720.843162,61.516,8.113,1980.882936,339.236,21.188,1269.652518,46.214,19.212,1345.342852
21 Jun 2023 03:34:00.000,232.040,35.619,896.112585,305.319,7.853,1999.979613,316.363,12.732,1669.800435,351.039,30.163,1009.720276
23 Oct 2023 04:47:00.000,209.133,17.884,1397.699465,30.328,21.383,1269.931735,49.848,13.861,1601.879610,53.531,24.494,1161.629504
08 Oct 2023 03:47:00.000,84.770,7.816,1999.999800,99.679,14.133,1590.528697,51.714,11.225,1759.145540,77.768,19.856,1319.146721
02 Jul 2023 23:51:00.000,61.540,23.594,1188.829751,60.965,15.920,1495.695574,88.511,37.738,861.368289,128.398,15.348,1523.661955
30 Jul 2023 11:07:00.000,70.554,7.907,1999.976047,275.472,7.839,1999.996099,82.839,35.884,896.202164,195.186,17.983,1392.633232
21 Sep 2023 17:53:00.000,162.988,12.744,1662.182995,232.945,12.065,1710.390963,144.991,39.062,838.274583,58.274,7.892,1999.998504
17 Aug 2023 01:59:00.000,121.439,22.791,1210.877963,142.144,39.590,832.761386,345.730,22.605,1221.849735,87.426,7.773,1999.976731
04 Dec 2023 03:24:00.000,172.502,24.458,1154.283250,346.523,27.951,1060.754063,94.249,29.576,1019.013156,55.834,14.765,1561.361398
02 Jul 2023 03:16:00.000,112.921,15.788,1500.024122,341.207,24.446,1162.347646,73.910,16.875,1450.099891,262.855,7.752,1999.990300
05 May 2023 06:26:00.000,197.895,8.255,1960.270483,11.716,26.229,1109.504686,57.523,7.919,1999.984381,328.188,30.640,994.808592
07 Feb 2024 23:06:00.000,205.154,7.646,1999.976170,58.967,8.083,1984.404582,339.433,21.251,1269.880775,131.076,8.550,1937.193674
18 Apr 2023 05:18:00.000,132.428,18.006,1397.183451,122.671,7.847,1999.972131,198.602,32.500,957.908752,219.204,61.873,625.444412
21 Jun 2023 01:54:00.000,164.914,14.942,1539.710595,57.316,7.869,1999.990646,236.401,7.806,1999.982350,64.098,25.563,1124.772843
11 Aug 2023 08:56:00.000,69.661,36.483,884.198104,36.584,18.433,1385.543271,79.130,7.768,1999.984540,224.261,32.831,950.599741
03 Oct 2023 10:43:00.000,98.508,7.833,1999.990770,291.614,7.905,1999.983406,78.427,33.967,928.006022,82.424,38.862,843.809695
10 Oct 2023 03:42:00.000,75.172,7.832,1999.999874,67.340,29.232,1031.437241,40.794,19.886,1321.835752,141.767,15.703,1500.016256
13 Oct 2023 03:35:00.000,69.311,9.272,1893.704163,0.932,39.993,830.887305,251.261,53.283,683.938740,15.550,29.200,1032.308219
29 Dec 2023 16:08:00.000,197.195,7.698,1999.983658,36.161,18.579,1382.029060,68.445,28.785,1038.221896,82.161,12.439,1691.211821
06 Nov 2023 18:03:00.000,325.111,47.770,734.627519,53.783,7.928,1999.998246,90.721,12.712,1664.119845,65.265,7.857,1999.974001
29 Jan 2024 06:24:00.000,62.575,22.419,1226.629097,91.306,7.792,1999.978367,34.229,16.696,1459.124702,135.864,7.797,1999.981144
18 Oct 2023 04:58:00.000,284.838,62.787,623.454973,90.374,33.782,929.719908,214.738,34.888,907.235646,240.103,7.705,1999.987499
13 Dec 2023 01:20:00.000,271.261,61.914,626.901873,154.718,9.826,1847.699563,285.676,12.855,1663.696784,252.384,35.918,889.165485
15 Jan 2024 15:22:00.000,276.802,21.526,1258.088191,207.844,13.656,1608.854480,117.347,7.770,1999.995895,225.044,21.760,1243.879993
06 Jan 2024 15:54:00.000,71.381,8.487,1950.383454,239.154,13.344,1625.573263,22.292,20.497,1299.043921,297.581,13.704,1614.999967
11 Jun 2023 10:44:00.000,85.427,8.497,1953.941173,71.521,41.583,807.493901,342.290,28.399,1053.159778,263.041,18.719,1362.660062
25 Jan 2024 11:36:00.000,189.301,35.616,895.141397,160.911,16.253,1474.316677,271.852,13.237,1637.373559,200.054,19.999,1312.823701
28 May 2023 17:53:00.000,111.575,42.771,792.598901,321.855,17.901,1408.687680,1.678,54.234,674.776985,201.647,20.283,1303.854546
26 Nov 2023 08:53:00.000,69.188,9.174,1902.915752,55.319,8.111,1986.754129,293.633,22.161,1239.495584,32.592,27.926,1065.716235
01 Jul 2023 01:29:00.000,281.390,7.843,1999.990664,315.352,17.863,1408.652681,301.119,50.223,710.635098,220.153,13.270,1634.650631
18 Aug 2023 07:00:00.000,110.392,25.622,1124.266741,252.943,7.843,1999.974791,307.637,7.834,1999.977906,114.892,17.972,1399.449801
19 Aug 2023 06:58:00.000,124.946,24.654,1152.278263,45.123,46.621,747.582847,307.184,7.814,1999.997833,100.519,22.542,1222.689819
30 Jul 2023 14:25:00.000,83.459,40.111,828.541857,46.235,48.694,726.903399,94.861,39.263,834.136969,338.060,34.337,919.859419
03 May 2023 04:53:00.000,112.032,7.798,1999.976780,258.007,21.968,1244.813869,300.561,12.416,1688.640690,55.592,14.591,1564.830370
28 Dec 2023 17:56:00.000,87.889,38.716,845.094784,235.474,13.677,1610.300911,182.720,11.922,1708.777930,81.440,12.217,1701.130884
16 Apr 2023 08:38:00.000,262.276,7.844,1999.981474,339.606,23.170,1207.976438,52.639,14.896,1547.096643,218.017,21.531,1255.029802
15 Aug 2023 02:00:00.000,171.925,7.690,1999.995351,88.468,12.702,1671.322294,2.769,32.854,948.310099,127.837,11.339,1749.620393
10 Jun 2023 09:00:00.000,289.854,58.811,647.974986,302.556,50.540,706.665862,286.539,7.829,1999.981408,181.450,10.970,1772.032119
24 Nov 2023 07:12:00.000,170.910,15.848,1493.488106,281.786,13.293,1637.488895,311.171,26.337,1110.248918,171.167,45.800,755.208552
28 Oct 2023 23:29:00.000,331.633,53.465,682.700691,306.305,12.527,1685.186244,308.871,7.807,1999.982908,301.754,22.174,1236.718883
21 Jul 2023 18:09:00.000,94.266,15.295,1529.219026,330.108,31.316,987.885015,342.367,21.289,1271.514959,197.340,56.654,656.450716
15 Sep 2023 21:25:00.000,226.746,8.571,1937.796862,49.910,20.243,1307.437564,268.389,7.792,1999.993306,292.669,7.829,1999.992471
29 Oct 2023 18:20:00.000,202.622,7.711,1999.990538,98.160,10.585,1801.798953,297.927,13.825,1609.491589,216.816,23.500,1183.702628
30 Jul 2023 12:42:00.000,328.886,46.763,747.327958,348.585,27.256,1079.946978,38.000,31.236,986.810358,82.188,20.728,1288.224735
12 Aug 2023 05:31:00.000,95.075,72.978,584.496677,327.343,37.449,866.388710,135.656,22.280,1223.852240,98.904,26.167,1107.574199
21 Apr 2023 06:54:00.000,61.568,23.764,1185.521409,121.720,36.659,879.499730,6.820,23.568,1189.612875,307.285,13.119,1643.927944
19 Nov 2023 14:09:00.000,333.546,52.598,691.604394,53.516,7.858,1999.990574,172.410,7.742,1999.985558,216.088,61.266,630.516908
17 Apr 2023 07:04:00.000,74.130,8.509,1953.658180,53.907,7.854,1999.998140,162.697,41.470,802.205879,97.268,8.316,1961.857041
17 Mar 2024 09:36:00.000,71.250,8.555,1945.470610,138.897,73.688,584.430655,59.734,15.857,1495.320490,297.193,7.798,1999.969305
08 Jan 2024 17:25:00.000,78.419,72.592,584.885793,19.600,23.313,1201.872952,301.994,7.879,1999.994120,61.645,15.988,1490.041187
24 Apr 2023 08:32:00.000,108.889,9.336,1888.974536,113.398,9.681,1860.733990,140.279,40.283,821.257493,101.125,8.582,1941.644959
28 Nov 2023 06:58:00.000,239.300,7.745,1999.990963,340.393,23.424,1198.779560,231.760,22.007,1236.436926,31.550,32.999,944.051015
10 Nov 2023 17:58:00.000,91.537,8.692,1933.319038,265.761,21.436,1260.842393,309.087,21.895,1244.155218,61.404,9.313,1895.178467
18 Aug 2023 08:35:00.000,265.631,12.435,1685.525450,221.102,13.392,1627.467631,114.476,19.193,1350.175556,173.966,16.672,1452.760991
17 Mar 2024 09:29:00.000,281.219,21.352,1263.561707,2.300,51.314,701.729018,298.610,22.283,1234.958241,307.058,35.771,896.058660
22 Mar 2024 04:14:00.000,149.571,17.364,1419.584802,305.844,7.930,1999.990811,32.229,17.485,1428.966374,324.431,32.242,963.607759
03 Apr 2023 12:28:00.000,164.634,39.102,842.925638,98.370,73.634,580.676824,60.252,7.783,1999.981207,42.250,21.783,1247.543417
27 Apr 2023 03:18:00.000,233.743,62.487,625.966959,18.416,23.505,1193.785263,44.413,22.517,1224.874621,311.584,18.976,1362.319394
07 Oct 2023 05:25:00.000,219.108,61.054,632.427698,32.550,19.730,1327.129835,82.372,19.145,1346.477608,215.653,7.712,1999.996365
28 May 2023 17:48:00.000,289.836,13.779,1614.944832,89.139,9.988,1840.886529,48.346,12.842,1669.191620,221.332,29.173,1031.979390
20 Oct 2023 04:52:00.000,275.215,21.300,1264.778307,41.295,18.166,1394.490835,175.943,17.171,1430.738709,301.322,7.833,1999.983437
27 Jun 2023 03:25:00.000,54.401,33.386,939.941253,338.131,31.773,973.454020,99.422,20.031,1312.172303,280.274,13.106,1643.675340
19 Feb 2024 19:14:00.000,202.660,57.241,653.376214,285.207,7.856,1999.983566,119.039,15.817,1500.297823,58.944,8.574,1942.942190
30 Jun 2023 06:39:00.000,209.152,7.727,1999.992193,312.180,18.188,1397.821166,313.798,21.533,1258.392320,299.593,22.152,1235.053198
26 Jun 2023 05:08:00.000,83.621,39.833,830.404820,205.885,12.176,1695.909811,345.036,21.893,1247.952517,301.108,7.847,1999.999262
01 Jan 2024 16:07:00.000,73.871,7.823,1999.990470,113.194,15.761,1502.886860,115.085,9.281,1894.028185,288.539,32.172,966.895183
05 Aug 2023 07:25:00.000,204.221,20.089,1309.147451,43.975,21.227,1274.283367,161.410,7.700,1999.985875,316.093,20.189,1314.445727
17 Sep 2023 14:43:00.000,69.589,7.888,1999.981830,75.085,68.976,597.479497,245.972,13.709,1611.738430,47.968,16.660,1463.273766
09 Mar 2024 11:40:00.000,70.624,9.378,1885.764939,54.339,15.130,1541.499484,54.923,7.874,1999.984224,327.384,30.854,990.793348
14 Sep 2023 19:48:00.000,176.872,56.448,661.125699,300.409,22.333,1232.620491,63.550,7.874,1999.976891,313.725,20.839,1284.511490
06 Dec 2023 06:42:00.000,32.754,50.907,704.567950,111.301,42.225,795.981578,211.985,21.294,1263.638777,71.861,7.831,1999.975325
24 Aug 2023 03:22:00.000,335.247,50.207,710.861136,53.738,8.847,1932.108960,143.662,7.754,1999.999839,61.135,15.832,1497.845340
22 Feb 2024 19:03:00.000,269.080,21.745,1246.692341,100.144,17.137,1437.191522,270.040,32.816,950.005401,89.419,12.982,1648.821491
06 Dec 2023 08:24:00.000,137.879,38.936,841.713108,120.180,29.062,1034.214537,326.928,18.889,1365.959515,80.501,7.792,1999.984574
10 Aug 2023 09:00:00.000,80.353,14.246,1585.510519,291.821,30.693,996.417399,100.731,23.975,1175.886844,110.864,7.773,1999.984496
24 Jan 2024 13:20:00.000,191.880,7.703,1999.986571,97.475,9.532,1876.083595,73.976,23.194,1197.451033,75.875,7.877,1999.984962
12 Sep 2023 19:53:00.000,81.318,72.810,585.222447,339.233,26.772,1098.026069,171.397,7.782,1999.999553,6.736,56.796,658.165750
28 Jul 2023 17:49:00.000,225.762,16.963,1445.311070,64.789,7.889,1999.996471,147.110,73.118,582.639629,173.106,25.596,1124.793525
28 Mar 2024 07:16:00.000,296.395,35.959,890.106717,89.124,9.811,1856.897336,216.952,7.695,1999.984222,352.840,29.884,1015.155600
20 Feb 2024 19:16:00.000,70.522,9.289,1888.683094,60.870,8.160,1985.615711,120.351,7.696,1999.975713,220.332,13.449,1622.086451
12 Oct 2023 03:35:00.000,70.866,25.495,1128.417783,261.830,7.840,1999.980154,13.806,22.695,1219.206698,58.115,10.284,1826.663013
02 Sep 2023 18:39:00.000,89.596,7.823,1999.998322,302.417,7.815,1999.993022,301.131,7.942,1999.993112,23.025,69.795,595.135571
19 Dec 2023 19:58:00.000,170.342,10.872,1772.867857,45.221,13.925,1605.907698,189.237,7.773,1999.983229,293.287,22.350,1231.614029
09 Nov 2023 16:15:00.000,308.855,53.180,686.373739,96.525,28.062,1059.073751,277.034,20.631,1287.513535,123.069,41.416,806.739339
14 Jun 2023 07:16:00.000,69.286,9.395,1889.002771,257.471,35.451,897.192393,223.015,7.715,1999.988271,6.027,55.975,664.800531
05 May 2023 04:42:00.000,275.476,21.419,1263.142321,336.435,28.475,1049.282490,215.548,34.931,905.745399,231.275,36.182,886.464875
30 Sep 2023 12:23:00.000,290.251,13.792,1611.306148,57.643,24.250,1171.504476,359.343,22.915,1212.667226,65.174,9.937,1848.404765
08 Nov 2023 19:43:00.000,110.802,15.805,1498.030331,46.523,40.979,813.385515,155.849,20.671,1286.384654,155.410,34.963,904.112613
25 Apr 2023 06:40:00.000,287.112,7.874,1999.972099,143.590,13.073,1639.958185,239.498,21.522,1252.443186,19.310,28.200,1059.063700
05 Apr 2023 14:10:00.000,72.590,8.464,1960.527518,70.304,7.866,1999.984570,132.013,12.917,1654.815644,287.705,7.794,1999.990240
26 Apr 2023 10:06:00.000,189.284,8.217,1965.073103,259.772,17.941,1401.795048,17.468,21.274,1266.968618,295.014,7.854,1999.982011
06 Jan 2024 15:46:00.000,276.074,13.522,1622.413305,40.731,18.213,1399.555332,266.742,13.296,1632.448464,289.757,13.018,1652.064260
14 May 2023 23:26:00.000,101.342,15.641,1510.080841,94.661,7.873,1999.983044,146.621,12.289,1685.328979,67.635,7.795,1999.977746
22 Jan 2024 08:20:00.000,270.216,35.574,897.304992,236.793,20.470,1291.672862,95.462,28.386,1046.248708,162.484,7.701,1999.990634
26 Aug 2023 03:16:00.000,298.188,36.009,890.390644,130.677,15.201,1528.876657,324.869,16.979,1443.147789,68.881,8.580,1944.093605
12 Jan 2024 15:38:00.000,102.909,7.776,1999.990267,295.856,7.833,1999.978566,194.124,11.378,1748.143805,33.439,34.967,907.950043
31 Oct 2023 19:56:00.000,268.106,13.531,1620.765705,321.165,20.021,1322.191685,312.193,12.365,1696.271027,11.004,31.925,966.781965
22 Oct 2023 03:09:00.000,92.546,74.050,580.398573,127.081,42.261,796.073299,123.876,15.802,1498.772111,33.303,25.079,1138.950461
21 May 2023 19:50:00.000,86.842,14.845,1554.044370,291.795,7.897,1999.975888,51.170,7.911,1999.990441,230.533,39.629,831.333966
10 Mar 2024 16:39:00.000,153.225,8.661,1925.794584,305.873,18.597,1378.529062,264.912,13.324,1627.509746,91.997,33.639,934.113161
30 May 2023 11:07:00.000,112.208,12.841,1663.872431,57.445,25.598,1131.818644,327.558,18.577,1380.625108,307.659,19.012,1357.965714
24 Jun 2023 03:28:00.000,281.826,34.353,920.604607,41.881,16.966,1452.327023,287.753,7.879,1999.993549,152.599,35.707,894.420473
06 Jan 2024 12:31:00.000,99.834,8.693,1932.679291,218.361,8.669,1926.021267,7.410,32.982,948.740323,241.476,13.601,1612.963586
23 Jul 2023 14:40:00.000,53.789,39.933,831.886427,74.889,7.821,1999.990114,51.179,8.045,1988.606573,296.488,22.187,1234.022633
21 Jul 2023 14:46:00.000,73.104,25.596,1129.620430,129.759,12.163,1702.826079,58.482,12.140,1704.330753,283.804,7.887,1999.999392
29 Nov 2023 12:05:00.000,153.931,17.398,1422.088247,43.873,44.620,768.125332,71.674,16.123,1487.181619,307.213,13.039,1648.382346
22 May 2023 18:03:00.000,327.558,46.985,745.566155,152.878,34.048,922.902994,304.321,22.216,1235.782196,251.579,27.436,1073.627106
04 Aug 2023 14:12:00.000,219.770,31.307,982.464967,266.843,32.157,961.525498,33.845,16.783,1453.710855,62.219,28.751,1040.798984
07 May 2023 21:58:00.000,86.562,20.658,1292.250693,229.847,13.621,1613.517876,310.463,45.842,755.326748,274.306,12.868,1663.249339
15 Oct 2023 03:29:00.000,67.264,14.641,1561.746253,276.860,33.489,936.875999,36.515,28.969,1034.245932,113.654,15.676,1500.831037
19 May 2023 16:33:00.000,83.468,10.313,1826.059977,215.249,20.965,1280.799639,67.696,7.836,1999.983536,308.537,35.748,895.015368
28 Feb 2024 15:27:00.000,120.552,62.013,626.576015,312.054,12.635,1677.200192,309.837,35.791,891.809743,130.098,12.009,1708.922900
17 Jun 2023 08:46:00.000,328.410,55.542,669.662104,128.818,8.893,1915.193380,61.561,7.836,1999.986694,73.252,7.802,1999.991361
02 Mar 2024 11:58:00.000,127.627,7.729,1999.996588,36.237,37.018,876.316452,50.090,14.009,1597.841331,230.826,7.707,1999.991084
23 Apr 2023 06:44:00.000,279.364,7.861,1999.992268,58.940,13.459,1627.050416,165.809,7.758,1999.986273,292.710,19.812,1322.294636
20 Jun 2023 07:04:00.000,87.493,7.852,1999.975328,306.411,21.908,1244.220527,42.554,21.251,1268.496795,70.896,7.835,1999.992559
19 Apr 2023 08:33:00.000,284.739,13.469,1629.580540,105.050,8.786,1932.880808,279.538,58.344,647.742687,292.393,22.130,1235.806834
27 Jun 2023 01:47:00.000,69.638,7.856,1999.975501,266.073,7.805,1999.983157,104.230,8.585,1945.746020,98.083,9.319,1884.342076
28 Dec 2023 21:14:00.000,297.274,21.630,1253.314203,68.244,24.963,1144.343794,167.445,12.737,1664.855748,239.705,22.212,1228.504671
08 Aug 2023 09:02:00.000,20.550,47.362,740.216663,99.744,14.512,1565.726631,58.420,9.412,1891.355836,207.859,33.471,934.393508
04 Feb 2024 00:59:00.000,204.772,12.736,1656.875527,165.629,10.797,1781.530582,279.290,12.923,1652.760954,131.194,8.499,1938.390239
19 Jun 2023 10:19:00.000,271.496,7.853,1999.997868,56.325,23.281,1200.789738,168.153,24.795,1149.692435,58.212,7.880,1999.997165
09 May 2023 01:12:00.000,297.310,21.668,1255.986114,84.670,71.974,590.304087,169.142,11.379,1745.651662,223.090,8.047,1975.123790
19 Jul 2023 18:13:00.000,79.901,14.244,1585.914172,85.625,12.197,1705.321283,74.557,32.080,963.032231,331.627,28.896,1039.881074
27 Dec 2023 23:01:00.000,130.820,40.574,815.996446,253.838,11.010,1770.447991,38.479,32.270,960.131559,313.660,46.514,745.540192
18 Jul 2023 16:33:00.000,65.006,25.407,1135.197926,295.861,7.872,1999.988814,301.952,22.325,1232.778332,62.880,9.799,1853.290995
18 Oct 2023 03:22:00.000,77.090,14.057,1592.104500,104.163,15.116,1535.847563,6.701,23.471,1191.822918,63.039,16.430,1474.601821
08 Jan 2024 19:06:00.000,191.887,25.525,1122.674614,239.414,22.186,1231.403842,55.312,11.715,1735.235255,100.730,22.161,1233.762928
22 May 2023 19:50:00.000,97.771,7.850,1999.979663,68.087,7.916,1999.976319,240.406,22.103,1234.584977,191.993,19.119,1344.541293
03 May 2023 22:01:00.000,166.019,7.743,1999.990197,60.596,8.041,1985.802395,53.520,7.936,1992.609525,324.447,59.952,640.250081
07 Oct 2023 10:26:00.000,272.755,21.016,1277.841554,339.019,22.978,1211.264539,309.227,7.864,1999.979726,234.943,22.121,1232.721020
03 Feb 2024 07:53:00.000,141.180,7.712,1999.991462,31.694,33.161,948.115322,328.267,18.283,1392.716497,58.192,7.823,1999.969686
02 Jan 2024 19:18:00.000,292.569,13.625,1616.759028,297.452,7.947,1999.984145,52.630,7.822,1999.990245,163.463,22.677,1209.920778
06 Sep 2023 21:51:00.000,91.517,15.036,1539.448983,171.896,25.340,1134.481803,285.380,7.832,2000.000038,153.696,19.571,1329.103833
05 Dec 2023 10:09:00.000,162.255,7.717,1999.983261,117.651,7.838,1999.993822,62.036,25.547,1124.811669,283.668,7.804,1999.977257
28 Jan 2024 04:42:00.000,216.183,33.955,924.004953,230.405,17.550,1412.655072,91.828,7.866,1999.998867,91.382,7.790,1999.989893
06 Dec 2023 03:18:00.000,210.792,33.213,938.282822,178.637,18.282,1382.510839,271.352,33.997,926.233058,295.470,30.839,992.730637
14 Jun 2023 05:31:00.000,153.102,31.103,984.798765,60.059,62.949,623.574711,48.017,11.478,1749.681090,85.024,37.817,859.164479
18 Jan 2024 15:20:00.000,165.790,7.696,1999.988338,92.803,7.901,1999.974271,281.822,20.272,1307.970007,67.324,7.840,1999.983111
17 Mar 2024 06:07:00.000,181.990,7.666,2000.000093,118.061,8.572,1940.452495,312.783,12.309,1697.058158,143.932,12.873,1658.531511
09 Jan 2024 14:01:00.000,18.745,60.723,635.530609,43.597,44.348,772.356798,237.442,13.537,1613.761293,61.091,9.929,1848.541733
07 Nov 2023 19:42:00.000,317.990,59.950,639.510000,58.958,7.902,1999.979154,65.234,13.997,1595.817321,230.538,13.531,1612.156336
11 May 2023 23:29:00.000,28.210,48.059,733.011789,302.680,7.903,1999.992942,293.926,12.674,1675.766688,285.819,20.367,1302.900211
14 Jan 2024 08:47:00.000,111.468,7.816,1996.967498,49.825,11.346,1761.558160,106.561,41.719,803.799698,172.942,46.582,746.525305
01 Nov 2023 20:02:00.000,71.557,7.826,1999.990441,12.333,26.055,1117.949338,78.622,7.810,1999.999828,274.365,7.803,1999.998739
13 May 2023 18:26:00.000,92.306,7.867,1999.998735,190.511,12.389,1685.694825,157.326,9.079,1901.034270,181.719,17.802,1403.904347
07 Jan 2024 15:51:00.000,74.400,7.827,1999.985310,211.404,7.751,2000.000015,177.261,20.378,1292.774842,34.256,35.817,895.461664
11 Sep 2023 21:35:00.000,224.631,37.363,866.397762,299.517,18.958,1356.880317,150.515,9.704,1857.435824,356.043,42.000,798.049720
02 Jul 2023 04:50:00.000,263.740,12.253,1695.549416,118.167,12.028,1707.877474,216.040,7.705,1999.984001,58.287,7.802,1999.990140
30 Sep 2023 09:04:00.000,287.163,59.253,644.457008,290.088,13.661,1617.403542,57.549,7.838,1999.990588,278.031,33.721,933.215201
24 Mar 2024 10:49:00.000,254.436,17.707,1408.829914,320.493,20.063,1315.543351,229.450,36.373,884.343627,140.165,15.243,1528.444840
23 Feb 2024 15:45:00.000,102.789,7.748,1999.981601,30.436,31.800,972.671027,53.643,15.252,1531.845560,275.598,59.773,641.377075
15 Jul 2023 14:55:00.000,164.921,7.765,1999.998473,79.506,9.585,1870.371685,276.000,13.143,1642.113344,60.203,10.063,1841.893568
30 Jan 2024 09:40:00.000,220.312,32.018,964.014558,216.839,11.571,1734.298067,350.954,25.065,1147.620090,123.772,9.126,1900.050703
23 Mar 2024 07:37:00.000,75.555,8.214,1969.855380,175.878,11.467,1738.303902,343.249,25.648,1122.982692,313.769,20.811,1284.250327
21 Feb 2024 17:31:00.000,91.692,15.126,1531.672732,36.683,18.392,1386.633792,214.158,19.146,1347.381153,150.703,71.834,587.855541
23 Jan 2024 13:24:00.000,173.426,7.701,1999.977218,292.788,7.836,1999.984419,44.271,43.427,783.978388,46.175,18.691,1372.560775
06 Jul 2023 03:01:00.000,267.087,12.556,1677.735910,181.951,7.743,1999.986705,122.466,25.639,1125.458964,294.223,12.971,1661.035372
28 Jun 2023 06:39:00.000,269.310,7.821,1999.990649,21.040,23.108,1206.353643,291.647,7.803,1999.978429,205.574,12.924,1648.110912
11 Apr 2023 08:52:00.000,154.538,32.177,963.914319,322.736,24.602,1160.860561,313.398,12.278,1696.001767,157.098,8.371,1950.343778
24 Sep 2023 16:05:00.000,149.055,19.333,1340.270697,76.246,10.316,1825.183882,217.986,13.421,1626.490987,253.612,16.907,1445.724285
15 Apr 2023 08:40:00.000,254.148,7.830,1999.990741,334.815,57.707,653.007639,51.675,7.838,1999.979039,109.242,9.089,1898.878840
28 Sep 2023 10:54:00.000,68.494,14.391,1578.850501,23.234,23.014,1205.737219,50.415,8.320,1967.099558,202.309,12.848,1656.299216
15 Dec 2023 06:17:00.000,221.178,14.703,1551.229392,286.246,13.476,1624.018427,196.724,22.807,1210.436084,50.075,15.858,1501.813798
25 Oct 2023 01:16:00.000,292.481,13.577,1618.942706,133.489,13.284,1633.286567,307.964,36.131,888.426459,96.254,29.888,1017.019541
12 Aug 2023 07:16:00.000,73.895,7.870,1999.999931,65.078,7.889,1999.999667,247.821,25.149,1138.316555,74.790,34.459,919.451654
12 Jul 2023 21:48:00.000,77.186,38.355,853.053273,79.162,34.701,912.761373,202.547,12.933,1653.552378,47.586,16.940,1453.432646
14 Sep 2023 13:06:00.000,120.257,11.740,1727.176039,257.114,7.794,1999.982437,80.376,70.572,588.957099,138.315,23.309,1193.273513
18 Jan 2024 10:14:00.000,18.683,60.444,637.173691,199.367,7.776,1994.983529,60.882,9.297,1889.089606,181.687,9.943,1833.226967
12 Dec 2023 04:46:00.000,81.283,39.226,837.593829,52.187,42.224,800.016991,27.831,20.533,1302.124145,71.714,10.557,1803.479069
27 Jun 2023 00:00:00.000,177.095,25.884,1114.299389,359.664,25.121,1139.998180,27.772,20.586,1299.642305,264.241,19.168,1352.167903
29 Jul 2023 14:29:00.000,82.713,23.551,1192.137629,37.062,18.321,1388.973056,95.887,7.784,1999.982379,63.468,9.379,1888.092484
09 Jul 2023 20:10:00.000,260.702,36.184,888.477133,303.794,7.877,1999.990816,269.981,7.796,1999.993968,306.988,19.053,1356.779356
25 Aug 2023 04:59:00.000,257.653,30.995,987.224356,261.582,18.416,1383.000967,181.602,58.734,644.181898,25.766,28.767,1041.341660
10 May 2023 01:15:00.000,81.591,39.634,833.849071,0.328,40.699,821.981441,59.945,7.897,1999.986838,23.880,28.443,1052.324358
15 Sep 2023 13:06:00.000,91.489,7.852,1999.995022,285.317,21.723,1248.823300,125.591,7.690,1999.969727,271.912,12.749,1669.303296
25 Aug 2023 23:51:00.000,252.238,7.773,1999.978267,41.751,18.017,1406.468076,308.144,7.804,1999.980221,59.321,7.891,1999.982135
28 Jan 2024 11:25:00.000,234.632,12.970,1649.644067,53.741,7.878,1999.989776,295.622,7.806,1999.990205,31.417,32.560,953.848852
07 Jun 2023 10:43:00.000,268.972,7.864,1999.991987,305.160,7.925,1999.998797,286.432,7.848,1999.988896,185.879,7.636,1999.995033
15 Jun 2023 08:48:00.000,296.366,21.372,1267.140988,32.641,27.630,1068.660727,43.019,12.790,1672.542611,232.113,7.702,1999.991208
09 Aug 2023 07:14:00.000,258.554,13.700,1611.669177,130.232,25.026,1143.591159,131.241,7.711,1999.999813,245.633,7.837,1999.977965
23 Jul 2023 16:16:00.000,285.741,7.904,1999.990743,90.292,22.193,1232.619127,42.115,13.247,1645.652625,298.334,7.879,1999.997933
04 Aug 2023 07:29:00.000,146.472,26.691,1093.419501,65.960,7.819,1999.973288,131.957,12.862,1655.812914,69.591,7.860,1999.970599
