aer_data/combined_aer_data.csv

Time (UTCG),azimuth_1,elevation_1,range_1,azimuth_2,elevation_2,range_2,azimuth_3,elevation_3,range_3
24 Mar 2024 10:48:00.000,266.298,12.551,1680.860547,98.026,14.246,1578.903397,36.486,28.763,1040.394802
27 Mar 2024 09:01:00.000,226.201,39.024,842.246049,268.574,32.516,955.755046,345.102,27.061,1082.650901
10 Mar 2024 13:11:00.000,292.938,21.266,1271.681577,28.559,24.609,1157.370743,136.390,22.826,1207.081834
02 Mar 2024 15:14:00.000,265.111,13.691,1614.839356,169.907,16.197,1474.060836,300.812,22.256,1230.742663
07 Mar 2024 15:06:00.000,75.371,22.574,1223.760054,218.880,12.385,1682.630206,70.877,7.812,1999.990110
31 Mar 2024 00:23:00.000,188.570,7.686,1999.978318,148.872,21.050,1270.983384,25.919,24.642,1154.584520
20 Mar 2024 07:39:00.000,268.013,21.970,1243.792034,57.536,9.001,1914.496140,66.241,25.236,1135.396723
11 Mar 2024 16:29:00.000,261.108,12.019,1711.944658,188.612,18.855,1354.706794,239.737,13.643,1610.408888
18 Mar 2024 06:11:00.000,88.805,7.855,1999.985157,172.645,7.683,1999.989274,165.977,13.717,1600.132756
08 Mar 2024 18:19:00.000,253.460,7.807,1999.997053,183.669,28.847,1035.735680,15.017,22.135,1237.265314
07 Mar 2024 15:00:00.000,291.106,13.590,1623.341354,42.713,42.720,791.069075,275.012,13.128,1642.813332
28 Mar 2024 03:59:00.000,66.389,25.539,1129.168270,170.924,7.704,1999.992813,235.323,42.014,797.165445
01 Mar 2024 20:26:00.000,161.252,13.694,1606.446819,290.924,7.821,1999.976906,179.211,61.145,630.619581
09 Mar 2024 13:17:00.000,19.384,47.890,735.375929,251.541,7.758,1999.980958,48.438,9.480,1879.324785
22 Mar 2024 11:00:00.000,144.501,20.784,1284.598626,349.594,26.924,1089.670720,328.105,18.167,1392.557423
19 Mar 2024 12:47:00.000,217.418,28.580,1045.287571,76.595,10.254,1825.262708,78.908,10.150,1827.753785
26 Mar 2024 05:42:00.000,320.124,49.611,717.582013,218.363,7.682,1999.982802,289.428,21.924,1242.585257
06 Mar 2024 18:28:00.000,213.879,23.730,1180.634295,297.417,7.843,1999.974635,170.939,7.660,1999.993995
08 Mar 2024 11:40:00.000,87.388,39.120,842.544094,63.109,9.341,1889.835069,82.267,19.533,1331.443456
04 Mar 2024 13:35:00.000,72.687,15.653,1512.917667,62.985,7.852,1999.981814,327.513,18.470,1378.037040
08 Mar 2024 13:24:00.000,71.367,8.559,1949.243746,293.973,13.669,1615.476370,85.750,11.734,1725.847456
28 Mar 2024 04:00:00.000,68.323,15.883,1500.307826,200.682,12.825,1656.622701,242.983,14.196,1579.763591
14 Mar 2024 09:43:00.000,68.604,25.760,1124.571685,4.864,33.173,944.411837,352.795,24.357,1162.938008
09 Mar 2024 13:13:00.000,281.918,13.479,1629.091346,190.464,19.106,1347.422652,313.786,12.243,1697.824822
25 Mar 2024 05:45:00.000,307.466,53.855,681.513333,342.182,29.787,1017.915102,157.981,10.182,1817.843343
09 Mar 2024 14:55:00.000,295.794,22.035,1243.768968,56.192,8.608,1944.004878,73.398,16.764,1452.915534
16 Mar 2024 07:55:00.000,98.144,32.288,962.556577,261.974,18.446,1378.445667,98.714,12.670,1668.009310
11 Mar 2024 09:47:00.000,209.234,20.642,1289.861069,322.355,19.430,1339.155877,82.025,19.481,1334.396462
18 Mar 2024 07:51:00.000,71.062,15.837,1504.225508,142.520,13.324,1627.385918,289.396,19.503,1334.189188
08 Mar 2024 09:57:00.000,158.483,13.876,1599.979919,289.130,62.950,623.254537,27.394,20.904,1281.678805
06 Mar 2024 15:06:00.000,335.237,46.313,751.496605,67.652,7.845,1999.977827,343.330,21.307,1266.649718
28 Mar 2024 05:34:00.000,286.178,13.520,1624.679583,349.015,27.115,1084.947085,85.592,7.789,1999.990781
12 Mar 2024 13:05:00.000,297.280,21.588,1260.203498,31.207,20.559,1296.232746,64.537,26.781,1091.114345
23 Mar 2024 09:09:00.000,290.434,7.887,1999.971819,229.291,13.597,1614.169584,64.090,13.648,1614.601524
27 Mar 2024 04:03:00.000,71.273,15.906,1499.036916,161.494,22.254,1225.158147,160.810,16.580,1454.484827
16 Mar 2024 11:12:00.000,291.008,13.576,1624.461279,71.610,24.351,1163.243052,25.847,20.711,1288.831389
14 Mar 2024 11:20:00.000,302.853,32.467,960.634015,1.392,39.525,835.467135,49.438,24.320,1163.921072
26 Mar 2024 10:42:00.000,255.009,7.825,1999.985267,160.851,14.681,1551.837774,172.444,8.056,1967.859656
07 Mar 2024 13:24:00.000,50.832,37.794,863.736888,122.786,15.684,1502.279094,179.681,7.647,1999.988617
10 Mar 2024 11:36:00.000,68.098,15.864,1503.353028,355.561,25.488,1130.403304,34.793,26.361,1103.905739
18 Mar 2024 07:52:00.000,70.703,9.348,1892.531151,70.500,7.847,1999.970218,119.955,48.429,725.498412
21 Mar 2024 05:54:00.000,228.744,13.510,1620.067040,165.883,13.355,1625.346488,146.341,9.294,1882.452485
18 Mar 2024 11:12:00.000,91.722,24.599,1157.874730,178.902,17.469,1413.784402,61.469,12.862,1659.166989
25 Mar 2024 02:26:00.000,134.081,9.634,1861.524628,182.625,8.350,1950.530076,137.904,23.896,1172.813679
31 Mar 2024 05:28:00.000,332.023,53.734,682.389740,358.901,42.830,789.927919,56.874,7.831,1999.990154
17 Mar 2024 09:32:00.000,16.561,51.318,703.429582,43.897,14.542,1569.753672,196.302,12.581,1667.891283
05 Mar 2024 18:35:00.000,146.232,7.728,1999.977896,53.670,7.845,1999.982180,117.137,42.240,794.573445
17 Mar 2024 14:35:00.000,200.312,9.963,1839.506494,216.265,22.165,1231.541101,70.021,15.593,1510.867636
19 Mar 2024 12:44:00.000,270.134,12.880,1662.201364,282.672,13.261,1637.941516,242.345,13.993,1589.294921
10 Mar 2024 13:18:00.000,77.819,8.224,1973.472782,89.154,9.835,1852.755345,40.551,16.014,1491.138845
26 Mar 2024 09:09:00.000,129.018,8.266,1963.556719,106.149,7.769,1999.998780,306.099,7.826,1999.990555
19 Mar 2024 07:45:00.000,35.316,71.257,591.134873,300.391,18.879,1362.933241,163.057,7.674,1999.978626
15 Mar 2024 12:59:00.000,292.486,63.487,622.416874,193.787,11.252,1749.237502,167.307,24.178,1161.456132
02 Mar 2024 17:03:00.000,82.939,7.842,1999.983483,323.703,18.161,1392.936268,50.779,7.822,1999.989889
27 Mar 2024 05:39:00.000,299.392,32.582,956.598958,251.060,21.982,1240.403988,102.388,68.624,596.774278
18 Mar 2024 06:08:00.000,137.513,21.141,1270.897616,54.991,8.496,1952.543941,104.881,67.371,600.508368
02 Mar 2024 18:37:00.000,287.405,22.273,1233.549386,215.100,21.363,1256.910795,54.003,15.360,1523.799681
13 Mar 2024 13:09:00.000,94.584,8.942,1918.144738,303.748,7.850,1999.990731,58.264,12.059,1706.839511
23 Mar 2024 05:48:00.000,250.457,13.704,1611.068766,329.311,23.425,1194.984862,252.906,35.816,891.469666
05 Mar 2024 11:46:00.000,185.316,17.948,1399.193366,127.156,8.992,1907.455770,86.011,7.773,1999.991073
16 Mar 2024 13:01:00.000,119.663,7.800,1999.976949,286.568,13.513,1623.617642,98.478,12.036,1704.407105
15 Mar 2024 09:41:00.000,67.262,15.734,1509.992668,74.534,12.971,1654.540544,63.643,7.807,1999.998946
31 Mar 2024 03:52:00.000,72.577,7.861,1999.974008,158.844,7.958,1977.590719,328.305,18.081,1393.948000
23 Mar 2024 09:13:00.000,318.789,59.244,645.525425,248.772,62.695,624.374023,145.863,38.954,839.635193
19 Mar 2024 06:02:00.000,192.444,18.863,1358.728488,31.210,32.623,955.483031,71.138,7.813,1999.989895
30 Mar 2024 07:16:00.000,123.893,8.818,1922.714693,3.274,25.919,1118.797725,168.027,28.586,1038.235855
04 Mar 2024 11:51:00.000,132.166,17.988,1398.950181,295.352,36.357,884.829803,42.798,21.478,1260.024926
22 Mar 2024 07:40:00.000,72.731,7.887,1999.986715,300.162,12.555,1678.901484,125.331,7.723,1999.973778
11 Mar 2024 16:32:00.000,211.009,20.063,1311.088194,80.854,19.665,1327.187357,295.876,7.788,1999.996269
06 Mar 2024 18:26:00.000,253.488,17.508,1420.468394,44.724,18.634,1373.467591,188.996,49.917,710.864840
10 Mar 2024 14:50:00.000,290.241,7.896,1999.975481,63.157,7.858,1999.982903,83.706,19.999,1311.300675
02 Mar 2024 16:59:00.000,27.890,48.379,729.587178,321.303,24.757,1151.334520,136.899,24.146,1164.712643
29 Mar 2024 05:34:00.000,336.654,46.972,743.674357,38.119,35.080,907.241057,341.893,55.430,667.867890
08 Mar 2024 18:20:00.000,241.756,10.077,1834.107265,152.392,36.545,878.326180,272.653,33.626,931.082679
04 Mar 2024 18:30:00.000,279.743,13.437,1629.452958,242.234,13.599,1615.080129,158.042,21.338,1258.231024
01 Mar 2024 18:45:00.000,104.245,25.459,1129.177093,3.029,36.492,882.749871,145.976,12.205,1691.845312
11 Mar 2024 14:56:00.000,115.298,7.797,1999.995312,315.912,20.919,1282.031512,182.339,12.101,1693.691312
30 Mar 2024 00:27:00.000,171.114,7.689,1999.982650,53.569,8.827,1926.377692,338.355,28.544,1045.823968
28 Mar 2024 04:01:00.000,69.460,9.391,1887.639741,62.047,26.548,1099.546441,341.473,28.598,1044.877474
12 Mar 2024 11:31:00.000,70.343,8.773,1934.195401,87.063,12.386,1686.869040,95.473,13.617,1613.539375
28 Mar 2024 07:22:00.000,105.560,9.343,1887.570155,61.091,7.861,1999.981078,305.385,13.560,1619.728623
02 Mar 2024 20:22:00.000,178.155,13.208,1633.534014,49.846,11.379,1752.210035,79.794,8.597,1938.098828
24 Mar 2024 07:34:00.000,79.909,7.873,1999.976950,329.494,31.440,980.292759,278.314,7.798,1999.990443
22 Mar 2024 11:02:00.000,134.222,7.781,1999.981977,341.260,24.472,1161.125722,51.198,7.841,1999.983388
18 Mar 2024 09:30:00.000,50.591,34.004,930.170590,321.723,24.688,1154.717858,282.550,32.036,964.104947
02 Mar 2024 11:57:00.000,143.929,7.770,1999.999271,116.041,9.308,1886.138425,304.846,27.421,1072.898938
18 Mar 2024 06:06:00.000,175.539,16.624,1458.075643,63.377,7.837,1999.980208,305.095,18.139,1392.814384
19 Mar 2024 07:49:00.000,69.681,7.895,1999.977913,35.691,31.615,976.306012,299.343,7.824,1999.996690
09 Mar 2024 15:02:00.000,98.816,7.826,1999.990684,332.597,23.052,1207.556262,136.687,7.708,1999.978658
06 Mar 2024 13:22:00.000,260.705,13.741,1612.144264,4.796,32.826,950.169249,228.035,34.935,906.310742
10 Mar 2024 13:16:00.000,67.170,21.984,1245.414617,304.438,36.116,889.224413,232.673,7.665,1999.986262
21 Mar 2024 11:00:00.000,248.394,55.344,670.559089,56.326,8.608,1942.266828,29.529,21.808,1246.753824
27 Mar 2024 05:38:00.000,287.480,21.227,1270.806032,292.400,30.509,999.566008,171.652,47.003,738.487923
19 Mar 2024 09:26:00.000,23.323,46.910,745.444597,295.355,7.850,1999.978272,244.672,7.738,1999.978631
22 Mar 2024 10:57:00.000,231.368,44.269,773.012051,272.301,59.977,639.080848,295.289,7.806,1999.991656
11 Mar 2024 13:15:00.000,82.452,8.347,1963.642487,133.054,8.460,1945.296836,254.560,27.961,1057.951994
19 Mar 2024 09:22:00.000,286.391,13.515,1627.017215,331.399,59.011,644.573586,95.316,22.972,1204.419374
24 Mar 2024 07:30:00.000,25.528,47.146,742.530266,231.415,36.007,888.938732,114.584,7.740,1999.995256
11 Mar 2024 11:34:00.000,69.719,7.897,1999.990078,292.853,7.837,1999.985340,177.862,7.677,1999.987653
09 Mar 2024 14:53:00.000,290.368,7.896,1999.970572,65.344,15.059,1540.375772,82.368,10.992,1772.481550
17 Mar 2024 09:35:00.000,67.682,14.608,1568.027742,243.022,36.317,883.318522,325.945,17.056,1440.301475
26 Mar 2024 09:04:00.000,238.935,50.343,710.286850,116.574,9.271,1887.390235,339.249,21.152,1270.735464
30 Mar 2024 03:48:00.000,276.579,21.558,1257.135084,109.927,42.257,796.168369,30.432,18.298,1386.835680
13 Mar 2024 14:41:00.000,283.931,7.885,1999.971094,261.774,11.756,1725.598257,17.539,21.266,1268.255724
19 Mar 2024 12:43:00.000,277.111,7.874,1999.987913,265.629,58.883,645.266939,260.486,7.765,1999.997165
10 Mar 2024 11:28:00.000,254.870,7.835,1999.979343,97.344,7.797,1999.985167,81.404,38.291,851.643281
29 Mar 2024 05:39:00.000,82.185,7.855,1999.976128,221.978,62.016,627.632950,199.745,7.818,1989.547522
24 Mar 2024 07:34:00.000,79.691,8.222,1973.438723,132.949,73.943,581.279294,32.200,17.397,1426.959717
08 Mar 2024 14:59:00.000,307.117,34.231,925.497096,352.646,48.596,725.478357,328.285,17.767,1410.203571
15 Mar 2024 09:38:00.000,23.152,66.237,610.129958,63.778,15.831,1501.659192,319.565,17.110,1438.654691
02 Mar 2024 17:00:00.000,59.354,34.251,924.006661,119.963,28.636,1042.446779,64.188,26.454,1100.012527
17 Mar 2024 07:50:00.000,199.759,56.284,663.336020,332.284,23.061,1206.587481,345.408,26.901,1088.693809
23 Mar 2024 04:11:00.000,166.283,22.681,1214.463577,236.121,13.600,1614.613542,48.462,12.835,1662.911528
29 Mar 2024 07:11:00.000,288.965,13.754,1612.456118,75.217,7.821,1999.994296,96.376,8.437,1946.678689
10 Mar 2024 14:52:00.000,292.554,22.184,1238.365665,353.861,47.707,735.108230,343.767,21.363,1263.622900
26 Mar 2024 07:27:00.000,87.443,14.827,1553.801260,71.485,14.137,1588.102618,211.496,21.065,1266.242850
09 Mar 2024 11:35:00.000,238.501,62.727,625.818476,295.135,7.809,1999.976982,161.152,69.482,593.786276
21 Mar 2024 05:53:00.000,231.591,7.764,1999.991770,340.927,25.024,1143.395416,281.552,7.768,1999.990211
06 Mar 2024 11:43:00.000,185.658,28.224,1053.861252,121.775,7.751,1999.981337,122.854,14.544,1560.052691
04 Mar 2024 16:51:00.000,305.262,34.771,914.814702,335.279,22.837,1214.553194,0.971,53.375,682.541009
26 Mar 2024 07:26:00.000,81.926,23.479,1193.238207,185.120,54.574,673.058017,97.877,24.429,1158.318915
12 Mar 2024 11:22:00.000,269.479,7.861,1999.995544,87.024,15.354,1524.126199,254.515,21.845,1240.816919
24 Mar 2024 10:55:00.000,157.249,7.754,1999.984982,42.888,43.920,776.235180,294.296,22.072,1236.060948
26 Mar 2024 04:00:00.000,230.610,21.875,1243.169206,220.636,13.413,1619.410353,211.060,9.172,1890.179705
04 Mar 2024 15:16:00.000,68.903,14.252,1585.757583,312.604,13.107,1649.283953,280.305,12.975,1652.129402
18 Mar 2024 11:09:00.000,326.350,56.949,660.395769,304.602,7.835,1999.998230,282.254,7.802,1999.989566
25 Mar 2024 09:05:00.000,285.047,22.210,1236.601961,20.758,23.100,1206.000878,232.257,13.493,1616.116382
25 Mar 2024 07:31:00.000,84.720,8.392,1959.914054,55.355,22.936,1209.340438,55.997,11.672,1732.040190
09 Mar 2024 13:20:00.000,70.161,14.190,1589.835745,144.198,16.664,1453.992570,81.596,19.592,1330.068151
19 Mar 2024 12:49:00.000,172.583,20.243,1304.392121,284.735,20.223,1307.508790,103.587,8.528,1942.037996
30 Mar 2024 07:14:00.000,130.142,24.102,1170.236615,154.472,20.100,1308.008076,135.656,22.280,1223.852240
19 Mar 2024 09:27:00.000,53.910,33.482,940.164008,225.409,32.288,958.663620,108.674,8.877,1915.494265
22 Mar 2024 04:12:00.000,179.756,11.526,1734.919434,54.727,7.841,1999.977509,53.786,15.249,1529.791869
06 Mar 2024 15:09:00.000,69.507,22.133,1239.405002,76.279,7.801,1999.989558,90.676,7.752,1999.989544
09 Mar 2024 09:56:00.000,138.071,21.508,1258.487536,338.987,22.957,1210.711572,63.536,9.124,1900.058113
31 Mar 2024 02:04:00.000,237.184,21.965,1239.449547,83.659,11.797,1724.564020,88.714,8.359,1956.453051
15 Mar 2024 14:40:00.000,214.218,24.103,1170.172191,312.332,12.614,1678.162062,70.899,67.557,600.961556
28 Mar 2024 07:20:00.000,102.435,25.507,1129.222571,286.047,7.812,1999.987859,50.657,7.834,1999.981165
05 Mar 2024 15:08:00.000,303.220,32.561,958.199720,63.029,8.198,1973.149578,51.442,14.651,1561.245317
05 Mar 2024 16:48:00.000,294.364,22.238,1235.922446,203.822,10.586,1795.195533,189.592,30.304,999.569334
28 Mar 2024 07:13:00.000,290.300,7.871,1999.990859,3.438,36.088,890.517850,51.177,7.833,1999.980978
03 Mar 2024 15:12:00.000,277.810,21.555,1259.643710,138.811,7.717,1999.989854,10.178,24.734,1152.072562
24 Mar 2024 07:31:00.000,56.152,33.558,938.132796,40.252,38.579,849.597043,203.708,12.897,1648.596504
06 Mar 2024 11:40:00.000,216.375,7.773,1999.983746,332.799,58.662,647.459573,312.994,21.528,1256.250431
30 Mar 2024 00:30:00.000,130.998,11.665,1727.072461,44.935,18.706,1370.879227,302.531,13.642,1614.023141
24 Mar 2024 05:50:00.000,56.832,40.958,816.010034,185.104,7.708,1999.977481,185.402,18.445,1372.503598
06 Mar 2024 18:25:00.000,265.517,12.433,1686.487937,143.072,16.286,1469.983291,2.910,22.658,1218.337363
10 Mar 2024 16:33:00.000,258.955,18.657,1371.521344,313.098,12.968,1657.467669,351.145,50.526,705.937681
15 Mar 2024 07:58:00.000,103.236,24.818,1150.406211,54.783,22.628,1220.257972,75.483,9.356,1884.153834
08 Mar 2024 15:02:00.000,71.441,36.922,877.024139,276.893,34.513,917.099981,176.370,17.195,1428.173292
01 Mar 2024 20:27:00.000,152.380,7.711,1999.990774,61.174,9.369,1887.788490,41.398,39.454,833.313235
29 Mar 2024 05:39:00.000,81.946,8.249,1970.077128,323.668,18.175,1394.032361,171.685,8.936,1905.757301
14 Mar 2024 14:46:00.000,148.654,10.421,1808.885896,359.965,25.186,1140.294478,317.737,24.745,1150.952060
21 Mar 2024 07:39:00.000,16.415,54.004,681.237876,287.511,13.470,1624.771363,27.352,30.049,1008.814964
25 Mar 2024 05:51:00.000,70.044,7.882,1999.985245,290.046,19.769,1325.163615,64.915,15.514,1512.484321
18 Mar 2024 11:14:00.000,98.471,7.844,1999.977908,224.036,14.639,1554.744310,239.091,7.718,1999.990536
15 Mar 2024 11:20:00.000,56.240,33.739,935.198663,300.110,7.846,1999.994938,319.624,20.580,1291.774607
12 Mar 2024 14:44:00.000,287.053,7.891,1999.973253,108.391,15.462,1516.455962,226.595,15.681,1501.368605
12 Mar 2024 11:26:00.000,314.808,51.024,705.870032,268.055,12.333,1690.778785,139.336,23.500,1182.831293
11 Mar 2024 13:14:00.000,78.585,14.211,1587.927676,46.674,49.672,715.797633,255.445,55.031,669.340853
10 Mar 2024 09:55:00.000,91.795,14.932,1548.793784,302.926,13.732,1613.032948,171.564,7.635,1999.994000
03 Mar 2024 20:18:00.000,203.965,12.846,1655.159647,285.105,32.073,965.662904,283.301,20.138,1307.879477
12 Mar 2024 14:49:00.000,174.181,58.250,650.389552,309.960,12.547,1681.834903,61.719,74.957,577.887232
23 Mar 2024 07:32:00.000,331.059,46.213,752.396018,7.230,30.126,1010.073412,32.189,17.401,1426.094947
06 Mar 2024 11:48:00.000,82.655,11.058,1775.101106,175.804,7.697,1999.989667,51.921,7.836,1999.982302
07 Mar 2024 11:39:00.000,217.287,21.253,1267.569681,316.194,20.919,1282.579834,117.705,24.456,1152.978758
11 Mar 2024 14:51:00.000,275.056,62.599,626.472050,304.895,7.849,1999.983460,225.750,10.236,1817.640204
25 Mar 2024 05:42:00.000,268.188,13.621,1617.365711,30.780,25.878,1118.648641,67.730,14.973,1543.016468
10 Mar 2024 11:29:00.000,255.979,13.709,1613.512318,244.135,36.131,887.429428,155.515,7.645,1999.993899
22 Mar 2024 09:17:00.000,41.636,57.941,653.675796,302.834,7.843,1999.983421,318.795,40.859,813.789425
30 Mar 2024 00:28:00.000,159.532,10.121,1824.904879,42.705,15.471,1519.297327,47.768,10.327,1818.427369
29 Mar 2024 03:56:00.000,62.770,24.578,1158.136377,261.347,18.312,1383.129084,310.499,13.421,1627.974143
10 Mar 2024 13:14:00.000,23.484,46.925,745.281600,287.470,7.842,2000.000032,169.580,10.976,1764.840153
20 Mar 2024 12:46:00.000,177.904,13.796,1603.574953,144.998,16.976,1440.982197,139.498,15.245,1522.386208
21 Mar 2024 09:23:00.000,84.277,14.520,1570.968513,300.723,18.838,1363.760349,278.317,7.789,1999.984143
21 Mar 2024 05:55:00.000,223.774,21.574,1254.577802,36.569,18.383,1385.086846,156.760,9.157,1890.577382
26 Mar 2024 07:23:00.000,334.418,51.451,701.626143,127.826,15.416,1516.608231,49.782,24.512,1157.592196
13 Mar 2024 09:41:00.000,238.722,22.063,1239.398363,53.516,7.858,1999.990574,68.581,7.777,1999.980989
30 Mar 2024 05:30:00.000,308.164,33.433,939.628710,332.022,23.080,1204.161506,109.109,7.746,1999.990201
08 Mar 2024 15:05:00.000,91.352,8.707,1934.884496,287.180,7.828,1999.979739,285.481,7.787,1999.984686
10 Mar 2024 11:35:00.000,65.899,25.482,1132.790724,114.272,60.247,635.883088,278.626,7.793,1999.980794
10 Mar 2024 13:12:00.000,305.255,32.459,960.771747,306.466,7.863,1999.998377,227.400,34.248,918.850815
22 Mar 2024 07:37:00.000,49.736,34.615,918.285772,84.930,17.673,1412.013789,337.063,21.344,1265.546248
28 Mar 2024 02:12:00.000,209.086,7.708,1999.978079,59.471,13.661,1616.810283,50.663,7.824,1999.997418
14 Mar 2024 08:03:00.000,92.535,12.408,1689.836436,47.109,19.317,1345.277692,286.582,7.805,1999.990309
03 Mar 2024 11:53:00.000,148.690,12.252,1693.896372,295.732,7.857,1999.983890,281.858,7.793,1999.989652
23 Mar 2024 07:36:00.000,71.572,14.086,1595.317823,287.789,35.955,890.675114,87.648,13.240,1632.043834
22 Mar 2024 12:36:00.000,245.131,7.812,1999.999865,66.670,65.834,609.044807,345.412,22.195,1235.047053
21 Mar 2024 07:40:00.000,49.771,36.718,881.189929,229.887,7.696,1999.978287,243.030,48.050,728.930172
28 Mar 2024 09:03:00.000,150.662,7.755,1999.999295,119.307,7.759,1999.992109,47.822,11.950,1715.769982
15 Mar 2024 09:39:00.000,56.324,40.975,816.689360,230.405,17.550,1412.655072,37.801,16.074,1487.570585
14 Mar 2024 14:47:00.000,145.761,7.754,1999.975418,164.666,7.698,1999.987563,309.162,7.832,1999.972693
22 Mar 2024 04:11:00.000,189.493,7.713,1999.976728,121.599,41.121,809.177140,150.106,7.657,1999.977354
03 Mar 2024 15:11:00.000,272.741,13.537,1624.310664,196.192,25.448,1126.443356,313.668,21.499,1258.891230
26 Mar 2024 07:25:00.000,70.268,36.828,878.569885,302.556,50.540,706.665862,152.677,10.694,1785.495162
19 Mar 2024 12:51:00.000,152.773,8.854,1918.069202,39.831,37.806,860.364767,316.033,12.374,1687.914898
14 Mar 2024 08:00:00.000,144.036,25.296,1134.138166,357.314,25.230,1137.687295,299.943,36.448,881.224616
23 Mar 2024 07:35:00.000,64.937,22.084,1241.784935,97.534,14.294,1578.055222,96.759,9.099,1901.482068
04 Mar 2024 18:33:00.000,230.365,43.168,785.057160,61.423,9.355,1886.566423,294.989,7.822,1999.991735
05 Mar 2024 13:26:00.000,252.118,22.165,1236.693569,278.351,13.077,1647.914932,239.355,9.544,1866.392449
05 Mar 2024 11:50:00.000,104.205,18.109,1395.656374,284.877,12.878,1658.535517,42.625,12.881,1660.120969
29 Mar 2024 08:56:00.000,211.598,20.871,1280.498272,4.308,26.661,1097.735476,187.674,12.156,1692.177849
17 Mar 2024 09:36:00.000,71.641,7.895,1999.990390,100.117,17.849,1404.434409,56.299,8.992,1913.409588
21 Mar 2024 10:58:00.000,281.461,21.962,1245.622969,35.893,32.093,964.845826,126.367,7.683,1999.979818
27 Mar 2024 03:58:00.000,242.374,36.100,888.173918,92.313,7.800,1999.978085,299.626,7.829,1999.978874
07 Mar 2024 11:38:00.000,223.548,13.463,1624.349765,40.467,18.057,1398.700996,8.521,25.352,1132.855051
22 Mar 2024 04:15:00.000,131.223,17.337,1426.223030,46.794,13.376,1633.942213,102.322,24.226,1164.028573
31 Mar 2024 03:47:00.000,323.773,47.961,732.894214,158.140,8.328,1953.241291,113.932,7.729,1999.996841
22 Mar 2024 09:21:00.000,94.228,8.923,1919.984889,72.616,7.820,1999.990121,82.721,10.966,1772.256234
25 Mar 2024 07:28:00.000,62.127,34.639,917.345912,106.553,8.777,1922.182659,252.311,13.563,1615.950937
29 Mar 2024 08:57:00.000,192.399,18.372,1380.056047,294.703,13.721,1611.369884,99.706,7.760,1999.987082
31 Mar 2024 03:51:00.000,68.499,14.365,1578.546777,230.110,35.957,888.450242,118.819,42.524,791.153536
28 Mar 2024 08:54:00.000,277.445,7.858,1999.990216,274.632,20.462,1297.553565,352.040,24.439,1158.604093
21 Mar 2024 11:05:00.000,124.480,8.766,1927.367463,105.786,9.909,1843.087309,26.400,27.300,1076.365702
29 Mar 2024 02:09:00.000,215.671,13.175,1636.024568,195.248,14.926,1537.384841,82.801,7.786,1999.998392
01 Mar 2024 17:04:00.000,67.399,21.876,1247.804683,54.311,25.226,1137.836844,228.467,7.720,1999.997968
31 Mar 2024 08:50:00.000,207.732,8.921,1912.557044,91.920,7.763,1999.988459,46.821,17.210,1434.616731
27 Mar 2024 02:19:00.000,136.930,20.682,1286.101283,183.759,11.943,1707.686237,235.258,12.368,1683.387460
30 Mar 2024 03:54:00.000,66.951,14.865,1552.161577,73.785,9.705,1860.787811,137.474,7.995,1977.058449
03 Mar 2024 16:58:00.000,78.987,23.019,1207.701693,1.706,40.110,827.158374,60.620,9.389,1884.506855
17 Mar 2024 12:53:00.000,238.081,49.693,716.523320,207.813,20.846,1278.410286,306.207,7.838,1999.983724
08 Mar 2024 16:37:00.000,285.562,7.879,1999.986527,312.618,12.952,1655.997184,41.030,20.233,1305.756278
06 Mar 2024 13:23:00.000,263.580,22.151,1237.936531,97.633,26.242,1106.519875,118.438,25.790,1116.494704
18 Mar 2024 12:54:00.000,143.517,11.906,1714.911027,313.156,12.768,1666.913895,316.181,12.386,1688.648490
18 Mar 2024 11:08:00.000,303.122,35.327,905.531771,41.830,17.391,1428.831820,39.643,15.782,1503.679420
10 Mar 2024 14:56:00.000,99.819,42.348,796.883524,164.399,7.688,1999.990334,316.608,17.252,1432.746655
21 Mar 2024 04:18:00.000,132.115,12.038,1706.161931,138.611,10.830,1779.099853,206.389,59.573,638.065398
23 Mar 2024 07:34:00.000,51.847,33.669,936.141774,289.825,12.815,1664.699657,51.281,18.967,1355.715819
08 Mar 2024 13:17:00.000,281.598,21.495,1262.573843,77.720,7.802,1999.977601,298.751,28.980,1033.825328
12 Mar 2024 14:50:00.000,141.404,37.891,859.512656,241.614,36.207,883.679489,303.199,7.823,1999.991176
11 Mar 2024 11:33:00.000,66.781,15.444,1524.592566,130.035,7.893,1984.113056,308.472,13.454,1624.951008
24 Mar 2024 04:06:00.000,200.172,19.669,1325.005634,115.394,9.280,1887.587254,104.865,7.742,1999.976400
25 Mar 2024 09:10:00.000,123.377,24.923,1145.959014,54.841,12.970,1656.138710,51.250,41.810,799.724559
17 Mar 2024 09:34:00.000,61.644,23.014,1210.516402,56.477,7.862,1999.979558,63.234,9.203,1896.759281
21 Mar 2024 04:20:00.000,105.966,8.217,1968.936637,53.515,7.871,1999.996107,36.515,28.969,1034.245932
12 Mar 2024 08:09:00.000,106.441,8.556,1945.305468,81.450,7.812,1999.980181,47.949,10.066,1837.168447
31 Mar 2024 05:32:00.000,90.942,15.030,1541.913157,57.397,13.205,1641.473621,112.419,16.265,1474.506625
08 Mar 2024 15:01:00.000,38.132,54.764,675.348405,133.935,8.249,1958.825714,75.208,12.228,1694.926602
21 Mar 2024 12:41:00.000,220.514,14.450,1569.630253,59.289,9.289,1892.626707,78.614,18.494,1374.127990
06 Mar 2024 18:29:00.000,192.344,21.260,1264.418863,68.320,8.236,1969.113247,130.850,12.527,1673.593202
03 Mar 2024 13:37:00.000,81.969,23.064,1207.158785,225.623,32.934,945.945466,264.776,18.699,1365.849251
13 Mar 2024 11:29:00.000,72.862,7.892,1999.998024,81.281,20.352,1301.642172,75.812,32.795,947.955959
25 Mar 2024 09:12:00.000,119.152,7.803,1999.976910,270.408,7.775,1999.988427,138.752,23.740,1176.589219
02 Mar 2024 11:58:00.000,131.397,7.949,1987.515968,248.449,7.772,1999.991809,205.343,11.452,1737.444865
27 Mar 2024 03:56:00.000,245.083,13.600,1615.260348,258.148,7.791,1999.999205,60.436,25.648,1123.173984
06 Mar 2024 16:45:00.000,290.208,22.359,1231.489027,133.924,20.974,1275.583268,81.872,7.767,1999.990294
15 Mar 2024 11:17:00.000,306.740,32.482,960.430178,34.411,35.625,898.251957,222.227,28.204,1049.964436
16 Mar 2024 11:17:00.000,62.440,34.806,914.872201,311.311,35.657,896.399174,51.673,14.692,1557.853172
06 Mar 2024 13:30:00.000,69.568,7.888,1999.997497,310.880,13.273,1637.213545,210.355,15.478,1510.627665
26 Mar 2024 02:24:00.000,110.398,11.293,1753.859624,252.024,7.783,1999.977617,345.549,22.824,1213.449958
15 Mar 2024 14:41:00.000,192.388,21.652,1251.710535,14.125,24.911,1147.424487,190.278,30.674,991.733933
19 Mar 2024 11:02:00.000,290.269,7.896,1999.999647,156.058,18.534,1369.627316,345.786,26.761,1093.271801
30 Mar 2024 02:14:00.000,74.430,8.363,1960.986379,166.571,12.853,1650.961741,271.492,33.835,925.538105
31 Mar 2024 05:27:00.000,305.876,34.561,917.946693,294.558,36.335,884.295064,303.349,7.835,1999.971952
04 Mar 2024 13:36:00.000,71.565,9.226,1900.481517,162.663,22.638,1213.776173,48.182,41.426,806.809353
23 Mar 2024 05:56:00.000,69.966,9.408,1887.533598,295.479,19.319,1344.264600,168.264,24.536,1152.031250
26 Mar 2024 02:25:00.000,98.432,7.807,1999.980211,63.332,7.856,1999.999428,307.811,13.530,1620.661998
08 Mar 2024 11:34:00.000,237.177,7.803,1999.991057,295.466,7.841,1999.985629,5.668,60.510,635.625258
15 Mar 2024 11:23:00.000,80.157,7.879,1999.975751,57.375,74.719,578.290791,153.860,19.742,1319.761642
25 Mar 2024 09:11:00.000,120.771,15.496,1516.665032,91.306,7.792,1999.978367,117.070,8.261,1957.147699
07 Mar 2024 16:46:00.000,131.838,40.406,821.741249,312.434,13.005,1653.777689,290.075,7.817,1999.984653
03 Mar 2024 15:13:00.000,287.981,33.734,934.294960,2.749,36.937,873.831638,129.264,11.960,1705.912188
01 Mar 2024 18:41:00.000,295.182,36.269,887.356214,252.395,7.783,1999.993163,308.646,7.817,1999.990742
13 Mar 2024 09:48:00.000,71.663,9.289,1896.895316,100.779,8.265,1964.108765,52.019,7.809,1999.969441
29 Mar 2024 08:52:00.000,270.935,7.844,1999.998851,255.337,11.144,1763.310819,293.292,7.821,1999.994036
16 Mar 2024 06:15:00.000,122.175,9.158,1898.795625,115.779,15.774,1499.208937,53.084,7.832,1999.975613
21 Mar 2024 07:42:00.000,67.024,14.828,1556.023260,258.360,21.885,1244.152773,259.635,7.755,1999.995396
01 Mar 2024 20:24:00.000,191.918,25.438,1127.071686,206.579,7.703,1999.991594,47.743,11.906,1718.880149
28 Mar 2024 02:16:00.000,149.565,28.834,1036.378934,84.567,71.962,586.808332,196.838,21.021,1270.274568
05 Mar 2024 18:26:00.000,279.434,7.857,1999.982858,274.252,7.778,1999.979632,194.687,12.511,1671.987108
20 Mar 2024 11:00:00.000,288.785,13.780,1612.656077,308.111,12.533,1681.800478,263.532,30.742,991.905471
24 Mar 2024 04:07:00.000,184.017,27.672,1066.000195,191.257,7.687,1999.989479,42.070,16.165,1482.851921
08 Mar 2024 16:42:00.000,181.443,50.060,711.959497,303.569,49.946,713.130473,112.598,16.567,1460.150219
03 Mar 2024 16:55:00.000,335.947,49.992,714.403529,195.421,31.488,975.573056,203.314,7.681,1999.983397
22 Mar 2024 09:20:00.000,91.404,15.135,1537.967843,272.800,21.043,1275.400912,264.676,7.770,1999.982483
06 Mar 2024 16:52:00.000,111.068,7.791,1999.989088,313.161,12.803,1666.780881,49.699,13.847,1604.624287
21 Mar 2024 04:17:00.000,146.988,11.886,1714.169544,336.937,22.770,1214.666145,303.048,13.617,1616.967517
04 Mar 2024 18:36:00.000,145.652,20.407,1296.676939,332.687,22.984,1208.938170,307.999,7.841,1999.980615
02 Mar 2024 15:20:00.000,62.469,24.386,1165.091177,352.653,26.100,1113.272222,39.972,18.526,1376.290938
31 Mar 2024 05:30:00.000,75.294,37.931,859.812977,255.200,35.680,895.226169,300.546,12.318,1689.277466
07 Mar 2024 15:01:00.000,296.909,21.485,1263.504849,236.195,9.271,1887.732478,89.527,33.798,929.036402
25 Mar 2024 10:48:00.000,226.388,17.296,1429.445726,88.764,72.785,584.828116,320.046,17.083,1440.502281
07 Mar 2024 15:08:00.000,85.583,7.851,1999.982585,150.390,7.721,1999.985234,285.789,7.807,1999.997087
08 Mar 2024 13:21:00.000,49.355,35.458,903.200745,77.164,11.486,1744.905717,330.833,22.129,1236.564108
04 Mar 2024 15:17:00.000,72.969,7.872,1999.982072,28.620,23.586,1188.888809,256.710,13.431,1619.506769
21 Mar 2024 10:59:00.000,273.517,35.003,910.362565,91.797,13.287,1634.443434,230.292,21.901,1238.623781
06 Mar 2024 11:46:00.000,103.078,25.114,1141.644140,247.788,10.392,1811.110401,280.816,34.834,909.116402
14 Mar 2024 13:06:00.000,102.129,9.259,1894.369897,71.226,31.183,984.203572,309.641,17.784,1408.632496
16 Mar 2024 09:38:00.000,66.745,15.106,1541.986054,221.491,13.463,1618.568661,99.511,19.997,1312.683046
14 Mar 2024 11:24:00.000,65.130,22.068,1242.898220,193.929,37.497,863.651162,192.250,8.266,1952.407582
17 Mar 2024 07:46:00.000,236.749,7.786,1999.991252,205.295,33.497,933.047828,225.067,13.452,1616.816961
13 Mar 2024 16:27:00.000,205.527,8.109,1972.078486,194.256,31.333,978.008707,60.969,7.798,1999.986609
29 Mar 2024 03:52:00.000,274.698,35.134,906.082135,163.395,22.999,1203.150543,7.021,33.299,939.997125
20 Mar 2024 09:23:00.000,28.186,48.036,733.828229,116.749,7.747,1999.994973,137.103,23.264,1193.583083
01 Mar 2024 17:06:00.000,77.999,8.159,1976.512002,195.457,15.667,1502.789352,38.301,31.428,978.712562
09 Mar 2024 11:32:00.000,246.148,13.668,1614.850509,235.590,13.586,1614.646111,288.906,13.497,1622.669624
25 Mar 2024 10:45:00.000,266.512,7.847,1999.987779,211.870,7.665,1999.978131,52.776,7.840,1999.991139
02 Mar 2024 18:42:00.000,117.851,25.314,1132.735533,299.517,18.958,1356.880317,170.141,7.679,1999.993371
22 Mar 2024 09:13:00.000,292.549,13.656,1619.474830,53.613,7.867,1999.984268,0.613,51.976,694.549972
01 Mar 2024 20:22:00.000,241.340,24.524,1156.336113,212.643,18.167,1387.258954,300.105,18.554,1374.248719
13 Mar 2024 16:27:00.000,202.898,7.739,1999.997711,108.302,42.065,798.137619,49.466,8.758,1931.209706
23 Mar 2024 05:54:00.000,68.914,25.643,1126.917882,202.788,9.871,1839.986600,182.953,8.828,1911.716696
20 Mar 2024 09:26:00.000,78.383,14.121,1593.199553,267.657,19.342,1339.542300,182.266,12.412,1676.811660
20 Mar 2024 09:27:00.000,82.489,7.874,1999.977129,92.289,13.449,1625.704572,224.474,9.930,1838.385530
25 Mar 2024 09:06:00.000,280.155,35.969,893.059961,80.397,19.645,1329.580496,250.803,35.857,889.623259
10 Mar 2024 13:18:00.000,78.039,7.875,1999.986124,309.155,13.391,1632.728405,320.132,40.560,818.992184
14 Mar 2024 14:42:00.000,221.263,33.006,946.471915,65.612,25.444,1130.959519,331.378,33.701,931.137033
15 Mar 2024 07:52:00.000,215.899,7.759,1999.983982,54.824,7.865,1999.980342,90.803,12.773,1661.721887
15 Mar 2024 13:02:00.000,110.051,25.558,1127.953332,304.890,7.867,1999.990434,47.872,10.174,1831.246720
19 Mar 2024 09:24:00.000,305.083,32.462,960.525546,65.281,65.111,612.988270,330.463,22.289,1230.648893
28 Mar 2024 09:02:00.000,152.370,9.115,1899.080018,280.449,7.830,1999.991113,26.959,71.402,586.537270
07 Mar 2024 13:26:00.000,66.767,15.052,1544.258940,97.899,40.337,822.138759,322.619,16.983,1444.495213
04 Mar 2024 13:29:00.000,239.230,22.202,1234.577596,294.292,13.747,1611.414817,259.180,56.370,660.182737
11 Mar 2024 16:28:00.000,270.092,7.851,1999.997993,22.883,23.060,1207.317301,165.553,13.909,1591.270851
26 Mar 2024 05:48:00.000,71.529,7.878,1999.990680,16.329,24.081,1174.175708,299.432,7.818,1999.991904
27 Mar 2024 04:04:00.000,70.728,7.869,1999.990636,174.807,7.667,1999.988574,53.755,11.448,1746.984921
10 Mar 2024 14:55:00.000,77.192,72.604,586.757679,313.199,12.838,1664.979376,56.179,11.760,1727.245445
04 Mar 2024 11:50:00.000,150.899,17.971,1398.743689,96.767,7.804,1999.984272,267.903,7.771,1999.978510
27 Mar 2024 07:16:00.000,290.323,7.873,1999.990572,59.673,25.724,1123.186021,343.265,21.266,1266.533244
10 Mar 2024 13:17:00.000,73.821,14.021,1598.783279,55.257,25.264,1135.273402,91.154,12.813,1657.470202
17 Mar 2024 11:13:00.000,37.300,54.608,676.924048,184.444,29.091,1029.977658,299.598,13.747,1608.869500
11 Mar 2024 14:47:00.000,289.138,7.894,1999.979167,73.581,9.667,1865.330202,51.878,7.833,1999.998958
17 Mar 2024 14:32:00.000,242.432,10.190,1828.060415,127.730,8.989,1906.322850,307.778,7.801,2000.000058
30 Mar 2024 03:46:00.000,268.757,7.810,1999.975923,132.453,8.598,1935.517966,56.991,22.204,1233.176922
13 Mar 2024 13:10:00.000,95.031,7.844,1999.984914,125.233,8.438,1948.586777,68.650,28.853,1036.419180
05 Mar 2024 16:52:00.000,91.369,41.019,814.164239,1.999,52.138,694.433185,289.357,7.780,1999.991557
15 Mar 2024 14:39:00.000,236.535,22.281,1231.428069,273.160,12.728,1667.963346,121.240,38.313,848.800011
16 Mar 2024 14:34:00.000,256.006,11.578,1739.274844,296.327,36.478,882.550541,346.313,26.628,1096.222527
25 Mar 2024 05:50:00.000,69.609,8.909,1923.257797,225.438,21.820,1243.532424,305.513,7.838,1999.984682
22 Mar 2024 05:53:00.000,233.345,35.888,892.368775,87.559,12.542,1678.826402,293.777,12.565,1677.504111
03 Mar 2024 16:51:00.000,288.717,7.882,1999.999868,166.515,43.284,782.637645,353.194,48.802,722.315758
04 Mar 2024 11:53:00.000,101.931,11.762,1728.136610,150.130,37.400,865.285711,314.862,13.030,1649.633717
25 Mar 2024 04:01:00.000,226.193,7.740,1999.992175,220.203,26.666,1091.812125,209.640,15.009,1534.375331
28 Mar 2024 03:56:00.000,272.143,61.609,630.500167,5.218,27.667,1070.093496,93.126,7.780,2000.000018
15 Mar 2024 07:54:00.000,200.985,19.819,1320.930385,346.373,52.326,692.395796,131.409,9.557,1864.054141
13 Mar 2024 08:01:00.000,180.609,11.605,1732.009945,116.273,15.773,1497.473592,312.175,12.233,1698.875020
12 Mar 2024 09:45:00.000,214.573,33.863,929.943223,73.260,9.639,1868.019986,246.410,24.434,1154.909150
17 Mar 2024 09:29:00.000,281.219,21.440,1264.317250,97.058,7.780,1999.972641,155.718,13.861,1594.688242
20 Mar 2024 09:25:00.000,71.936,22.184,1238.275250,192.860,31.086,981.779168,194.034,38.786,840.374806
29 Mar 2024 08:59:00.000,163.460,7.743,1999.990468,50.277,10.565,1807.225401,56.066,7.834,1999.984025
21 Mar 2024 11:03:00.000,130.999,23.950,1175.905317,188.838,7.702,1999.998814,246.055,22.009,1233.748306
31 Mar 2024 00:28:00.000,114.066,14.391,1571.166848,313.519,21.406,1264.013763,326.822,36.512,881.509445
24 Mar 2024 07:33:00.000,75.731,14.021,1598.397952,277.646,20.623,1289.325208,196.615,7.686,1999.999658
16 Mar 2024 12:59:00.000,124.187,24.895,1146.892955,54.112,7.829,1999.990401,319.778,17.089,1440.779308
13 Mar 2024 08:06:00.000,101.907,11.567,1740.451247,78.106,34.294,921.278478,57.208,15.761,1502.647045
07 Mar 2024 18:26:00.000,191.761,13.837,1599.393375,138.211,7.734,1999.980266,79.205,7.747,1999.981306
18 Mar 2024 11:05:00.000,290.350,7.897,1999.987939,7.455,29.912,1014.662747,294.744,7.813,1999.975580
23 Mar 2024 10:56:00.000,168.550,24.047,1171.645988,34.176,29.265,1030.027734,303.676,7.835,1999.987624
25 Mar 2024 04:02:00.000,222.356,13.373,1626.217253,269.696,7.757,2000.000019,66.559,14.437,1570.585552
25 Mar 2024 04:03:00.000,215.811,21.076,1271.449969,57.036,7.836,1999.996249,83.280,35.859,890.951536
27 Mar 2024 07:20:00.000,326.699,56.429,663.256454,228.694,13.516,1617.169753,186.152,18.550,1368.669523
02 Mar 2024 13:37:00.000,166.837,40.332,823.099194,174.643,22.774,1208.300562,55.125,7.827,1999.982836
06 Mar 2024 18:31:00.000,164.811,11.402,1742.757692,291.793,55.189,670.523362,189.871,7.638,1999.991579
16 Mar 2024 06:13:00.000,149.024,9.396,1879.017161,58.780,7.848,1999.987137,77.605,7.787,1999.982904
10 Mar 2024 11:33:00.000,34.111,70.717,593.218228,44.211,21.435,1262.823269,314.866,12.982,1654.092665
28 Mar 2024 08:58:00.000,218.228,29.081,1032.479485,285.181,20.173,1309.348161,42.240,16.255,1480.063726
20 Mar 2024 09:22:00.000,336.723,47.112,743.269958,180.805,17.857,1400.195873,57.064,7.806,1999.973022
28 Mar 2024 07:19:00.000,97.846,42.095,799.987414,100.262,18.191,1389.168080,319.847,20.580,1293.253573
13 Mar 2024 11:19:00.000,275.477,7.872,1999.990957,318.474,20.589,1293.845234,340.006,21.208,1270.495068
20 Mar 2024 12:42:00.000,248.865,16.418,1472.424128,240.710,7.711,1999.974671,326.368,18.974,1357.438772
30 Mar 2024 02:11:00.000,94.726,35.321,902.188645,292.582,22.170,1234.745777,8.066,26.466,1101.225338
19 Mar 2024 11:08:00.000,99.027,41.949,802.547942,165.280,7.672,1999.987774,180.302,59.745,638.780479
06 Mar 2024 16:43:00.000,289.789,7.886,1999.988979,85.671,21.172,1269.795414,82.395,7.798,1999.993421
17 Mar 2024 11:09:00.000,292.363,13.635,1621.230907,312.883,12.685,1674.129027,42.217,38.690,845.460552
28 Mar 2024 08:56:00.000,260.091,18.838,1363.884020,182.043,11.872,1712.666103,304.170,18.208,1386.633723
26 Mar 2024 10:43:00.000,243.269,10.301,1820.473463,292.676,54.679,673.974109,216.666,7.706,1999.992170
04 Mar 2024 15:14:00.000,49.881,34.448,921.142332,275.119,7.825,1999.984744,44.540,16.680,1459.707341
07 Mar 2024 16:48:00.000,121.889,15.397,1520.057884,149.735,12.799,1655.582395,251.972,35.807,891.647419
21 Mar 2024 06:03:00.000,74.010,7.880,1999.975359,126.467,9.030,1904.202104,300.230,22.164,1234.682924
28 Mar 2024 08:55:00.000,270.713,12.816,1664.892599,136.038,14.080,1587.243371,154.387,19.347,1334.372494
30 Mar 2024 03:50:00.000,313.526,51.454,700.442733,88.743,12.225,1696.574696,305.880,22.003,1239.029898
13 Mar 2024 08:03:00.000,150.427,17.741,1408.608202,321.494,17.828,1407.615620,74.363,7.811,1999.982256
21 Mar 2024 04:19:00.000,117.999,10.653,1795.572992,283.091,32.211,960.089601,192.482,8.594,1930.081057
31 Mar 2024 02:05:00.000,232.192,35.632,895.336026,54.042,7.859,1999.990770,279.828,12.939,1653.821363
21 Mar 2024 05:57:00.000,185.398,50.647,706.722924,52.974,14.628,1562.780986,251.774,16.162,1478.777584
25 Mar 2024 09:07:00.000,261.866,60.118,639.749560,99.659,21.154,1268.368188,154.617,13.627,1605.486581
28 Mar 2024 05:41:00.000,73.420,13.955,1601.416842,260.657,11.615,1731.342666,69.672,29.542,1020.022178
14 Mar 2024 11:23:00.000,52.051,33.637,937.310382,310.010,12.502,1684.669388,7.643,24.238,1167.279068
27 Mar 2024 07:18:00.000,296.006,21.943,1246.064600,47.654,50.053,711.406559,222.441,7.708,1999.999952
08 Mar 2024 09:55:00.000,182.717,7.749,1999.988355,52.179,21.298,1268.053690,114.841,9.135,1895.352502
24 Mar 2024 09:15:00.000,110.160,9.372,1885.565411,312.033,26.600,1098.697758,60.657,7.827,1999.985327
27 Mar 2024 04:02:00.000,72.264,25.615,1126.738127,214.027,13.275,1627.676225,94.572,29.221,1027.373534
14 Mar 2024 13:00:00.000,299.685,35.771,897.554661,272.662,12.680,1669.698153,289.971,19.517,1333.844402
01 Mar 2024 17:00:00.000,305.530,32.533,958.247363,51.625,55.623,666.992458,157.412,8.991,1902.774875
14 Mar 2024 09:38:00.000,251.620,22.196,1235.516880,3.599,36.320,885.849965,128.285,25.110,1135.988830
31 Mar 2024 03:43:00.000,274.842,7.820,1999.999846,51.139,9.826,1855.452743,88.641,8.042,1978.567419
07 Mar 2024 15:04:00.000,31.041,49.777,716.728470,133.095,24.569,1151.615868,283.909,12.807,1658.796071
29 Mar 2024 07:19:00.000,114.408,9.294,1889.827755,117.735,7.769,1999.993163,247.727,25.017,1139.501592
16 Mar 2024 14:33:00.000,266.001,7.851,1999.987686,321.858,24.556,1158.575248,343.126,25.765,1120.817807
02 Mar 2024 17:01:00.000,72.296,22.344,1231.075539,22.857,23.006,1208.663980,348.895,25.525,1126.793778
03 Mar 2024 18:35:00.000,272.255,34.910,910.696038,342.489,29.638,1020.524889,250.087,7.752,1999.990600
02 Mar 2024 20:16:00.000,269.803,7.826,1999.992163,40.185,38.833,845.412232,57.589,22.516,1221.136856
30 Mar 2024 05:28:00.000,291.728,13.564,1622.559059,216.915,61.472,629.378164,118.298,8.681,1928.236580
24 Mar 2024 05:52:00.000,67.351,15.693,1510.882920,291.038,13.587,1619.485069,304.171,12.289,1692.393302
03 Mar 2024 13:36:00.000,93.027,36.220,888.449886,5.093,33.449,938.909399,27.804,21.129,1272.445714
12 Mar 2024 09:51:00.000,74.141,8.534,1951.503358,53.664,7.867,1999.999593,300.675,18.584,1373.222091
29 Mar 2024 05:35:00.000,27.914,47.857,734.617078,330.143,31.352,981.398314,52.695,7.830,1999.989645
09 Mar 2024 16:39:00.000,188.729,36.370,883.551226,101.951,7.758,1999.990026,50.794,7.841,1999.990240
03 Mar 2024 13:33:00.000,215.174,34.141,924.512115,79.160,7.825,1999.982166,194.443,12.476,1670.126971
23 Mar 2024 05:51:00.000,255.513,63.193,622.776826,57.488,15.759,1505.883412,87.268,14.207,1582.079309
12 Mar 2024 09:42:00.000,232.085,7.790,1999.991563,195.532,16.139,1479.297209,0.085,39.627,832.526635
27 Mar 2024 02:18:00.000,157.322,19.904,1315.138418,162.969,7.659,1999.996211,254.010,27.620,1065.534729
29 Mar 2024 07:15:00.000,134.498,73.369,583.982573,206.358,12.920,1646.832087,211.598,13.151,1635.322225
09 Mar 2024 09:55:00.000,158.915,20.520,1294.325800,281.121,13.102,1647.166859,312.573,25.892,1116.293421
18 Mar 2024 06:04:00.000,197.023,7.731,1999.986367,71.616,16.987,1445.572799,154.960,19.187,1339.304388
02 Mar 2024 13:33:00.000,222.097,7.778,1999.980865,291.632,30.673,994.342463,308.758,7.815,1999.983171
15 Mar 2024 07:57:00.000,125.816,32.636,954.440470,142.080,73.219,582.582675,310.040,13.366,1631.038503
06 Mar 2024 15:07:00.000,25.418,47.390,740.061030,260.341,13.480,1623.562639,77.801,18.206,1387.987731
08 Mar 2024 15:03:00.000,82.833,23.480,1193.039826,32.550,19.730,1327.129835,47.467,11.481,1744.809298
26 Mar 2024 05:47:00.000,71.177,8.532,1950.681765,75.692,18.284,1387.035145,51.293,14.550,1566.020816
16 Mar 2024 11:15:00.000,336.681,48.213,732.255604,280.657,13.075,1647.778240,308.723,7.840,1999.983865
07 Mar 2024 18:24:00.000,225.366,16.740,1453.526346,258.985,29.641,1017.674776,249.627,7.734,1999.991105
31 Mar 2024 00:29:00.000,101.360,10.805,1785.392910,339.953,26.019,1114.977877,307.538,12.246,1697.766011
11 Mar 2024 11:27:00.000,268.444,21.872,1248.236381,346.033,28.166,1057.443264,69.331,8.102,1978.042287
31 Mar 2024 07:08:00.000,232.370,44.898,764.849976,292.834,7.848,1999.985217,60.415,9.343,1887.871890
14 Mar 2024 09:42:00.000,66.918,42.695,793.736403,9.439,28.064,1060.040758,276.391,20.516,1291.927697
09 Mar 2024 16:43:00.000,140.372,7.747,1999.991352,31.958,27.018,1086.341964,48.919,41.661,803.942434
29 Mar 2024 08:59:00.000,167.116,9.658,1860.014313,231.034,17.795,1403.449444,60.866,12.759,1665.510705
16 Mar 2024 11:13:00.000,296.833,21.460,1264.834385,282.194,7.791,1999.984919,72.016,8.606,1939.887448
11 Mar 2024 11:34:00.000,69.271,9.137,1907.891347,282.637,7.822,1999.984599,4.988,22.943,1209.386241
15 Mar 2024 09:33:00.000,258.652,7.835,1999.990760,79.761,10.965,1777.857133,345.429,22.052,1238.148238
25 Mar 2024 09:09:00.000,129.739,40.796,817.066747,1.850,51.525,699.757991,308.263,7.828,1999.977011
14 Mar 2024 11:26:00.000,75.751,8.267,1971.108697,123.724,25.348,1129.352108,115.863,20.887,1277.842912
11 Mar 2024 11:31:00.000,52.854,39.478,838.116726,109.077,15.443,1517.044571,233.523,40.506,817.239052
27 Mar 2024 07:23:00.000,91.092,24.599,1157.150989,247.977,15.358,1520.446494,101.433,24.123,1167.167910
05 Mar 2024 11:51:00.000,92.604,12.663,1674.614117,121.597,7.727,1999.994264,62.986,9.248,1894.590262
30 Mar 2024 02:09:00.000,184.316,49.797,713.134200,63.300,9.329,1891.071780,239.172,13.560,1613.917995
31 Mar 2024 03:52:00.000,72.237,8.451,1955.346721,297.595,7.858,1999.973023,118.235,25.205,1132.027691
25 Mar 2024 10:47:00.000,243.216,15.137,1535.248490,62.036,14.178,1587.539189,328.379,17.826,1407.178879
18 Mar 2024 06:05:00.000,188.190,12.087,1701.436493,358.093,43.261,785.150237,33.411,24.715,1150.819380
23 Mar 2024 07:31:00.000,302.546,32.428,960.605154,24.908,23.256,1200.679781,239.960,22.171,1231.309872
08 Mar 2024 18:24:00.000,190.584,7.717,1999.985226,323.377,19.221,1349.772533,1.631,35.331,902.311886
06 Mar 2024 15:10:00.000,76.128,14.107,1593.059463,132.405,24.695,1149.283794,3.182,39.995,827.283939
04 Mar 2024 11:48:00.000,181.154,11.695,1726.992545,302.553,7.859,1999.991439,275.975,12.834,1658.540746
22 Mar 2024 05:55:00.000,111.341,67.867,602.285881,61.489,7.823,1999.980581,109.241,74.192,579.545972
24 Mar 2024 10:51:00.000,214.371,24.541,1156.767210,1.173,45.975,752.889901,65.884,7.798,1999.972723
02 Mar 2024 15:16:00.000,276.673,35.106,908.218858,303.842,7.867,1999.990689,119.818,74.347,578.766811
22 Mar 2024 07:33:00.000,284.629,21.421,1264.500320,232.047,39.539,832.766458,119.086,15.725,1500.126711
18 Mar 2024 12:50:00.000,225.662,38.417,851.874644,337.409,22.792,1215.548321,50.746,7.808,1999.990581
20 Mar 2024 12:44:00.000,211.373,20.445,1297.290583,196.068,24.262,1161.229515,195.367,33.059,941.313178
03 Mar 2024 18:41:00.000,125.020,7.756,1999.980766,340.394,23.308,1198.359146,77.234,7.803,1999.984310
17 Mar 2024 11:15:00.000,82.398,23.538,1191.991333,23.049,23.046,1206.749734,39.544,16.014,1489.697784
18 Mar 2024 09:26:00.000,287.859,21.308,1269.539584,262.026,7.799,1999.983246,272.857,33.284,938.801713
14 Mar 2024 11:18:00.000,284.310,13.499,1628.236749,70.811,9.124,1903.224766,253.960,54.638,671.231911
12 Mar 2024 11:28:00.000,49.565,36.728,881.471678,256.622,7.750,1999.987347,303.460,7.813,1999.987055
26 Mar 2024 03:58:00.000,236.214,7.755,1999.991388,58.933,9.297,1893.441340,258.021,13.429,1623.683374
24 Mar 2024 07:29:00.000,335.498,46.352,750.892893,246.214,7.733,1999.984603,327.319,17.241,1432.797217
07 Mar 2024 16:49:00.000,120.334,9.026,1907.032028,102.096,14.875,1546.657912,118.469,25.416,1127.087886
05 Mar 2024 16:55:00.000,102.477,9.181,1898.143516,169.132,27.377,1071.837921,301.673,7.833,1999.996230
12 Mar 2024 16:29:00.000,220.088,14.163,1584.086567,74.303,13.156,1644.405006,301.219,50.226,709.484037
13 Mar 2024 14:49:00.000,138.551,13.101,1643.603883,65.574,8.969,1916.766327,307.309,12.257,1695.682759
22 Mar 2024 05:59:00.000,71.767,9.203,1901.967995,62.883,8.151,1977.536205,62.607,7.815,1999.993149
30 Mar 2024 08:49:00.000,261.811,7.826,1999.993704,239.520,46.055,751.021204,85.038,16.838,1449.685380
29 Mar 2024 05:32:00.000,295.809,21.370,1265.926928,84.352,18.121,1393.397108,147.477,21.761,1242.165620
13 Mar 2024 11:21:00.000,284.945,21.407,1266.086406,196.066,24.792,1146.160814,79.487,8.975,1912.146835
03 Mar 2024 16:54:00.000,308.005,33.608,936.886982,283.259,7.827,1999.985075,286.176,7.802,1999.976793
25 Mar 2024 02:24:00.000,159.864,7.709,1999.991288,190.761,12.271,1684.694998,30.553,18.215,1390.200578
17 Mar 2024 12:50:00.000,282.701,13.635,1620.346442,291.821,63.306,621.383475,331.948,33.422,937.756252
31 Mar 2024 02:11:00.000,71.912,9.177,1901.570556,80.989,20.647,1290.974273,296.135,13.642,1613.621154
05 Mar 2024 13:30:00.000,66.382,42.721,793.146858,319.750,34.089,925.463418,307.980,13.525,1622.563577
05 Mar 2024 15:12:00.000,65.357,21.950,1246.090342,310.493,13.334,1634.757958,259.079,7.717,1999.982104
12 Mar 2024 08:07:00.000,132.992,12.341,1689.562364,247.193,7.778,1999.972077,196.937,12.619,1666.479016
22 Mar 2024 09:21:00.000,94.672,7.850,1999.969796,57.721,7.850,1999.990835,256.863,55.760,664.744705
31 Mar 2024 03:46:00.000,295.572,32.901,949.244275,94.546,29.964,1009.349011,213.397,18.448,1370.744378
12 Mar 2024 13:11:00.000,84.575,14.587,1567.135236,261.230,11.655,1730.753432,169.344,11.285,1746.867898
05 Mar 2024 18:28:00.000,263.699,19.567,1333.458337,58.137,7.827,1999.974884,39.736,15.638,1509.672223
29 Mar 2024 08:53:00.000,262.118,12.130,1704.877476,341.227,24.321,1165.835808,106.032,15.112,1532.225681
13 Mar 2024 09:39:00.000,241.680,7.805,1999.991280,71.121,16.860,1450.223766,295.767,19.040,1353.250837
14 Mar 2024 14:41:00.000,247.792,27.332,1078.352133,165.232,42.699,789.249638,251.741,13.490,1618.891549
05 Mar 2024 13:31:00.000,68.365,25.774,1123.721379,265.149,21.451,1259.642483,270.254,19.696,1323.787565
21 Mar 2024 04:16:00.000,160.829,10.252,1818.195246,42.039,19.044,1353.984047,8.305,25.254,1136.329840
08 Mar 2024 16:41:00.000,237.096,49.232,720.143845,260.632,30.225,1004.713517,101.510,7.741,1999.996879
11 Mar 2024 11:30:00.000,18.187,61.238,634.480521,75.209,18.146,1392.564315,315.812,12.857,1660.749366
13 Mar 2024 13:08:00.000,91.803,15.170,1535.939151,293.103,30.411,1002.278100,263.992,11.871,1716.464659
16 Mar 2024 14:36:00.000,225.785,17.002,1442.857054,110.843,7.776,1999.970337,306.226,27.244,1079.092212
17 Mar 2024 06:14:00.000,97.828,7.838,1999.980123,264.412,21.494,1256.224253,324.827,19.579,1333.032721
03 Mar 2024 17:01:00.000,88.668,7.832,1999.983701,143.805,7.726,1999.990318,12.789,23.189,1201.034903
02 Mar 2024 13:42:00.000,77.203,7.872,1999.990701,182.608,8.035,1972.195136,267.181,7.776,1999.987073
09 Mar 2024 13:12:00.000,278.228,7.878,1999.982331,139.928,24.845,1143.962127,333.838,30.439,999.318061
27 Mar 2024 05:37:00.000,281.365,13.445,1628.551580,307.303,13.489,1627.042188,158.865,33.948,923.876331
07 Mar 2024 18:27:00.000,179.315,10.295,1814.531369,57.291,8.930,1919.227970,344.596,24.710,1152.644981
12 Mar 2024 08:04:00.000,173.311,7.744,1999.990534,243.534,23.619,1181.991224,36.285,16.252,1479.690522
05 Mar 2024 13:32:00.000,69.270,16.008,1495.619030,199.887,20.176,1304.821784,277.391,7.746,1999.990288
03 Mar 2024 20:17:00.000,219.525,13.924,1595.303049,205.459,7.685,1999.997255,111.935,15.560,1508.254566
26 Mar 2024 04:07:00.000,73.025,8.845,1926.702318,28.544,24.430,1161.658927,313.310,17.480,1422.555266
02 Mar 2024 11:58:00.000,127.691,7.792,1999.996610,195.677,30.277,1001.593372,321.360,23.914,1174.459410
17 Mar 2024 06:12:00.000,110.830,11.678,1731.740823,241.646,13.647,1610.772034,144.137,11.808,1713.965907
29 Mar 2024 02:15:00.000,88.658,18.854,1362.255191,88.816,11.851,1717.211054,202.949,20.384,1292.493337
16 Mar 2024 11:16:00.000,30.655,49.667,718.211663,285.805,35.610,897.171347,309.971,12.235,1698.090467
22 Mar 2024 11:01:00.000,137.970,13.193,1639.227956,136.409,14.511,1561.686256,68.079,14.973,1542.881382
13 Mar 2024 14:42:00.000,279.981,13.454,1630.048395,96.609,7.827,1997.862828,223.008,28.751,1037.116171
19 Mar 2024 11:05:00.000,295.953,36.370,887.060402,28.328,27.868,1062.649737,204.557,20.670,1284.242136
03 Mar 2024 20:16:00.000,235.246,13.140,1640.730108,52.049,74.442,580.031833,262.416,30.624,993.815575
30 Mar 2024 03:55:00.000,70.613,7.865,1999.982429,99.565,21.653,1252.035698,162.253,7.683,1999.973712
25 Mar 2024 05:41:00.000,265.598,7.819,1999.999988,72.212,31.915,968.200203,288.897,12.733,1664.719729
20 Mar 2024 06:02:00.000,127.204,38.255,853.849336,135.769,14.537,1561.952720,55.388,7.822,1999.984110
10 Mar 2024 14:57:00.000,103.761,25.606,1126.352379,305.565,7.851,1999.999825,221.887,7.681,1999.987401
07 Mar 2024 15:03:00.000,336.782,48.352,730.467382,76.154,22.775,1214.585251,188.343,30.021,1004.505993
08 Mar 2024 09:56:00.000,172.192,11.080,1765.898615,5.654,31.080,988.452126,248.983,7.725,1999.990788
20 Mar 2024 06:03:00.000,101.533,28.405,1050.621864,214.856,13.291,1629.017153,180.525,16.276,1470.444777
01 Mar 2024 18:38:00.000,290.218,7.874,1999.974017,1.118,46.664,744.192348,326.594,22.938,1209.025649
02 Mar 2024 15:13:00.000,262.858,7.842,1999.991503,318.590,20.522,1297.652102,172.793,47.767,731.548870
25 Mar 2024 09:04:00.000,287.211,13.761,1612.847526,135.062,14.734,1551.783842,173.102,24.484,1153.357141
30 Mar 2024 00:31:00.000,117.135,10.225,1821.947061,325.347,23.941,1177.696858,45.674,23.152,1201.700042
23 Mar 2024 10:54:00.000,221.508,33.542,936.110684,248.633,13.588,1616.398169,312.394,44.916,763.822411
10 Mar 2024 11:31:00.000,261.604,36.080,891.114866,276.263,34.122,923.507445,75.211,9.290,1890.033007
16 Mar 2024 13:01:00.000,119.921,9.091,1904.150274,345.684,28.425,1050.014552,199.043,7.682,1999.993064
19 Mar 2024 06:07:00.000,91.853,14.668,1561.734312,5.626,29.324,1028.761229,95.496,7.732,1999.976719
07 Mar 2024 11:41:00.000,175.693,45.816,755.156933,173.631,23.555,1184.770057,27.498,20.957,1278.365009
31 Mar 2024 00:24:00.000,178.608,11.467,1736.626637,18.726,23.412,1195.712649,5.324,22.942,1208.163486
22 Mar 2024 07:35:00.000,324.709,47.973,734.015817,18.482,23.456,1193.843392,122.124,14.103,1581.687347
22 Mar 2024 12:39:00.000,206.563,8.495,1944.418256,192.120,7.664,1999.991303,189.601,55.364,667.168054
25 Mar 2024 04:10:00.000,75.739,7.863,1999.985556,52.182,12.739,1668.172786,40.226,14.769,1554.180120
13 Mar 2024 08:02:00.000,167.337,15.307,1523.602081,244.900,10.098,1828.444319,6.510,23.471,1191.363181
16 Mar 2024 07:52:00.000,204.003,32.284,960.707835,285.425,12.954,1655.934132,119.565,7.729,1999.981632
22 Mar 2024 09:12:00.000,289.994,7.887,1999.999912,323.913,18.827,1366.047775,245.853,13.573,1614.517303
31 Mar 2024 00:26:00.000,148.377,17.095,1434.219437,284.359,7.834,1999.984555,127.192,15.489,1510.865932
02 Mar 2024 16:57:00.000,307.816,32.655,955.852803,164.324,23.179,1197.253571,282.517,20.117,1306.709017
14 Mar 2024 14:45:00.000,156.334,16.364,1471.341863,4.993,27.807,1067.056409,213.700,61.067,631.396366
10 Mar 2024 16:37:00.000,173.047,19.954,1314.492367,115.621,7.760,1999.995907,46.920,17.330,1429.064556
04 Mar 2024 16:55:00.000,87.417,24.075,1172.911903,162.056,31.712,968.693597,187.897,7.679,1999.988098
22 Mar 2024 06:00:00.000,71.542,7.883,1999.977380,127.017,16.729,1453.580185,49.267,11.312,1754.437509
31 Mar 2024 02:08:00.000,82.562,40.882,815.179229,271.154,13.254,1637.451623,311.554,26.097,1110.247101
04 Mar 2024 16:50:00.000,296.729,21.905,1247.737426,314.560,62.072,628.007882,70.073,29.724,1014.362140
09 Mar 2024 13:15:00.000,300.051,32.572,958.274923,303.616,7.867,1999.987048,196.045,16.311,1468.342159
03 Mar 2024 13:30:00.000,232.469,7.793,1999.991431,306.453,7.863,1999.982864,72.239,13.580,1615.071672
23 Mar 2024 07:29:00.000,284.054,13.464,1628.781631,222.769,9.655,1859.553492,232.518,18.315,1377.546324
26 Mar 2024 07:24:00.000,36.747,54.260,678.957390,42.146,16.245,1482.252083,289.746,12.724,1667.694819
13 Mar 2024 09:45:00.000,80.990,41.422,810.072630,234.324,22.059,1236.280989,60.218,7.807,1999.986549
27 Mar 2024 02:15:00.000,196.252,7.700,2000.000023,123.574,8.137,1970.700732,12.208,23.444,1191.363901
07 Mar 2024 16:44:00.000,259.108,59.307,644.116020,231.872,11.661,1727.246150,86.158,11.864,1717.623324
06 Mar 2024 15:11:00.000,80.358,7.860,1999.990562,264.583,7.777,1999.993726,231.760,22.007,1236.436926
05 Mar 2024 11:44:00.000,204.434,7.761,1999.987924,60.204,25.579,1126.657247,130.045,18.699,1363.498652
10 Mar 2024 14:54:00.000,306.258,61.877,630.495809,306.170,7.864,1999.983909,310.275,13.443,1627.625302
14 Mar 2024 13:02:00.000,58.895,67.549,604.493945,163.890,7.711,1999.987428,8.395,30.590,997.614368
22 Mar 2024 12:37:00.000,232.892,9.197,1896.012185,283.137,13.306,1634.642383,316.746,12.610,1676.499411
18 Mar 2024 06:07:00.000,158.156,20.255,1303.378094,212.622,7.692,1999.978298,157.784,8.718,1921.065563
23 Mar 2024 09:11:00.000,294.610,22.067,1242.350229,197.331,19.727,1318.523802,19.529,20.780,1285.816935
24 Mar 2024 05:45:00.000,259.836,13.637,1615.688606,249.077,52.101,692.949128,297.119,12.432,1683.238045
02 Mar 2024 18:40:00.000,142.820,71.964,587.526461,79.395,19.264,1344.096802,140.188,13.988,1589.470197
23 Mar 2024 09:18:00.000,102.068,7.835,1999.990395,70.711,41.715,803.018073,71.894,23.913,1175.712005
05 Mar 2024 18:29:00.000,247.224,27.131,1082.435234,302.046,7.860,1999.993207,288.442,21.856,1242.615935
21 Mar 2024 05:56:00.000,213.457,33.808,929.867996,51.061,9.897,1852.211181,187.003,7.620,1999.987710
26 Mar 2024 02:25:00.000,99.267,8.098,1977.665295,81.651,19.982,1314.193291,78.706,7.779,1999.972488
11 Mar 2024 11:28:00.000,276.032,34.947,911.676701,79.494,34.834,909.999993,7.617,26.697,1094.933796
16 Mar 2024 07:53:00.000,174.868,45.293,760.623445,311.640,18.034,1398.109210,317.072,24.781,1149.744380
26 Mar 2024 04:03:00.000,121.776,59.755,640.687909,51.452,13.933,1599.402547,290.113,35.873,890.242545
24 Mar 2024 10:52:00.000,192.199,22.071,1237.180036,62.627,8.120,1978.735944,308.118,7.828,1999.970329
07 Mar 2024 13:25:00.000,61.714,23.887,1181.567147,306.440,7.870,1999.982744,98.680,12.425,1682.602611
18 Mar 2024 09:33:00.000,73.952,8.328,1966.772433,46.587,13.421,1630.223732,292.644,13.605,1616.279657
02 Mar 2024 20:19:00.000,230.633,19.283,1341.714885,141.918,13.527,1617.029425,42.301,13.033,1650.114095
30 Mar 2024 03:53:00.000,61.440,23.526,1191.486225,119.934,50.669,704.877817,21.516,20.490,1295.926432
03 Mar 2024 11:56:00.000,106.739,8.786,1928.191369,96.100,7.795,1999.980749,304.960,7.832,1999.992514
24 Mar 2024 07:25:00.000,284.338,7.866,1999.990592,77.322,7.830,1999.979149,297.555,7.821,1999.991301
22 Mar 2024 07:38:00.000,62.393,22.503,1227.376903,286.720,7.841,1999.987883,352.608,49.603,715.532932
09 Mar 2024 09:59:00.000,92.688,10.133,1835.498255,173.094,64.614,613.453458,60.027,24.044,1171.189412
14 Mar 2024 09:37:00.000,250.968,13.683,1614.112709,287.828,7.830,2000.000034,60.474,7.828,1999.981833
17 Mar 2024 14:33:00.000,228.607,11.571,1736.622815,62.967,64.373,616.360504,281.698,35.038,906.115495
21 Mar 2024 11:02:00.000,140.580,38.352,852.749356,87.460,35.643,896.580356,313.264,21.495,1258.899827
19 Mar 2024 06:08:00.000,82.354,7.866,1999.983090,246.653,10.294,1818.390973,288.752,7.779,1999.985726
28 Mar 2024 07:21:00.000,104.411,15.843,1500.235806,151.191,36.737,876.160348,222.677,21.817,1242.942164
06 Mar 2024 13:24:00.000,269.590,35.737,897.175036,316.583,20.923,1281.341323,28.689,19.532,1334.653032
06 Mar 2024 18:31:00.000,158.483,7.718,1999.985112,122.191,15.749,1500.713103,341.177,27.249,1079.824221
04 Mar 2024 16:56:00.000,92.146,15.115,1537.139347,311.817,13.101,1648.308353,212.360,34.473,912.829236
15 Mar 2024 13:04:00.000,110.640,9.320,1888.940056,313.946,44.964,764.601892,72.301,8.674,1934.584200
04 Mar 2024 16:58:00.000,95.314,7.820,1999.978158,98.326,25.249,1132.094692,48.451,9.472,1878.470758
01 Mar 2024 16:57:00.000,282.881,7.870,1999.976226,40.821,38.927,843.599838,313.654,12.235,1696.226707
09 Mar 2024 09:53:00.000,188.898,12.151,1699.110017,113.859,17.650,1409.788696,176.603,27.068,1077.001090
14 Mar 2024 13:01:00.000,317.999,59.642,643.348265,322.930,17.991,1402.292093,270.738,19.861,1318.591248
30 Mar 2024 07:12:00.000,172.808,60.216,638.240583,306.007,12.521,1683.123585,248.229,10.381,1809.744509
28 Mar 2024 09:01:00.000,160.146,14.448,1568.223789,83.750,7.814,1999.991035,68.629,7.862,1993.451527
08 Mar 2024 13:20:00.000,16.970,51.036,705.812607,288.061,56.083,662.319962,309.218,36.030,889.067738
20 Mar 2024 11:05:00.000,119.586,42.182,799.021778,77.005,7.837,1999.974484,1.408,22.684,1218.196334
09 Mar 2024 13:14:00.000,288.075,21.254,1271.819135,65.010,15.009,1543.532749,69.317,29.186,1029.122975
15 Mar 2024 09:36:00.000,268.827,35.495,901.413692,200.161,7.712,1999.981974,227.986,7.703,1999.985322
19 Mar 2024 07:48:00.000,68.193,15.901,1501.248511,166.258,13.063,1640.471618,65.689,8.787,1927.411733
24 Mar 2024 07:32:00.000,69.139,21.998,1244.505599,13.712,25.119,1141.814468,74.806,9.233,1893.345801
02 Mar 2024 15:17:00.000,301.091,55.973,666.404946,106.620,7.764,1999.986754,320.293,40.137,824.906403
04 Mar 2024 13:36:00.000,71.368,7.884,1999.979881,323.787,18.202,1391.444903,100.703,7.765,1999.989589
