aer_data/combined_aer_data.csv

Time (UTCG),azimuth_1,elevation_1,range_1,azimuth_2,elevation_2,range_2,azimuth_3,elevation_3,range_3,azimuth_4,elevation_4,range_4
31 Mar 2024 05:33:00.000,93.810,8.848,1923.883308,125.498,10.796,1784.140175,95.887,23.003,1201.833071,65.363,7.881,1999.97176
10 Mar 2024 14:54:00.000,306.258,61.877,630.495809,119.934,50.669,704.877817,58.939,12.250,1694.868004,5.028,41.092,813.517738
20 Mar 2024 12:47:00.000,164.290,7.748,1999.977806,305.495,22.090,1238.341324,68.338,7.979,1986.834169,131.511,15.023,1538.504869
02 Mar 2024 20:23:00.000,167.937,8.938,1907.987996,317.596,25.400,1132.381173,212.127,13.263,1629.887832,289.606,7.835,1999.990374
06 Mar 2024 16:45:00.000,290.208,22.359,1231.489027,278.093,34.491,917.227307,3.182,39.995,827.283939,309.923,19.002,1360.053596
20 Mar 2024 11:08:00.000,114.963,9.293,1890.643561,18.319,23.462,1191.976560,328.105,18.167,1392.557423,225.749,34.489,916.108514
07 Mar 2024 18:26:00.000,191.761,13.837,1599.393375,74.303,13.156,1644.405006,199.745,7.818,1989.547522,306.885,13.282,1640.663374
18 Mar 2024 06:04:00.000,197.023,7.731,1999.986367,112.533,25.437,1128.207712,227.400,34.248,918.850815,328.075,30.819,994.938442
10 Mar 2024 14:52:00.000,292.554,22.184,1238.365665,246.760,7.765,1999.985666,39.999,16.051,1489.524777,225.647,7.752,1999.96899
30 Mar 2024 07:09:00.000,281.914,21.930,1245.404248,87.460,35.643,896.580356,225.750,10.236,1817.640204,79.529,20.494,1298.325988
22 Mar 2024 05:58:00.000,73.052,15.611,1514.643898,265.149,21.451,1259.642483,42.452,16.281,1478.653683,232.694,41.55,806.258765
08 Mar 2024 15:00:00.000,334.411,52.079,696.616142,234.579,9.114,1898.567175,298.851,7.808,1999.995416,320.539,26.246,1110.506601
16 Mar 2024 13:00:00.000,121.401,15.485,1517.155203,262.026,7.799,1999.983246,355.491,23.558,1187.517535,225.742,8.294,1957.216083
09 Mar 2024 13:19:00.000,63.609,22.265,1235.730292,110.027,13.409,1622.863028,75.208,12.228,1694.926602,54.616,42.156,799.568518
23 Mar 2024 10:55:00.000,190.542,31.574,975.687276,276.477,7.820,1999.986274,99.706,7.760,1999.987082,61.588,16.094,1490.089069
25 Mar 2024 09:12:00.000,119.152,7.803,1999.976910,305.685,7.861,1999.998357,41.122,13.815,1606.669016,60.794,7.872,1999.989846
14 Mar 2024 11:26:00.000,75.990,7.886,1999.984372,152.343,9.788,1847.774157,41.229,13.739,1611.513299,261.302,7.827,1999.971173
18 Mar 2024 12:54:00.000,143.517,11.906,1714.911027,267.657,19.342,1339.542300,233.332,7.695,1999.986643,194.269,7.73,1999.986607
16 Mar 2024 09:37:00.000,61.740,23.974,1179.144085,305.008,13.605,1618.146528,49.782,24.512,1157.592196,144.595,16.536,1459.23744
03 Mar 2024 20:14:00.000,260.092,7.807,1999.996430,110.553,13.899,1597.610659,201.794,7.625,1999.983548,263.793,12.031,1710.219494
11 Mar 2024 08:10:00.000,131.095,7.787,1999.998315,52.974,14.628,1562.780986,57.397,22.362,1227.732450,287.011,13.112,1648.992284
06 Mar 2024 15:08:00.000,56.413,33.778,933.752959,298.073,7.855,1999.977742,204.360,12.987,1645.114942,184.744,7.67,1999.982406
21 Mar 2024 09:17:00.000,297.305,21.627,1258.331006,132.766,7.736,1999.984981,337.924,30.498,999.064563,249.136,22.094,1236.971292
14 Mar 2024 14:39:00.000,273.728,13.064,1651.720153,174.328,11.337,1744.418846,292.543,7.769,1999.993892,55.209,11.176,1768.85994
08 Mar 2024 10:00:00.000,111.284,12.004,1712.455375,97.780,9.965,1839.024745,111.675,25.204,1131.928077,310.231,35.413,902.514846
28 Mar 2024 08:55:00.000,270.713,12.816,1664.892599,195.677,30.277,1001.593372,74.006,40.858,812.133805,213.129,10.36,1810.927141
26 Mar 2024 04:01:00.000,222.859,35.003,907.036969,255.337,11.144,1763.310819,51.252,7.834,1999.990562,62.229,9.366,1888.306737
13 Mar 2024 13:06:00.000,76.492,38.413,853.425543,51.047,24.410,1160.421764,352.795,24.357,1162.938008,8.807,34.512,920.03864
18 Mar 2024 12:54:00.000,139.868,7.769,1999.990639,271.607,21.067,1273.280440,228.063,35.867,889.928794,68.16,17.463,1425.0948
28 Mar 2024 02:20:00.000,82.673,7.836,1999.977925,286.047,7.812,1999.987859,303.349,7.835,1999.971952,329.171,25.551,1129.669773
28 Mar 2024 07:17:00.000,309.011,61.555,631.830923,340.836,23.741,1184.796636,316.539,12.438,1685.174051,290.546,22.101,1238.612236
06 Mar 2024 11:45:00.000,125.886,33.098,945.372235,20.073,69.215,595.732832,255.445,55.031,669.340853,36.1,38.093,856.886542
17 Mar 2024 12:50:00.000,282.701,13.635,1620.346442,11.773,26.313,1107.514736,47.822,11.950,1715.769982,124.133,9.116,1900.79107
30 Mar 2024 07:15:00.000,126.103,15.062,1537.615351,46.906,23.067,1206.211200,66.986,14.525,1566.669318,275.022,21,1276.076425
14 Mar 2024 09:39:00.000,252.872,36.275,887.350381,51.095,13.699,1614.527400,42.798,21.478,1260.024926,241.496,48.642,725.571838
21 Mar 2024 06:02:00.000,74.252,8.422,1958.862820,160.851,14.681,1551.837774,77.605,7.787,1999.982904,301.371,7.888,1999.983995
12 Mar 2024 16:26:00.000,260.538,7.833,1999.995895,71.718,31.635,974.935155,146.341,9.294,1882.452485,43.595,22.034,1242.866372
14 Mar 2024 09:41:00.000,56.734,74.611,581.673204,305.758,7.833,1999.999014,42.753,16.231,1479.519138,154.142,7.697,1999.991351
05 Mar 2024 11:51:00.000,92.604,12.663,1674.614117,270.408,7.775,1999.988427,227.986,7.703,1999.985322,253.888,7.809,1999.985431
24 Mar 2024 07:30:00.000,25.528,47.146,742.530266,305.557,7.851,2000.000047,109.258,8.902,1913.531692,118.437,9.356,1884.076614
07 Mar 2024 13:19:00.000,268.951,13.650,1618.061917,243.022,36.317,883.318522,278.259,61.673,628.638012,332.082,25.948,1118.245439
13 Mar 2024 11:22:00.000,296.563,32.984,949.910147,5.504,29.164,1032.739092,109.712,8.947,1908.504750,113.654,15.744,1501.338456
04 Mar 2024 18:29:00.000,283.786,7.864,1999.996807,221.978,62.016,627.632950,358.858,22.915,1209.802608,178.641,16.837,1446.115148
27 Mar 2024 07:17:00.000,292.448,13.663,1618.051121,36.569,18.383,1385.086846,156.418,7.666,1999.983161,174.442,26.109,1109.312884
05 Mar 2024 15:05:00.000,280.696,7.877,1999.991886,236.264,7.749,1999.991736,202.632,7.650,1999.983520,46.214,19.287,1345.960682
25 Mar 2024 04:06:00.000,127.227,44.456,769.568691,121.839,9.247,1889.344963,82.395,7.798,1999.993421,243.006,63.125,623.009911
25 Mar 2024 10:46:00.000,256.627,11.634,1735.673938,213.071,18.643,1366.528397,251.972,35.807,891.647419,277.328,34.744,913.630431
25 Mar 2024 04:03:00.000,215.811,21.076,1271.449969,174.807,7.667,1999.988574,300.075,50.782,703.621697,133.819,20.331,1298.332753
25 Mar 2024 10:51:00.000,171.108,7.745,1999.984688,164.399,7.688,1999.990334,306.207,7.838,1999.983724,51.303,23.794,1184.066322
30 Mar 2024 07:07:00.000,287.335,7.864,1999.980208,264.583,7.777,1999.993726,259.079,7.717,1999.982104,191.288,40.643,818.024415
29 Mar 2024 08:53:00.000,262.118,12.130,1704.877476,43.796,14.590,1566.065485,177.413,11.486,1730.390048,287.687,20.33,1304.896591
17 Mar 2024 07:55:00.000,72.888,8.919,1923.116820,171.619,65.428,610.685154,300.675,18.584,1373.222091,214.547,13.216,1632.294031
20 Mar 2024 06:03:00.000,101.533,28.405,1050.621864,314.694,17.907,1402.822693,69.771,7.815,1999.990996,306.893,21.793,1251.674485
18 Mar 2024 06:09:00.000,118.116,18.674,1369.539953,29.859,21.810,1250.396272,40.551,16.014,1491.138845,54.87,15.391,1526.328822
19 Mar 2024 09:29:00.000,73.627,14.021,1599.167419,168.873,66.203,607.724926,232.673,7.665,1999.986262,133.373,41.1,812.135887
08 Mar 2024 11:40:00.000,87.388,39.120,842.544094,67.911,15.886,1498.296963,78.908,10.150,1827.753785,135.831,7.726,1999.999879
26 Mar 2024 07:27:00.000,87.443,14.827,1553.801260,275.276,20.588,1292.212349,118.298,8.681,1928.236580,234.787,13.625,1611.49725
02 Mar 2024 20:18:00.000,247.862,16.154,1482.513200,4.552,26.787,1092.817920,291.582,30.501,998.346791,247.214,25.645,1124.269221
08 Mar 2024 13:15:00.000,272.721,7.868,1999.982608,323.940,18.425,1383.359118,7.755,24.143,1170.115223,278.889,13.294,1637.792117
29 Mar 2024 03:52:00.000,274.698,35.134,906.082135,261.974,18.446,1378.445667,153.164,10.541,1793.676291,298.1,13.769,1611.025719
06 Mar 2024 11:49:00.000,79.460,7.878,1999.989924,340.994,23.784,1182.109036,166.937,29.542,1017.445494,187.387,48.561,725.742722
05 Mar 2024 13:29:00.000,54.276,74.542,581.713911,320.580,20.103,1313.514822,50.092,51.472,698.604362,155.87,35.333,899.975703
04 Mar 2024 13:33:00.000,80.304,41.276,811.734723,154.289,34.914,905.254345,196.607,25.887,1111.479826,76.508,12.634,1673.384519
09 Mar 2024 13:18:00.000,50.591,34.034,929.464345,280.913,7.818,1999.990956,314.059,21.345,1263.137036,325.053,31.844,971.794238
18 Mar 2024 12:49:00.000,253.972,29.822,1016.737735,60.596,8.041,1985.802395,76.783,7.794,1999.999241,128.509,11.539,1738.096664
28 Mar 2024 02:13:00.000,202.200,12.712,1662.197232,91.856,7.809,1999.982052,248.983,7.725,1999.990788,59.38,15.791,1505.863997
08 Mar 2024 14:59:00.000,307.117,34.231,925.497096,84.072,7.788,1999.991227,56.874,7.831,1999.990154,115.188,18.365,1381.53539
15 Mar 2024 11:20:00.000,56.240,33.739,935.198663,264.174,58.399,647.310588,108.674,8.877,1915.494265,67.821,10.185,1831.061146
06 Mar 2024 16:46:00.000,290.486,36.532,883.382418,57.291,8.930,1919.227970,326.594,22.938,1209.025649,230.865,7.743,1999.991313
31 Mar 2024 03:47:00.000,323.773,47.961,732.894214,208.679,20.870,1278.711938,211.598,13.151,1635.322225,273.242,7.825,1999.98261
24 Mar 2024 04:13:00.000,79.911,7.857,1999.979961,319.750,34.089,925.463418,343.767,21.363,1263.622900,207.916,12.996,1645.598587
09 Mar 2024 11:33:00.000,245.618,22.175,1236.122871,46.787,48.846,723.603748,36.486,28.763,1040.394802,195.321,31.374,979.231967
03 Mar 2024 13:39:00.000,73.751,7.879,1999.995892,54.305,57.735,651.802318,288.752,7.779,1999.985726,315.119,20.498,1298.601891
27 Mar 2024 03:57:00.000,244.287,22.086,1236.431944,57.490,7.841,1999.997649,64.537,26.781,1091.114345,79.652,11.859,1721.294533
17 Mar 2024 11:17:00.000,91.462,7.857,1999.990421,260.624,7.742,1999.980950,137.954,7.925,1980.365149,70.544,7.868,1999.996979
18 Mar 2024 11:07:00.000,295.917,22.065,1243.013578,195.457,15.667,1502.789352,228.035,34.935,906.310742,199.961,12.757,1658.161022
15 Mar 2024 07:53:00.000,210.217,13.051,1646.030301,1.429,39.829,830.048927,346.313,26.628,1096.222527,82.42,38.992,843.377641
01 Mar 2024 18:42:00.000,305.557,62.311,627.340095,322.277,19.557,1335.674155,72.437,23.886,1176.340692,38.173,41.707,805.214055
06 Mar 2024 16:44:00.000,289.989,13.813,1610.119374,132.534,20.105,1306.087248,48.438,9.480,1879.324785,216.017,13.346,1628.893318
18 Mar 2024 06:11:00.000,92.672,9.903,1850.386675,200.676,7.720,1999.978320,328.285,17.767,1410.203571,119.128,42.663,791.621099
31 Mar 2024 03:50:00.000,62.210,22.599,1222.355283,98.026,14.246,1578.903397,71.138,7.813,1999.989895,103.617,7.801,1999.982942
04 Mar 2024 13:28:00.000,241.055,13.714,1611.581644,192.860,31.086,981.779168,239.737,13.643,1610.408888,83.106,20.17,1309.817276
08 Mar 2024 15:03:00.000,82.833,23.480,1193.039826,139.279,7.692,1999.989932,60.889,7.802,1999.975536,200.828,9.058,1901.776982
18 Mar 2024 11:13:00.000,95.745,15.394,1524.418965,92.673,7.774,1999.971713,257.667,17.346,1424.477270,241.317,13.631,1612.795756
24 Mar 2024 05:45:00.000,259.836,13.637,1615.688606,322.273,19.679,1330.947301,86.334,7.747,1999.989767,96.659,7.831,1999.981425
23 Mar 2024 09:17:00.000,99.923,15.707,1508.040276,303.471,7.850,1999.992269,28.013,21.289,1266.642296,163.499,14.236,1575.740248
06 Mar 2024 15:06:00.000,335.237,46.313,751.496605,90.753,22.280,1230.727040,51.146,52.773,686.561666,168.041,7.69,1999.986807
24 Mar 2024 09:15:00.000,110.243,7.819,1999.992702,28.669,24.709,1154.027517,90.803,12.773,1661.721887,292.286,7.855,1999.993934
08 Mar 2024 13:24:00.000,71.735,7.886,1999.981205,183.281,56.683,658.886545,269.722,12.325,1689.262859,124.701,9.067,1903.423224
28 Mar 2024 07:18:00.000,72.677,71.582,589.607879,71.894,13.955,1595.842556,293.364,12.558,1676.552085,118.454,15.894,1495.581
01 Mar 2024 18:46:00.000,105.837,15.788,1500.977679,40.185,38.833,845.412232,54.329,20.607,1291.877540,165.223,7.675,1999.985321
06 Mar 2024 15:10:00.000,76.128,14.107,1593.059463,126.229,7.743,1999.982515,118.438,25.790,1116.494704,152.918,13.237,1633.481115
28 Mar 2024 07:19:00.000,97.846,42.095,799.987414,316.194,20.919,1282.579834,118.639,26.242,1103.883123,284.67,7.857,1999.975187
12 Mar 2024 13:09:00.000,66.510,35.808,896.600869,68.320,8.236,1969.113247,231.126,21.955,1238.230445,126.594,15.447,1515.229749
16 Mar 2024 13:01:00.000,119.921,9.091,1904.150274,54.472,12.868,1661.444768,23.171,70.640,590.042023,168.642,7.738,1999.986295
13 Mar 2024 14:47:00.000,158.025,31.194,983.656959,13.712,25.119,1141.814468,292.143,7.817,1999.982695,153.647,7.722,1999.989968
23 Mar 2024 10:58:00.000,148.132,10.562,1800.379445,303.005,36.153,886.959074,95.462,28.386,1046.248708,251.71,7.802,1999.988918
08 Mar 2024 13:18:00.000,292.617,33.351,942.358353,318.590,20.522,1297.652102,154.617,13.627,1605.486581,157.275,36.553,880.719143
07 Mar 2024 13:18:00.000,266.280,7.855,1999.984718,237.549,21.001,1274.455444,120.646,9.192,1889.736578,56.606,15.517,1519.258437
07 Mar 2024 14:59:00.000,287.610,7.890,1999.979803,202.788,9.871,1839.986600,306.864,7.838,1999.988569,316.592,19.388,1341.986632
02 Mar 2024 13:41:00.000,80.939,12.479,1686.201675,151.059,7.706,1999.983683,143.590,7.676,1999.992408,183.154,7.73,1999.998725
26 Mar 2024 09:00:00.000,285.875,7.875,1999.981983,260.341,13.480,1623.562639,67.974,7.821,1999.970656,82.747,12.454,1686.62475
13 Mar 2024 16:25:00.000,231.540,9.052,1905.346981,219.440,35.332,900.812420,26.040,20.748,1287.466299,118.567,23.478,1190.745715
17 Mar 2024 07:52:00.000,87.974,38.894,845.659803,206.530,33.733,929.864229,274.556,13.159,1639.773162,147.419,37.715,860.894103
03 Mar 2024 13:30:00.000,232.469,7.793,1999.991431,53.637,7.843,1999.999508,254.515,21.845,1240.816919,102.138,69.227,596.938847
02 Mar 2024 15:13:00.000,262.858,7.842,1999.991503,332.416,34.662,914.101560,210.174,7.695,1999.990210,228.16,11.03,1769.813925
27 Mar 2024 07:21:00.000,47.418,61.914,630.051505,315.912,20.919,1282.031512,189.349,7.686,1999.986195,330.471,25.607,1128.03789
04 Mar 2024 11:52:00.000,115.181,15.508,1516.828861,254.389,13.627,1614.558472,308.776,7.837,1999.977463,59.565,15.798,1503.977401
28 Mar 2024 05:42:00.000,77.602,7.865,1999.990418,66.207,25.299,1133.874094,156.936,7.641,1999.991340,67.482,17.302,1432.340577
24 Mar 2024 05:47:00.000,268.095,35.607,898.229541,329.311,23.425,1194.984862,119.818,74.347,578.766811,292.013,7.869,1999.97548
27 Mar 2024 08:58:00.000,277.505,13.333,1635.811760,224.983,31.780,968.007469,309.931,21.765,1248.560722,95.679,7.815,1999.983391
31 Mar 2024 05:28:00.000,332.023,53.734,682.389740,88.590,12.723,1667.827659,341.893,55.430,667.867890,342.83,32.41,961.227519
29 Mar 2024 07:12:00.000,288.242,22.269,1233.939147,282.993,7.838,1999.997115,309.191,7.828,1999.991568,313.992,20.784,1288.688058
30 Mar 2024 05:35:00.000,83.862,14.500,1570.573308,271.036,7.815,1999.976980,316.285,17.263,1430.434222,246.61,25.325,1132.986173
08 Mar 2024 11:43:00.000,72.775,8.947,1921.098976,253.829,10.984,1771.674315,158.042,21.338,1258.231024,100.999,17.495,1419.946927
23 Mar 2024 10:56:00.000,168.550,24.047,1171.645988,232.431,36.057,888.408994,114.841,9.135,1895.352502,265.132,12.111,1704.603143
07 Mar 2024 18:25:00.000,207.610,16.345,1471.120678,265.534,7.764,1999.980764,294.557,7.787,1999.991107,252.524,54.994,672.38277
21 Mar 2024 05:53:00.000,231.591,7.764,1999.991770,203.812,33.200,937.420365,48.462,12.835,1662.911528,63.599,15.905,1500.239635
24 Mar 2024 09:07:00.000,290.224,13.764,1613.058167,79.448,39.446,835.759737,239.498,21.522,1252.443186,99.348,25.545,1126.126602
01 Mar 2024 16:57:00.000,282.881,7.870,1999.976226,79.421,9.582,1870.972589,155.718,13.861,1594.688242,315.39,20.351,1304.484154
09 Mar 2024 15:02:00.000,98.816,7.826,1999.990684,141.435,23.136,1197.612924,225.898,35.634,892.948051,268.665,32.867,948.840568
07 Mar 2024 13:20:00.000,273.421,21.821,1250.266570,309.382,13.413,1630.129861,113.029,7.705,1999.997227,332.806,26.385,1106.846655
27 Mar 2024 08:59:00.000,269.496,20.574,1295.205696,130.035,7.893,1984.113056,278.197,20.852,1280.128047,48.696,23.06,1208.215553
29 Mar 2024 02:16:00.000,81.441,12.056,1709.531354,314.986,17.902,1405.058448,330.405,31.783,970.801778,150.818,7.7,1999.993312
22 Mar 2024 05:52:00.000,238.007,22.101,1236.571707,3.599,36.320,885.849965,276.391,20.516,1291.927697,304.907,12.949,1659.294338
25 Mar 2024 07:28:00.000,62.127,34.639,917.345912,329.037,31.522,977.982267,235.258,12.368,1683.387460,307.274,13.206,1644.435183
18 Mar 2024 09:31:00.000,63.534,22.237,1236.979729,70.761,7.840,1999.982971,212.360,34.473,912.829236,66.832,15.665,1511.568339
06 Mar 2024 11:42:00.000,201.634,19.919,1317.634383,55.319,22.721,1217.612008,196.832,26.528,1094.400196,217.416,24.63,1153.015548
22 Mar 2024 07:31:00.000,275.192,7.852,1999.986912,114.360,18.168,1388.847848,42.770,40.136,823.407780,214.893,11.076,1765.545579
10 Mar 2024 13:18:00.000,78.039,7.875,1999.986124,126.439,16.344,1470.415512,283.909,12.807,1658.796071,174.879,7.725,1999.998648
10 Mar 2024 14:58:00.000,105.462,15.892,1497.606016,297.071,13.737,1611.136986,305.513,7.838,1999.984682,195.198,18.554,1371.03106
11 Mar 2024 11:34:00.000,69.719,7.897,1999.990078,52.179,21.298,1268.053690,282.737,7.784,1999.989061,68.2,8.77,1929.5765
09 Mar 2024 13:21:00.000,74.364,7.882,1999.972273,250.947,7.727,1999.969322,288.989,7.804,1999.982126,286.976,7.847,1999.990745
15 Mar 2024 09:38:00.000,23.152,66.237,610.129958,23.049,23.046,1206.749734,304.704,7.812,1999.992193,58.551,7.892,1999.982272
27 Mar 2024 07:26:00.000,98.047,7.835,1999.990438,309.940,21.821,1249.220464,143.256,8.992,1900.607618,235.006,62.757,622.924423
20 Mar 2024 09:26:00.000,78.383,14.121,1593.199553,323.913,18.827,1366.047775,27.394,20.904,1281.678805,156.952,10.131,1827.858234
06 Mar 2024 11:40:00.000,216.375,7.773,1999.983746,38.621,18.120,1395.944137,160.271,16.810,1445.343948,307.284,13.248,1642.894366
08 Mar 2024 10:02:00.000,97.349,7.849,1999.979226,324.227,33.196,942.634779,101.096,14.500,1564.107552,58.19,7.892,1999.99108
20 Mar 2024 05:57:00.000,221.172,7.750,1999.991007,323.787,18.202,1391.444903,5.064,29.410,1023.087626,194.577,28.17,1053.461786
31 Mar 2024 00:26:00.000,148.377,17.095,1434.219437,60.969,9.439,1883.562210,320.132,40.560,818.992184,246.627,7.782,1999.977661
15 Mar 2024 14:38:00.000,253.980,17.620,1416.927162,303.569,49.946,713.130473,345.546,22.165,1235.826233,133.311,14.649,1555.145613
27 Mar 2024 07:22:00.000,81.806,39.600,834.885899,214.856,13.291,1629.017153,8.759,28.104,1056.605201,49.194,22.816,1215.155553
13 Mar 2024 09:43:00.000,218.026,60.393,638.107362,340.094,26.238,1109.522491,50.663,7.824,1999.997418,301.807,29.618,1021.613637
31 Mar 2024 05:31:00.000,86.000,23.901,1178.509467,240.046,13.560,1614.792463,304.170,18.208,1386.633723,228.289,35.926,889.781506
14 Mar 2024 11:24:00.000,65.130,22.068,1242.898220,249.077,52.101,692.949128,118.469,25.416,1127.087886,67.621,7.865,1999.99013
28 Mar 2024 09:02:00.000,152.370,9.115,1899.080018,28.620,23.586,1188.888809,218.436,13.361,1622.651331,34.738,23.808,1184.041902
20 Mar 2024 07:40:00.000,275.517,35.156,907.185119,65.536,15.118,1535.605522,269.147,12.292,1689.711630,72.418,7.858,1999.981216
27 Mar 2024 02:21:00.000,103.118,14.045,1592.003655,301.330,7.853,1999.978057,74.727,32.045,964.273051,114.247,7.784,1999.979415
23 Mar 2024 05:48:00.000,250.457,13.704,1611.068766,299.584,7.859,1999.986099,69.672,29.542,1020.022178,80.705,71.124,590.115162
06 Mar 2024 15:02:00.000,284.676,7.884,1999.990579,306.170,7.864,1999.983909,102.322,24.226,1164.028573,81.969,7.853,1999.995207
20 Mar 2024 07:42:00.000,19.220,61.458,632.905721,76.000,7.827,1999.982901,157.857,34.485,914.150332,227.179,10.794,1783.55078
04 Mar 2024 13:30:00.000,235.084,36.100,889.770315,77.740,11.098,1765.865346,273.633,33.490,934.952555,300.326,19.449,1340.714842
16 Mar 2024 09:31:00.000,268.606,13.631,1618.797013,72.179,24.022,1171.787817,304.846,27.421,1072.898938,343.205,53.243,685.774053
14 Mar 2024 07:57:00.000,196.141,12.515,1676.830867,50.649,12.810,1665.769123,136.899,24.146,1164.712643,155.925,20.284,1302.326024
23 Mar 2024 05:54:00.000,68.914,25.643,1126.917882,274.876,13.109,1642.102564,334.744,30.308,1003.869191,47.109,17.282,1435.576383
24 Mar 2024 10:51:00.000,214.371,24.541,1156.767210,96.841,23.635,1184.487333,133.814,14.913,1540.457588,296.161,22.191,1236.314719
22 Mar 2024 09:21:00.000,94.672,7.850,1999.969796,243.964,23.887,1174.924312,309.481,21.848,1246.313775,66.087,42.536,792.556751
13 Mar 2024 11:28:00.000,72.552,8.423,1959.778694,62.565,26.648,1095.878833,196.683,20.538,1286.906741,300.677,7.881,1999.980259
15 Mar 2024 07:57:00.000,125.816,32.636,954.440470,117.340,22.511,1220.066694,95.133,28.961,1033.452765,62.162,7.886,1999.993893
26 Mar 2024 05:39:00.000,275.418,13.586,1620.046451,39.692,38.432,851.370496,1.274,22.654,1217.934627,240.063,22.647,1217.957974
20 Mar 2024 11:05:00.000,119.586,42.182,799.021778,323.703,18.161,1392.936268,338.355,28.544,1045.823968,167.34,11.692,1723.649946
22 Mar 2024 07:32:00.000,278.738,13.545,1623.766673,133.054,8.460,1945.296836,29.084,19.250,1345.765696,310.039,18.944,1362.096938
19 Mar 2024 09:22:00.000,286.391,13.515,1627.017215,26.679,23.733,1184.599465,352.838,24.279,1166.188320,68.514,25.256,1138.068121
23 Mar 2024 07:37:00.000,75.555,8.274,1970.152336,314.449,44.571,768.865851,232.902,13.528,1615.955859,86.595,7.833,1999.980383
26 Mar 2024 02:19:00.000,181.051,7.698,1999.983776,139.928,24.845,1143.962127,284.436,13.344,1630.370245,227.715,16.767,1452.823066
03 Mar 2024 15:10:00.000,269.728,7.856,1999.985044,48.747,12.988,1654.611864,77.982,7.801,1999.976229,236.497,12.98,1650.739308
13 Mar 2024 14:43:00.000,273.207,21.068,1277.441622,276.578,33.375,939.004797,26.227,26.829,1091.206663,289.901,31.773,973.108137
04 Mar 2024 15:15:00.000,62.577,22.414,1229.941416,120.307,49.426,714.947261,261.593,21.489,1253.099615,59.234,15.698,1510.58434
22 Mar 2024 07:39:00.000,68.680,14.310,1583.436237,63.052,7.841,1999.974880,50.821,7.823,1999.990206,98.838,10.631,1797.719648
22 Mar 2024 12:39:00.000,201.330,7.753,1999.997296,11.716,26.229,1109.504686,77.801,18.206,1387.987731,70.192,32.481,957.771124
25 Mar 2024 04:08:00.000,85.886,20.988,1278.970357,54.824,7.865,1999.980342,0.979,22.699,1217.586051,65.951,9.163,1902.489093
12 Mar 2024 11:32:00.000,70.778,7.895,1999.977011,272.800,21.043,1275.400912,60.218,7.807,1999.986549,99.87,7.817,1999.994597
16 Mar 2024 12:53:00.000,287.016,13.741,1614.825249,65.764,7.818,1999.999882,89.797,7.780,1999.989552,60.56,9.185,1903.848607
03 Mar 2024 15:11:00.000,272.741,13.537,1624.310664,159.637,14.463,1561.306264,203.708,12.897,1648.596504,62.548,65.372,612.892922
14 Mar 2024 14:42:00.000,221.263,33.006,946.471915,50.930,9.960,1845.974406,214.237,19.262,1339.445342,55.052,14.355,1580.581827
17 Mar 2024 14:32:00.000,242.432,10.190,1828.060415,46.971,19.155,1350.693327,82.372,19.145,1346.477608,324.498,41.093,814.290812
03 Mar 2024 11:57:00.000,103.187,7.833,1999.988213,63.029,8.198,1973.149578,120.515,15.683,1500.797297,78.544,11.415,1751.064794
03 Mar 2024 15:20:00.000,70.841,7.875,1999.987310,295.930,7.847,1999.983496,310.313,12.203,1699.257903,8.241,34.819,913.153967
08 Mar 2024 13:22:00.000,61.742,22.900,1214.003715,323.656,18.168,1394.257683,329.835,31.963,967.434659,59.31,10.092,1839.954438
11 Mar 2024 16:31:00.000,231.015,19.512,1334.055089,310.010,12.502,1684.669388,5.803,61.464,630.025647,4.708,50.123,713.171806
29 Mar 2024 03:57:00.000,66.874,15.401,1524.570482,196.049,20.165,1304.897480,316.746,12.610,1676.499411,21.488,28.049,1060.960667
04 Mar 2024 15:12:00.000,325.498,47.769,736.141088,50.277,10.565,1807.225401,63.290,7.783,1999.990240,214.012,7.739,1999.980967
14 Mar 2024 08:03:00.000,92.535,12.408,1689.836436,216.004,21.759,1244.283964,88.581,10.660,1791.675546,320.914,33.193,944.63466
24 Mar 2024 07:34:00.000,79.691,8.222,1973.438723,339.690,26.218,1109.389816,223.198,29.416,1020.429164,262.738,31.22,983.63894
28 Mar 2024 05:34:00.000,286.178,13.520,1624.679583,63.778,15.831,1501.659192,304.464,22.066,1236.709142,96.695,23.929,1176.708614
28 Mar 2024 09:01:00.000,160.146,14.448,1568.223789,251.683,26.937,1086.368497,263.963,18.636,1367.744960,46.944,17.403,1429.349641
31 Mar 2024 00:29:00.000,101.360,10.805,1785.392910,136.592,40.710,815.675287,324.782,17.055,1442.019728,60.569,7.88,1999.989832
25 Mar 2024 07:27:00.000,30.534,49.408,720.056531,294.703,13.721,1611.369884,52.019,7.809,1999.969441,273.631,7.847,2000.00002
21 Mar 2024 10:57:00.000,285.133,13.691,1617.174373,190.161,7.707,1999.993504,284.967,12.849,1659.937682,299.857,7.888,1999.975452
02 Mar 2024 16:58:00.000,336.138,47.052,743.160068,70.500,7.847,1999.970218,227.379,7.672,1999.995344,64.082,7.838,1999.975027
02 Mar 2024 16:54:00.000,286.324,7.877,1999.989321,24.681,23.190,1201.663837,126.459,15.558,1508.224893,4.061,45.739,755.614555
24 Mar 2024 10:55:00.000,157.249,7.754,1999.984982,295.854,7.830,1999.977637,261.666,35.113,902.259697,114.467,9.251,1889.530082
10 Mar 2024 11:34:00.000,60.820,41.917,803.937662,245.703,10.188,1824.349509,217.625,13.286,1624.731398,307.226,13.202,1644.562017
18 Mar 2024 12:51:00.000,188.757,37.014,873.645664,295.355,7.850,1999.978272,244.468,13.547,1611.923176,312.286,62.241,627.925804
20 Mar 2024 07:41:00.000,299.334,56.384,663.600349,77.720,7.802,1999.977601,39.794,39.002,841.678568,167.287,43.093,785.899454
23 Mar 2024 04:09:00.000,195.452,12.407,1681.127297,289.825,12.815,1664.699657,172.066,8.626,1928.777496,323.705,25.873,1120.906697
15 Mar 2024 11:17:00.000,306.740,32.482,960.430178,106.553,8.777,1922.182659,292.909,12.572,1673.429422,286.535,13.574,1622.359728
26 Mar 2024 05:46:00.000,67.664,14.501,1572.424017,136.409,14.511,1561.686256,68.581,7.777,1999.980989,46.824,17.483,1423.755522
28 Mar 2024 07:20:00.000,102.435,25.507,1129.222571,131.473,24.714,1149.547838,249.052,7.702,1999.976851,115.817,60.181,638.791296
05 Mar 2024 18:26:00.000,279.434,7.857,1999.982858,132.949,73.943,581.279294,326.822,36.512,881.509445,353.28,44.972,765.912687
16 Mar 2024 14:35:00.000,242.537,14.977,1543.545078,317.340,17.739,1411.431698,54.105,7.808,1999.987018,316.315,26.945,1089.163959
16 Mar 2024 09:30:00.000,265.979,7.848,1999.987932,84.661,20.777,1285.056683,273.904,13.108,1640.387868,62.169,28.518,1047.208788
12 Mar 2024 11:24:00.000,277.494,21.579,1259.369575,53.721,7.845,1999.990416,203.848,7.694,1999.983497,54.311,15.432,1522.783976
31 Mar 2024 02:02:00.000,240.638,7.748,1999.991004,206.579,7.703,1999.991594,251.584,7.744,1999.989414,85.775,18.019,1399.790168
25 Mar 2024 09:11:00.000,120.771,15.496,1516.665032,86.855,37.479,865.684837,54.976,8.649,1937.672556,73.505,7.853,1999.989827
10 Mar 2024 11:35:00.000,65.899,25.482,1132.790724,42.002,18.725,1370.323837,0.971,53.375,682.541009,65.899,30.537,1000.695943
13 Mar 2024 14:41:00.000,283.931,7.885,1999.971094,310.493,13.334,1634.757958,12.208,23.444,1191.363901,185.746,7.695,1999.980588
04 Mar 2024 13:32:00.000,108.199,69.003,598.541939,161.411,32.134,961.158772,130.037,24.963,1138.316951,90.631,72.917,584.358538
03 Mar 2024 16:53:00.000,297.301,21.586,1259.173219,110.843,7.776,1999.970337,60.192,15.844,1499.322331,330.73,37.867,861.672301
13 Mar 2024 09:40:00.000,240.642,13.625,1616.399508,56.192,8.608,1944.004878,359.495,45.950,752.149855,272.825,7.837,1999.995506
12 Mar 2024 16:29:00.000,220.088,14.163,1584.086567,336.937,22.770,1214.666145,48.451,9.472,1878.470758,60.961,7.889,1999.990275
23 Mar 2024 07:34:00.000,51.847,33.669,936.141774,257.612,21.826,1244.908855,70.021,15.593,1510.867636,218.962,7.7,1999.981837
21 Mar 2024 09:22:00.000,78.371,22.922,1212.503620,189.684,47.382,735.907116,174.424,16.864,1439.966847,99.161,11.242,1759.916023
26 Mar 2024 04:04:00.000,88.653,38.525,850.018752,92.313,7.800,1999.978085,326.923,22.862,1211.707219,333.141,27.053,1088.432235
03 Mar 2024 20:15:00.000,249.088,10.838,1783.328226,136.388,8.492,1942.713566,302.531,13.642,1614.023141,194.14,12.549,1674.400494
04 Mar 2024 16:50:00.000,296.729,21.905,1247.737426,291.821,63.306,621.383475,308.903,7.815,1999.982712,130.455,7.723,1999.980867
31 Mar 2024 00:23:00.000,188.570,7.686,1999.978318,5.518,28.944,1036.868208,106.729,15.159,1529.789514,76.743,7.835,1999.982073
11 Mar 2024 09:54:00.000,77.356,7.886,1999.989639,50.228,13.035,1653.179683,319.624,20.580,1291.774607,75.403,40.995,813.417094
02 Mar 2024 15:22:00.000,69.742,7.876,2000.000015,87.559,12.542,1678.826402,15.017,22.135,1237.265314,122.683,34.996,908.540514
19 Mar 2024 11:03:00.000,291.233,13.828,1610.224170,168.625,27.873,1060.097762,132.868,9.805,1847.900277,60.691,7.889,1999.98985
16 Mar 2024 06:16:00.000,112.714,7.810,1999.997561,76.556,22.633,1219.558075,344.696,21.685,1252.698919,307.317,21.826,1249.049624
29 Mar 2024 07:10:00.000,289.305,7.868,1999.987333,359.664,25.121,1139.998180,70.433,15.686,1506.136467,125.155,9.052,1902.58573
23 Mar 2024 07:29:00.000,284.054,13.464,1628.781631,342.058,29.957,1013.510862,47.535,11.171,1764.003109,80.389,9.736,1862.735828
26 Mar 2024 02:24:00.000,110.398,11.293,1753.859624,122.786,15.684,1502.279094,95.870,13.738,1605.189433,46.3,22.464,1228.416948
04 Mar 2024 11:51:00.000,132.166,17.988,1398.950181,178.169,50.285,708.795245,177.653,19.987,1308.679153,60.45,9.184,1903.210539
07 Mar 2024 11:39:00.000,217.287,21.253,1267.569681,279.787,7.791,1999.991106,313.310,17.480,1422.555266,142.182,8.95,1911.357982
22 Mar 2024 05:55:00.000,111.341,67.867,602.285881,73.260,9.639,1868.019986,68.629,7.862,1993.451527,217.18,21.402,1260.169853
26 Mar 2024 05:38:00.000,272.111,7.831,1999.991576,42.802,15.363,1526.750695,33.845,16.783,1453.710855,279.286,13.16,1644.915978
30 Mar 2024 02:10:00.000,126.563,51.471,698.838114,216.189,21.470,1254.773465,51.282,7.825,1999.989798,41.74,21.865,1249.596108
09 Mar 2024 11:32:00.000,246.148,13.668,1614.850509,319.145,20.424,1299.536273,38.405,16.011,1492.070919,95.563,30.557,999.308968
02 Mar 2024 16:55:00.000,289.950,13.475,1628.958465,20.322,23.136,1203.600243,239.091,7.718,1999.990536,296.362,12.911,1658.849778
29 Mar 2024 07:18:00.000,114.854,15.798,1501.430966,198.359,19.924,1312.588910,42.070,16.165,1482.851921,312.291,18.988,1360.782359
31 Mar 2024 03:52:00.000,72.237,8.451,1955.346721,336.197,28.577,1047.175130,233.394,13.559,1614.378734,263.041,18.794,1363.262659
07 Mar 2024 15:08:00.000,85.583,7.851,1999.982585,76.158,10.239,1825.955109,70.073,29.724,1014.362140,125.355,15.537,1513.155468
29 Mar 2024 07:14:00.000,278.787,62.766,625.197960,149.446,20.822,1277.882054,75.211,9.290,1890.033007,72.736,7.827,1999.999752
30 Mar 2024 08:53:00.000,205.202,13.888,1598.402098,94.546,29.964,1009.349011,305.625,7.822,1999.991147,137.897,23.414,1189.12793
27 Mar 2024 04:03:00.000,71.273,15.906,1499.036916,295.908,19.294,1345.181748,120.220,32.102,961.972879,102.558,24.851,1147.988641
20 Mar 2024 07:44:00.000,62.638,24.532,1161.211313,305.195,13.675,1615.950512,282.517,20.117,1306.709017,141.362,7.734,1999.975489
12 Mar 2024 16:27:00.000,249.692,10.897,1781.409303,312.618,12.952,1655.997184,47.098,17.363,1426.032560,147.075,7.74,1999.981752
10 Mar 2024 09:51:00.000,176.345,25.645,1123.621974,97.941,25.788,1118.132578,68.245,7.807,1999.997928,59.661,8.876,1923.720653
10 Mar 2024 13:11:00.000,292.938,21.266,1271.681577,155.151,35.724,892.299495,165.222,14.279,1572.533818,295.924,13.753,1613.301815
14 Mar 2024 13:04:00.000,97.436,25.199,1139.189777,222.740,13.533,1617.367864,345.400,23.628,1186.398801,192.675,12.43,1678.360051
23 Mar 2024 04:14:00.000,104.061,17.439,1423.774549,42.882,15.269,1530.110721,82.721,10.966,1772.256234,20.784,28.052,1060.481804
06 Mar 2024 16:50:00.000,110.626,25.530,1127.499336,42.713,43.419,782.895604,264.179,7.741,1999.991604,256.724,21.99,1241.75945
18 Mar 2024 09:33:00.000,74.219,7.890,1999.976136,30.394,25.640,1125.941464,104.865,7.742,1999.976400,301.82,7.891,1999.975468
01 Mar 2024 18:45:00.000,104.245,25.459,1129.177093,3.174,25.839,1120.501142,148.439,38.046,852.930662,70.099,10.439,1815.708767
14 Mar 2024 12:57:00.000,290.430,7.900,1999.974354,85.723,7.817,1999.985422,248.033,7.699,1999.990077,171.15,24.656,1150.078472
02 Mar 2024 20:19:00.000,230.633,19.283,1341.714885,5.093,33.449,938.909399,301.620,12.339,1691.141365,195.297,21.746,1246.089008
08 Mar 2024 14:57:00.000,292.421,13.687,1618.046758,304.834,18.492,1379.333246,86.158,11.864,1717.623324,33.593,34.944,911.822778
03 Mar 2024 20:16:00.000,235.246,13.140,1640.730108,28.318,25.258,1137.541776,42.217,38.690,845.460552,356.036,30.122,1011.212315
25 Mar 2024 02:27:00.000,113.902,7.778,1999.991459,111.021,9.075,1902.798341,297.312,7.824,1999.991237,95.52,8.062,1981.152471
25 Mar 2024 10:51:00.000,179.106,10.903,1776.795400,302.046,7.860,1999.993207,303.531,7.819,1999.991306,162.072,15.029,1536.389619
17 Mar 2024 12:49:00.000,285.702,7.891,1999.982482,63.109,9.341,1889.835069,129.297,18.256,1380.709283,264.767,13.504,1624.473527
06 Mar 2024 15:11:00.000,80.358,7.860,1999.990562,193.261,7.716,1999.983097,264.104,13.399,1626.335093,51.906,23.976,1176.795383
19 Mar 2024 06:08:00.000,82.354,7.866,1999.983090,48.466,13.028,1653.491311,223.008,28.751,1037.116171,163.924,15.21,1527.966287
25 Mar 2024 02:24:00.000,159.864,7.709,1999.991288,55.458,8.163,1974.395526,114.890,74.845,578.100281,116.366,7.939,1989.111754
04 Mar 2024 18:36:00.000,145.652,20.407,1296.676939,80.740,7.823,1999.995208,99.600,19.560,1328.423211,255.626,7.765,1999.991122
23 Mar 2024 05:50:00.000,251.973,36.388,884.274016,84.352,18.121,1393.397108,166.325,15.630,1502.507333,104.117,24.86,1146.749388
06 Mar 2024 18:29:00.000,192.344,21.260,1264.418863,269.688,32.744,950.184847,82.336,38.144,853.656554,261.549,7.817,1999.998316
24 Mar 2024 05:51:00.000,64.155,25.133,1142.145085,208.348,8.330,1953.278558,26.735,22.275,1231.159001,194.089,13.865,1598.592462
03 Mar 2024 11:52:00.000,162.564,10.447,1807.455197,154.472,20.100,1308.008076,65.774,25.237,1134.842637,250.01,53.95,678.628026
25 Mar 2024 02:26:00.000,134.081,9.634,1861.524628,308.753,18.294,1388.341995,342.121,21.195,1270.530538,358.67,31.504,980.279143
06 Mar 2024 13:25:00.000,290.221,58.922,647.367578,65.766,28.337,1050.696287,142.997,7.697,1999.999786,135.488,8.006,1980.63037
11 Mar 2024 14:48:00.000,288.631,13.813,1610.695097,341.260,24.472,1161.125722,324.488,17.017,1444.327041,59.458,8.857,1927.552626
18 Mar 2024 09:32:00.000,70.051,14.171,1591.354277,143.007,13.180,1633.741059,264.676,7.770,1999.982483,95.104,8.065,1982.022578
31 Mar 2024 03:49:00.000,49.495,34.802,913.404345,338.620,27.029,1085.977920,23.981,20.482,1297.887201,331.615,28.765,1043.049936
13 Mar 2024 13:01:00.000,292.549,13.664,1619.742596,100.262,18.191,1389.168080,264.366,31.150,982.286493,269.403,12.554,1679.742915
09 Mar 2024 14:53:00.000,290.368,7.896,1999.970572,315.416,17.851,1407.260184,72.582,8.672,1932.940648,272.305,34.404,919.783162
06 Mar 2024 18:25:00.000,265.517,12.433,1686.487937,192.120,7.664,1999.991303,140.188,13.988,1589.470197,130.379,8.634,1933.368105
23 Mar 2024 10:51:00.000,274.051,13.120,1648.365342,101.635,8.326,1956.926107,66.584,7.814,1999.984684,323.593,25.951,1117.095844
30 Mar 2024 03:55:00.000,70.177,8.769,1932.181033,299.231,29.192,1029.939482,291.901,7.797,1999.982727,316.265,20.074,1316.267164
22 Mar 2024 07:37:00.000,49.736,34.615,918.285772,45.320,13.837,1606.499490,343.330,21.307,1266.649718,258.181,13.565,1616.856403
26 Mar 2024 04:07:00.000,72.721,7.867,1999.990217,260.657,11.615,1731.342666,8.066,26.466,1101.225338,242.078,7.789,1999.99158
14 Mar 2024 14:43:00.000,190.847,31.036,987.059492,324.120,18.515,1378.760371,63.234,9.203,1896.759281,355.484,30.031,1012.860225
09 Mar 2024 14:57:00.000,325.607,57.109,659.014523,313.098,12.968,1657.467669,45.442,22.984,1206.877687,50.748,15.691,1510.020447
05 Mar 2024 13:24:00.000,250.885,7.826,1999.984018,153.243,10.336,1812.026260,55.574,7.791,1999.970132,278.104,34.94,910.68504
18 Mar 2024 06:05:00.000,188.190,12.087,1701.436493,237.533,44.780,763.809920,178.960,7.631,1999.997531,303.961,36.224,887.470917
27 Mar 2024 04:04:00.000,70.728,7.869,1999.990636,334.589,22.794,1214.789763,71.834,13.749,1607.818618,358.359,31.281,984.603348
18 Mar 2024 11:08:00.000,303.122,35.327,905.531771,150.390,7.721,1999.985234,7.578,24.002,1173.046533,162.206,14.872,1542.837176
11 Mar 2024 13:15:00.000,82.452,8.347,1963.642487,79.920,19.504,1335.608259,120.286,47.516,733.789341,330.481,38.105,858.414619
06 Mar 2024 16:52:00.000,111.068,7.791,1999.989088,241.322,7.742,1999.978056,330.463,22.289,1230.648893,298.963,7.871,1999.99225
20 Mar 2024 12:40:00.000,270.470,7.861,1999.986812,2.749,36.937,873.831638,262.762,34.840,908.709975,355.914,30.105,1012.056787
03 Mar 2024 18:38:00.000,142.119,37.604,862.893723,41.783,17.527,1422.546274,69.385,7.806,1999.997247,70.891,32.792,952.284503
07 Mar 2024 13:21:00.000,282.546,34.498,920.010737,241.179,22.094,1232.728608,7.667,62.197,625.114037,90.776,34.795,912.822735
07 Mar 2024 18:21:00.000,265.596,7.831,1999.987428,172.645,7.683,1999.989274,244.075,14.367,1570.480936,306.905,13.322,1636.785856
01 Mar 2024 17:06:00.000,78.194,7.850,1999.983808,324.076,18.442,1381.693668,301.176,7.795,1999.997132,130.753,8.528,1939.278866
14 Mar 2024 13:03:00.000,90.556,41.200,812.646370,248.120,13.580,1616.023429,77.407,21.917,1242.631541,108.21,9.135,1901.129378
10 Mar 2024 11:30:00.000,257.806,22.184,1236.564175,178.902,17.469,1413.784402,327.518,18.592,1374.142594,304.725,12.903,1659.89177
08 Mar 2024 11:41:00.000,78.591,24.310,1167.622749,57.721,7.850,1999.990835,67.545,24.941,1141.381363,147.606,7.714,1999.981776
11 Mar 2024 13:06:00.000,286.215,7.892,1999.990684,305.433,27.980,1059.552206,237.991,9.389,1877.363003,167.452,7.715,1999.988688
19 Mar 2024 06:07:00.000,91.853,14.668,1561.734312,285.181,20.173,1309.348161,49.950,41.765,801.692643,32.87,26.313,1108.658028
21 Mar 2024 11:00:00.000,248.394,55.344,670.559089,285.425,12.954,1655.934132,28.624,19.613,1329.507237,215.848,34.563,913.171868
21 Mar 2024 04:20:00.000,105.966,8.217,1968.936637,256.163,7.749,1999.999788,71.894,23.913,1175.712005,240.894,63.353,621.901085
11 Mar 2024 13:12:00.000,59.187,34.193,926.215371,333.546,29.938,1013.941760,342.800,25.986,1113.802857,103.401,24.925,1145.967144
26 Mar 2024 05:47:00.000,71.177,8.532,1950.681765,68.126,7.831,1999.979208,77.878,21.707,1249.121988,299.526,12.855,1664.763655
12 Mar 2024 08:07:00.000,132.992,12.341,1689.562364,352.541,26.174,1111.451893,324.861,19.391,1339.299245,72.928,14.288,1583.138698
23 Mar 2024 09:12:00.000,300.025,35.636,899.587406,306.215,7.850,1999.982495,241.315,63.249,620.455299,220.891,13.647,1611.463337
08 Mar 2024 13:24:00.000,71.367,8.559,1949.243746,38.434,18.144,1395.415629,195.526,32.301,956.419879,241.077,22.915,1208.8412
26 Mar 2024 09:09:00.000,129.018,8.266,1963.556719,128.166,8.933,1908.403841,316.556,12.753,1667.878397,65.528,7.878,1999.978832
30 Mar 2024 05:36:00.000,87.387,8.522,1948.826661,5.212,31.210,984.890353,267.181,7.776,1999.987073,74.374,23.989,1175.642369
04 Mar 2024 16:48:00.000,290.075,7.885,1999.978987,252.395,7.783,1999.993163,1.676,35.653,896.074267,63.363,15.948,1497.567835
29 Mar 2024 02:17:00.000,77.797,7.844,1999.984966,236.121,13.600,1614.613542,329.685,22.268,1229.500143,166.678,12.296,1688.930468
22 Mar 2024 05:57:00.000,75.522,25.064,1143.765397,323.099,18.025,1399.960565,209.322,14.639,1552.103927,63.108,9.91,1852.094198
11 Mar 2024 16:28:00.000,270.092,7.851,1999.997993,165.232,42.699,789.249638,248.460,22.030,1236.521340,48.024,16.65,1464.959641
28 Mar 2024 05:41:00.000,73.420,13.955,1601.416842,57.211,7.861,1999.996628,251.741,13.490,1618.891549,5.521,40.328,825.224291
30 Mar 2024 00:28:00.000,159.532,10.121,1824.904879,125.233,8.438,1948.586777,126.586,9.052,1898.169424,329.923,29.765,1019.41038
22 Mar 2024 07:40:00.000,72.731,7.887,1999.986715,146.415,29.599,1016.005912,47.533,11.098,1770.010078,332.874,27.654,1071.20332
08 Mar 2024 18:22:00.000,213.482,11.206,1756.703957,198.674,7.655,1999.995658,61.758,42.284,794.063495,58.522,7.873,1999.978101
23 Mar 2024 04:12:00.000,143.558,24.832,1146.450488,115.077,25.484,1125.018367,98.256,23.433,1187.144379,301.71,12.904,1662.432276
21 Mar 2024 12:38:00.000,261.112,7.843,1999.980926,305.639,7.870,1999.985317,26.065,24.393,1162.017918,79.92,20.568,1294.147324
04 Mar 2024 16:56:00.000,92.146,15.115,1537.139347,308.221,18.233,1390.180940,178.868,7.671,1999.998097,185.053,28.944,1035.042737
18 Mar 2024 07:49:00.000,74.063,42.196,799.707355,275.518,13.147,1642.125801,178.806,27.737,1062.226522,153.832,13.419,1624.50811
17 Mar 2024 07:55:00.000,72.584,7.891,1999.989892,34.792,35.895,893.394528,327.513,18.470,1378.037040,300.742,7.891,1999.979936
22 Mar 2024 04:16:00.000,114.665,14.880,1547.351470,88.743,12.225,1696.574696,182.339,12.101,1693.691312,89.414,12.734,1669.36382
08 Mar 2024 16:39:00.000,277.061,21.646,1255.941194,278.307,20.579,1292.874312,312.267,13.335,1633.697870,294.024,62.927,624.066933
21 Mar 2024 12:43:00.000,190.735,10.977,1772.205095,195.458,15.277,1521.028611,50.496,8.247,1967.617177,296.04,19.684,1330.189205
06 Mar 2024 13:30:00.000,69.568,7.888,1999.997497,85.319,7.823,1999.998706,328.273,17.706,1411.650854,287.076,36.071,890.742815
17 Mar 2024 11:17:00.000,91.036,8.752,1932.948282,114.600,18.537,1373.654959,94.678,7.774,1999.985377,240.243,9.714,1855.80557
20 Mar 2024 07:45:00.000,66.840,15.387,1527.163415,52.749,14.613,1565.228128,219.292,12.393,1679.681444,334.987,35.833,895.97602
05 Mar 2024 11:45:00.000,196.851,12.494,1678.822471,77.005,7.837,1999.974484,180.184,16.684,1451.439136,180.512,57.616,653.363334
18 Mar 2024 07:50:00.000,71.863,25.500,1131.673398,306.211,7.870,1999.986311,46.821,17.210,1434.616731,283.527,13.372,1632.325064
03 Mar 2024 13:31:00.000,229.771,13.578,1618.137620,242.234,13.599,1615.080129,273.873,7.769,1999.999351,306.672,12.972,1655.885302
27 Mar 2024 05:42:00.000,50.366,34.101,927.231251,164.666,7.698,1999.987563,233.811,18.913,1354.828305,348.254,49.253,721.252676
17 Mar 2024 09:28:00.000,275.725,13.510,1626.275058,97.899,40.337,822.138759,3.149,22.687,1218.234662,57.711,10.371,1820.402882
06 Mar 2024 13:21:00.000,258.979,7.841,1999.990894,292.582,22.170,1234.745777,165.977,13.717,1600.132756,345.819,31.313,983.998163
03 Mar 2024 20:17:00.000,219.525,13.924,1595.303049,55.921,7.867,1999.983748,119.565,7.729,1999.981632,115.724,18.821,1363.258699
26 Mar 2024 02:20:00.000,170.315,10.909,1773.235701,283.703,7.810,1999.984317,89.841,12.539,1675.696657,126.041,15.468,1515.951856
28 Mar 2024 08:57:00.000,243.065,25.249,1136.155601,165.280,7.672,1999.987774,356.070,23.453,1192.481463,121.958,42.517,792.980766
04 Mar 2024 13:36:00.000,71.368,7.884,1999.979881,247.193,7.778,1999.972077,330.600,22.201,1234.689013,4.114,44.781,768.260352
21 Mar 2024 12:40:00.000,236.423,13.484,1623.950496,59.086,9.317,1892.284103,169.580,10.976,1764.840153,66.305,30.704,995.907126
17 Mar 2024 12:54:00.000,181.235,50.847,705.666970,322.841,17.965,1402.506133,196.838,21.021,1270.274568,56.611,15.052,1543.535056
24 Mar 2024 09:13:00.000,109.323,25.661,1124.933892,261.774,11.756,1725.598257,51.281,18.967,1355.715819,114.97,17.891,1400.158911
31 Mar 2024 00:28:00.000,114.066,14.391,1571.166848,1.298,44.948,764.770334,30.151,18.423,1380.002685,125.459,10.539,1798.504676
31 Mar 2024 07:07:00.000,261.437,32.154,964.241149,321.677,17.869,1407.376660,93.410,39.233,835.997136,104.562,8.894,1916.300953
13 Mar 2024 09:47:00.000,72.864,15.733,1509.611179,225.146,7.734,1999.984011,50.823,7.836,1999.989864,253.37,35.986,891.504688
28 Mar 2024 04:00:00.000,68.323,15.883,1500.307826,85.320,17.349,1424.576000,51.725,19.321,1342.617295,234.435,19.836,1321.002186
16 Mar 2024 11:18:00.000,75.061,22.590,1224.122538,106.152,7.783,1999.976744,54.481,25.336,1132.893630,176.509,7.681,1999.993401
10 Mar 2024 14:51:00.000,291.127,13.720,1616.102380,18.771,23.378,1195.781781,308.472,13.454,1624.951008,289.61,7.854,1999.977847
10 Mar 2024 11:37:00.000,69.660,7.897,1999.972011,34.632,18.877,1363.603781,195.818,31.716,967.408650,302.407,13.718,1615.624838
08 Mar 2024 16:38:00.000,282.457,13.647,1618.728056,56.456,8.220,1970.772645,313.558,17.433,1424.100102,39.812,21.98,1245.816776
09 Mar 2024 09:59:00.000,92.688,10.133,1835.498255,40.724,18.103,1395.875667,159.069,10.303,1811.751892,86.362,7.836,1999.980928
08 Mar 2024 09:58:00.000,142.317,15.203,1530.449355,49.846,11.379,1752.210035,308.801,7.838,1999.982832,301.817,7.869,1999.981528
12 Mar 2024 09:43:00.000,229.356,13.494,1622.788198,206.358,12.920,1646.832087,91.154,12.813,1657.470202,297.607,7.881,1999.981547
16 Mar 2024 13:01:00.000,119.663,7.800,1999.976949,87.997,12.624,1673.415366,54.243,11.413,1747.189570,252.101,7.811,1999.993345
10 Mar 2024 16:37:00.000,173.047,19.954,1314.492367,258.360,21.885,1244.152773,135.608,41.112,807.980636,356.63,41.312,811.284079
19 Mar 2024 12:45:00.000,259.299,18.832,1364.957413,76.157,18.315,1384.555342,313.103,17.550,1418.255143,84.978,38.024,856.081806
31 Mar 2024 07:11:00.000,143.751,21.038,1274.118345,133.275,7.711,1999.987785,49.361,8.812,1926.749536,264.043,35.223,905.149617
16 Mar 2024 11:11:00.000,287.504,7.893,1999.975765,28.414,25.048,1144.055460,59.921,25.548,1126.402013,178.348,7.734,1999.984524
18 Mar 2024 11:05:00.000,290.350,7.897,1999.987939,59.673,25.724,1123.186021,348.895,25.525,1126.793778,87.049,7.845,1999.973458
14 Mar 2024 09:36:00.000,250.537,7.820,1999.999960,190.680,44.466,766.835166,223.348,9.653,1855.743858,220.642,7.762,1999.979665
29 Mar 2024 03:58:00.000,69.667,7.868,1999.980718,69.220,7.837,1999.976484,288.585,13.423,1625.384038,47.233,21.497,1262.899876
29 Mar 2024 05:30:00.000,285.886,7.852,1999.988925,325.347,23.941,1177.696858,295.767,19.040,1353.250837,225.102,21.831,1244.180037
27 Mar 2024 09:03:00.000,163.171,27.984,1059.508520,63.377,7.837,1999.980208,238.315,22.114,1230.552298,84.723,21.669,1253.843785
11 Mar 2024 13:14:00.000,78.585,14.211,1587.927676,328.244,36.945,875.462233,267.903,7.771,1999.978510,58.926,15.639,1511.900239
03 Mar 2024 17:01:00.000,88.668,7.832,1999.983701,289.511,12.861,1661.002622,156.760,9.157,1890.577382,28.895,30.653,997.554037
08 Mar 2024 11:35:00.000,235.330,13.652,1614.691779,3.574,35.668,897.157209,110.066,25.221,1133.530178,277.224,7.845,1999.989841
22 Mar 2024 09:21:00.000,94.228,8.923,1919.984889,306.174,7.870,1999.982527,5.324,22.942,1208.163486,302.263,36.219,888.570227
12 Mar 2024 14:47:00.000,272.764,35.028,909.711956,349.594,26.924,1089.670720,337.072,30.907,989.879090,232.093,40.883,814.66503
19 Mar 2024 07:43:00.000,260.825,36.025,891.418419,227.908,13.540,1613.569696,195.171,7.632,1999.993546,82.675,20.338,1304.410138
31 Mar 2024 07:08:00.000,232.370,44.898,764.849976,279.315,7.829,2000.000010,53.976,11.465,1745.615075,347.932,49.677,716.625408
16 Mar 2024 09:38:00.000,66.745,15.106,1541.986054,31.250,20.595,1295.403060,89.070,21.577,1252.427354,329.807,38.32,854.349466
26 Mar 2024 04:00:00.000,230.610,21.875,1243.169206,193.140,12.436,1679.272636,58.237,7.831,1999.999921,264.55,7.78,1999.992553
10 Mar 2024 09:53:00.000,124.034,27.705,1068.441089,338.308,31.657,975.508332,144.513,28.429,1045.112804,9.023,34.29,924.226607
17 Mar 2024 06:12:00.000,110.830,11.678,1731.740823,105.144,8.739,1927.897599,179.681,7.647,1999.988617,270.199,33.322,940.876806
30 Mar 2024 08:49:00.000,261.811,7.826,1999.993704,153.528,9.907,1841.309568,130.575,7.712,1999.975405,63.843,7.868,1999.982432
30 Mar 2024 03:46:00.000,268.757,7.810,1999.975923,119.687,28.088,1055.588733,98.331,11.602,1729.061451,281.797,20.733,1289.217819
21 Mar 2024 07:37:00.000,287.185,33.929,930.336044,230.731,38.145,853.125945,36.515,28.969,1034.245932,109.098,42.115,797.819169
23 Mar 2024 07:31:00.000,302.546,32.428,960.605154,268.697,19.652,1328.844036,296.135,13.642,1613.621154,269.268,33.147,944.336002
15 Mar 2024 09:35:00.000,263.066,21.992,1243.382244,308.231,12.506,1684.507754,150.064,32.651,947.443049,217.182,34.898,908.540473
16 Mar 2024 07:50:00.000,223.021,13.427,1625.358069,57.243,15.728,1507.280620,279.290,12.923,1652.760954,163.463,22.759,1210.644529
18 Mar 2024 11:14:00.000,98.471,7.844,1999.977908,295.135,7.809,1999.976982,42.240,16.255,1480.063726,67.709,8.856,1926.844762
07 Mar 2024 16:49:00.000,120.334,9.026,1907.032028,28.303,27.594,1071.518782,188.997,7.663,1999.993511,52.477,58.003,652.27215
26 Mar 2024 02:22:00.000,140.562,14.615,1557.891221,137.212,10.531,1796.523728,62.607,7.815,1999.993149,91.8,13.84,1603.159931
15 Mar 2024 14:41:00.000,192.388,21.652,1251.710535,318.605,34.587,916.449295,87.395,13.979,1594.499549,267.037,59.734,640.563391
11 Mar 2024 09:52:00.000,88.128,19.342,1345.025724,58.804,8.079,1982.635071,55.021,25.349,1131.447538,264.35,13.531,1622.465224
03 Mar 2024 15:12:00.000,277.810,21.555,1259.643710,158.140,8.328,1953.241291,79.918,8.271,1959.992751,287.111,7.862,1999.990679
26 Mar 2024 09:08:00.000,132.105,14.220,1582.250284,286.246,13.476,1624.018427,112.419,16.265,1474.506625,64.104,9.383,1885.783012
07 Mar 2024 18:28:00.000,172.607,7.712,1999.992308,69.453,7.811,1999.999840,173.639,24.107,1163.624227,213.235,19.731,1321.657527
16 Mar 2024 09:35:00.000,16.873,57.198,658.803654,265.862,7.802,1999.988837,56.299,8.992,1913.409588,316.561,34.478,919.073796
16 Mar 2024 12:59:00.000,124.187,24.895,1146.892955,180.268,15.575,1507.277912,213.397,18.448,1370.744378,95.959,14.52,1568.266959
30 Mar 2024 02:06:00.000,228.059,13.408,1623.661304,119.307,7.759,1999.992109,214.595,19.768,1318.377715,31.568,32.798,952.801712
15 Mar 2024 12:55:00.000,289.836,7.898,1999.978685,80.989,20.647,1290.974273,186.152,18.550,1368.669523,39.575,22.001,1244.266033
12 Mar 2024 09:47:00.000,126.055,53.275,686.030185,309.155,13.391,1632.728405,47.872,10.174,1831.246720,195,17.59,1412.8935
19 Mar 2024 07:46:00.000,61.291,42.073,801.548314,291.632,30.673,994.342463,47.768,10.327,1818.427369,298.586,53.344,685.05327
25 Mar 2024 10:47:00.000,243.216,15.137,1535.248490,111.301,42.225,795.981578,142.792,11.524,1729.623043,195.142,22.161,1232.839789
20 Mar 2024 11:06:00.000,116.635,25.476,1130.150319,67.860,7.851,1999.983079,53.551,11.372,1750.206465,88.109,15.299,1528.729974
09 Mar 2024 09:55:00.000,158.915,20.520,1294.325800,50.156,12.874,1661.514556,328.073,17.435,1422.906120,71.476,18.293,1388.658073
08 Mar 2024 11:39:00.000,120.381,61.392,632.789496,284.735,20.223,1307.508790,284.877,56.848,656.248726,67.452,10.115,1837.736495
24 Mar 2024 09:14:00.000,109.822,15.905,1497.297213,30.780,25.878,1118.648641,50.655,7.842,1999.977263,141.917,25.849,1117.4113
29 Mar 2024 08:52:00.000,270.935,7.844,1999.998851,231.872,11.661,1727.246150,54.560,7.819,1999.981761,209.241,13.135,1640.903516
10 Mar 2024 14:59:00.000,106.457,9.371,1885.140708,70.482,9.164,1901.859516,358.637,44.688,766.638760,192.117,39.337,834.854466
07 Mar 2024 11:44:00.000,85.301,21.376,1266.427011,185.120,54.574,673.058017,341.158,26.951,1086.779557,299.382,7.863,1999.982498
09 Mar 2024 13:16:00.000,328.450,46.702,747.610040,1.623,25.327,1134.725696,299.626,7.829,1999.978874,64.182,16.586,1465.102144
27 Mar 2024 07:16:00.000,290.323,7.873,1999.990572,194.256,31.333,978.008707,108.210,12.103,1700.348694,192.616,10.428,1807.086902
04 Mar 2024 11:47:00.000,190.826,7.752,1999.978827,146.429,7.690,1999.994332,9.809,25.022,1140.944080,301.639,7.879,1999.97581
21 Mar 2024 04:16:00.000,160.829,10.252,1818.195246,157.308,7.711,1999.990163,51.780,7.805,1999.998854,121.833,51.113,703.154349
03 Mar 2024 18:37:00.000,174.807,57.584,653.708759,77.164,11.486,1744.905717,204.557,20.670,1284.242136,299.593,22.232,1235.761055
05 Mar 2024 18:34:00.000,149.003,10.244,1818.799178,309.960,12.547,1681.834903,26.959,71.402,586.537270,286.21,57.284,656.943649
25 Mar 2024 05:43:00.000,272.524,21.812,1248.764453,59.420,7.862,1999.984294,38.541,31.924,966.318065,315.213,20.387,1304.522944
07 Mar 2024 16:49:00.000,120.070,7.776,1999.976560,332.597,23.052,1207.556262,85.083,7.780,1999.990189,75.401,19.406,1341.06629
16 Mar 2024 11:20:00.000,85.010,8.434,1957.300194,147.263,30.235,1002.861175,234.494,19.296,1338.224359,63.878,7.87,1999.974566
05 Mar 2024 13:25:00.000,251.371,13.667,1615.286893,41.984,18.899,1362.051557,44.540,16.680,1459.707341,307.399,19.109,1355.499276
30 Mar 2024 03:52:00.000,49.784,36.908,876.650284,2.503,52.819,687.831199,40.340,39.417,835.146068,281.993,33.06,946.707522
08 Mar 2024 10:01:00.000,99.816,8.731,1933.534639,31.210,32.623,955.483031,180.636,15.875,1488.307615,227.446,8.499,1944.037908
31 Mar 2024 03:46:00.000,295.572,32.901,949.244275,346.015,28.301,1054.281959,180.525,16.276,1470.444777,113.381,9.397,1880.238261
04 Mar 2024 18:37:00.000,138.959,12.958,1650.054045,111.816,7.742,1999.979757,63.532,13.387,1627.889250,210.447,16.813,1449.61731
08 Mar 2024 18:24:00.000,190.584,7.717,1999.985226,62.967,64.373,616.360504,79.619,8.815,1923.885538,270.113,12.521,1681.38246
12 Mar 2024 14:51:00.000,131.656,23.718,1182.666955,215.100,21.363,1256.910795,101.556,14.499,1562.335076,295.957,30.726,996.447269
14 Mar 2024 14:40:00.000,264.144,19.637,1332.071250,122.242,7.726,1999.981156,8.521,25.352,1132.855051,305.284,13.512,1627.474706
17 Mar 2024 09:31:00.000,319.969,49.228,722.141825,193.787,11.252,1749.237502,64.930,26.956,1085.164175,6.736,56.885,659.734581
01 Mar 2024 17:00:00.000,305.530,32.533,958.247363,327.829,37.217,871.270657,274.848,12.746,1664.103372,270.558,21.39,1264.370121
05 Mar 2024 13:27:00.000,253.578,36.209,888.466698,348.899,27.213,1080.706347,358.444,22.985,1207.311758,333.227,27.118,1085.709488
09 Mar 2024 14:56:00.000,302.820,35.309,905.528798,196.068,24.262,1161.229515,224.376,35.496,893.862497,61.897,9.401,1888.159938
08 Mar 2024 16:45:00.000,133.221,13.988,1593.385327,60.622,7.830,1999.999786,7.707,24.284,1164.657904,35.591,37.968,860.010029
28 Mar 2024 02:17:00.000,123.394,26.596,1095.538351,196.030,19.266,1338.433293,316.033,12.374,1687.914898,4.477,50.792,706.242902
06 Mar 2024 16:47:00.000,291.105,63.453,621.943074,290.049,55.555,667.195766,19.529,20.780,1285.816935,122.664,34.435,918.481209
08 Mar 2024 13:20:00.000,16.970,51.036,705.812607,303.322,12.541,1680.991813,85.547,16.201,1476.965279,218.264,35.195,904.36872
16 Mar 2024 06:12:00.000,161.354,7.738,2000.000019,236.707,7.761,1999.991757,306.226,27.244,1079.092212,301.693,36.333,885.537752
14 Mar 2024 11:25:00.000,71.767,14.076,1596.348565,87.156,15.081,1537.539750,317.737,24.745,1150.952060,207.117,20.641,1285.24974
08 Mar 2024 16:43:00.000,150.618,34.490,916.946073,340.394,23.308,1198.359146,50.768,7.835,1999.990364,119.196,15.845,1498.200948
14 Mar 2024 09:45:00.000,70.018,7.899,1999.975581,159.587,33.290,937.731371,303.048,13.617,1616.967517,83.45,12.453,1683.830177
22 Mar 2024 10:58:00.000,185.587,43.914,776.753235,232.809,11.890,1714.347318,282.816,21.263,1264.517796,307.146,13.073,1652.808384
27 Mar 2024 05:39:00.000,299.392,32.582,956.598958,336.430,28.386,1051.189510,0.092,46.507,744.915695,317.265,26.891,1092.424154
15 Mar 2024 13:03:00.000,110.390,15.836,1500.554036,45.002,13.942,1600.072816,248.324,25.455,1125.815241,240.903,9.829,1849.793721
17 Mar 2024 11:16:00.000,87.851,14.859,1552.800483,192.303,56.075,661.603294,297.120,7.803,1999.991294,91.567,7.812,1999.991661
14 Mar 2024 07:59:00.000,167.013,23.019,1204.777722,302.708,13.707,1613.195467,181.602,58.734,644.181898,234.407,22.162,1234.794874
04 Mar 2024 16:51:00.000,305.262,34.771,914.814702,34.176,29.265,1030.027734,172.534,24.991,1138.340978,55.678,42.152,798.336101
23 Mar 2024 05:47:00.000,250.093,7.793,1999.981185,46.794,13.376,1633.942213,68.079,14.973,1542.881382,31.042,32.697,955.305527
09 Mar 2024 13:17:00.000,19.384,47.890,735.375929,132.453,8.598,1935.517966,164.520,14.531,1558.637635,118.592,25.666,1123.008164
31 Mar 2024 02:11:00.000,71.665,7.852,1999.999892,257.114,7.794,1999.982437,285.411,13.358,1629.232851,55.064,11.261,1762.758264
04 Mar 2024 18:38:00.000,135.176,7.741,1999.978668,216.265,22.165,1231.541101,284.943,13.287,1634.397824,65.731,7.876,1999.98231
03 Mar 2024 18:41:00.000,125.020,7.756,1999.980766,305.565,7.851,1999.999825,50.457,52.267,691.637464,178.209,17.648,1410.920039
12 Mar 2024 09:46:00.000,187.004,51.101,703.574359,1.735,25.422,1132.980685,264.699,11.954,1710.151297,61.008,9.97,1848.577634
29 Mar 2024 02:10:00.000,207.588,20.392,1295.969820,208.288,14.089,1584.887922,239.960,22.171,1231.309872,238.158,7.75,1999.994477
02 Mar 2024 13:42:00.000,77.203,7.872,1999.990701,55.794,7.853,1999.983747,316.820,12.583,1675.342401,71.582,32.938,948.891824
07 Mar 2024 15:03:00.000,336.782,48.352,730.467382,62.883,8.151,1977.536205,66.241,25.236,1135.396723,57.431,10.439,1816.346642
09 Mar 2024 15:02:00.000,98.402,9.091,1906.133920,87.024,15.354,1524.126199,172.444,8.056,1967.859656,104.341,68.171,599.834362
07 Mar 2024 10:03:00.000,123.214,9.460,1878.191970,28.342,27.120,1084.508775,304.865,22.184,1233.978704,127.503,16.655,1456.636006
30 Mar 2024 07:13:00.000,139.430,38.720,846.345246,330.143,31.352,981.398314,239.214,36.129,885.331734,32.566,28.314,1053.016737
15 Mar 2024 11:22:00.000,75.936,14.104,1594.451453,53.670,7.845,1999.982180,349.458,25.417,1131.352606,295.667,22.267,1234.507724
04 Mar 2024 20:14:00.000,217.148,8.926,1910.909166,56.326,8.608,1942.266828,67.730,14.973,1543.016468,175.684,11.451,1738.324902
27 Mar 2024 02:17:00.000,174.649,16.416,1465.872232,303.842,7.867,1999.990689,47.853,12.052,1707.485567,264.168,19.005,1356.755302
10 Mar 2024 16:33:00.000,258.955,18.657,1371.521344,340.864,25.266,1137.564526,71.470,7.789,1999.990302,300.819,7.876,1999.979615
29 Mar 2024 08:59:00.000,167.116,9.658,1860.014313,203.822,10.586,1795.195533,269.836,13.215,1637.233497,121.351,13.223,1636.814264
29 Mar 2024 03:50:00.000,263.886,13.618,1616.005903,338.920,22.933,1211.404454,119.559,9.032,1903.606607,236.469,7.766,1999.991039
10 Mar 2024 11:33:00.000,34.111,70.717,593.218228,342.182,29.787,1017.915102,175.460,17.066,1432.703380,293.479,12.907,1659.980159
26 Mar 2024 05:44:00.000,49.535,35.487,901.808216,79.925,7.808,1999.997222,272.685,7.778,1999.999683,276.617,34.713,912.940213
22 Mar 2024 12:38:00.000,219.544,9.463,1875.823660,112.282,62.532,625.210994,18.990,69.149,595.764270,359.359,32.519,958.915592
06 Mar 2024 11:46:00.000,103.078,25.114,1141.644140,325.238,32.965,948.117800,51.921,7.836,1999.982302,255.962,21.911,1242.872228
11 Mar 2024 14:56:00.000,115.413,9.235,1893.644187,156.516,7.713,1999.990509,326.610,60.035,638.101563,112.42,8.929,1911.578261
09 Mar 2024 13:13:00.000,281.918,13.479,1629.091346,68.679,42.142,798.565444,158.180,8.583,1929.026444,332.144,25.975,1118.106442
12 Mar 2024 13:10:00.000,78.685,23.033,1208.641306,312.591,13.030,1653.404745,88.714,8.359,1956.453051,120.507,12.785,1660.035218
20 Mar 2024 09:19:00.000,289.796,13.586,1623.267387,297.342,13.746,1611.794739,126.108,9.068,1899.009498,73.323,10.783,1790.536583
01 Mar 2024 20:20:00.000,269.560,12.742,1667.634301,199.219,20.077,1308.342732,316.584,12.473,1684.584525,54.702,25.173,1140.507609
10 Mar 2024 11:28:00.000,254.870,7.835,1999.979343,34.556,18.907,1362.888972,129.953,9.232,1884.812831,119.049,9.32,1886.710856
20 Mar 2024 12:44:00.000,211.373,20.445,1297.290583,31.372,32.970,947.639610,99.461,20.332,1299.757037,192.317,10.02,1833.518221
14 Mar 2024 14:44:00.000,169.102,23.697,1182.321207,27.137,23.828,1181.058304,233.868,7.722,1999.988113,276.814,21.032,1277.535189
28 Mar 2024 09:00:00.000,172.400,20.738,1285.119617,192.440,12.454,1677.783715,94.664,22.801,1210.845369,32.547,27.799,1067.749172
27 Mar 2024 07:19:00.000,303.352,35.102,908.658815,268.172,19.459,1336.319733,55.388,7.822,1999.984110,233.689,22.129,1234.970993
15 Mar 2024 11:23:00.000,79.906,8.282,1969.347685,28.544,24.430,1161.658927,340.694,27.420,1073.568808,147.187,29.493,1019.429551
17 Mar 2024 09:36:00.000,71.250,8.615,1945.779768,151.584,7.680,1999.977565,78.648,10.086,1833.844643,324.953,40.808,818.290559
13 Mar 2024 13:03:00.000,305.346,34.648,917.978834,151.191,36.737,876.160348,316.673,12.511,1682.000410,304.957,12.909,1662.399198
20 Mar 2024 06:05:00.000,81.271,12.283,1697.918757,102.810,14.875,1547.166047,88.681,8.549,1942.214968,292.468,7.859,1999.999498
