aer_data/CR_AER.csv

Time (UTCG),Azimuth (deg),Elevation (deg),Range (km)
1 Mar 2024 16:57:39.036,282.881,7.870,1999.976226
1 Mar 2024 16:58:39.000,286.755,13.548,1624.434843
1 Mar 2024 16:59:39.000,293.142,21.313,1268.829843
1 Mar 2024 17:00:39.000,305.530,32.533,958.247363
1 Mar 2024 17:01:39.000,334.376,46.163,752.593341
1 Mar 2024 17:02:39.000,23.996,46.818,745.499684
1 Mar 2024 17:03:39.000,54.407,33.351,941.488055
1 Mar 2024 17:04:39.000,67.399,21.876,1247.804683
1 Mar 2024 17:05:39.000,74.017,13.939,1601.575040
1 Mar 2024 17:06:39.000,77.999,8.159,1976.512002
1 Mar 2024 17:06:42.692,78.194,7.850,1999.983808
1 Mar 2024 18:38:29.371,290.218,7.874,1999.974017
1 Mar 2024 18:39:29.000,291.068,13.762,1612.154159
1 Mar 2024 18:40:29.000,292.422,22.258,1234.317756
1 Mar 2024 18:41:29.000,295.182,36.269,887.356214
1 Mar 2024 18:42:29.000,305.557,62.311,627.340095
1 Mar 2024 18:43:29.000,79.664,72.514,586.175949
1 Mar 2024 18:44:29.000,100.578,42.127,798.618897
1 Mar 2024 18:45:29.000,104.245,25.459,1129.177093
1 Mar 2024 18:46:29.000,105.837,15.788,1500.977679
1 Mar 2024 18:47:29.000,106.775,9.291,1888.842146
1 Mar 2024 18:47:45.965,106.980,7.786,1999.978643
1 Mar 2024 20:19:27.573,276.635,7.839,1999.990553
1 Mar 2024 20:20:27.000,269.560,12.742,1667.634301
1 Mar 2024 20:21:27.000,258.571,18.560,1373.968596
1 Mar 2024 20:22:27.000,241.340,24.524,1156.336113
1 Mar 2024 20:23:27.000,217.067,27.774,1063.506658
1 Mar 2024 20:24:27.000,191.918,25.438,1127.071686
1 Mar 2024 20:25:27.000,173.253,19.662,1324.453384
1 Mar 2024 20:26:27.000,161.252,13.694,1606.446819
1 Mar 2024 20:27:27.000,153.507,8.568,1935.557588
1 Mar 2024 20:27:38.147,152.380,7.711,1999.990774
2 Mar 2024 11:57:08.250,143.929,7.770,1999.999271
2 Mar 2024 11:58:08.000,131.397,7.949,1987.515968
2 Mar 2024 11:58:25.793,127.691,7.792,1999.996610
2 Mar 2024 13:33:17.584,222.097,7.778,1999.980865
2 Mar 2024 13:34:17.000,217.533,13.278,1634.069162
2 Mar 2024 13:35:17.000,209.874,20.641,1289.727690
2 Mar 2024 13:36:17.000,195.504,30.506,999.139000
2 Mar 2024 13:37:17.000,166.837,40.332,823.099194
2 Mar 2024 13:38:17.000,127.195,39.330,838.057548
2 Mar 2024 13:39:17.000,101.024,29.021,1035.740994
2 Mar 2024 13:40:17.000,87.991,19.524,1336.909983
2 Mar 2024 13:41:17.000,80.939,12.479,1686.201675
2 Mar 2024 13:42:07.752,77.203,7.872,1999.990701
2 Mar 2024 15:13:42.116,262.858,7.842,1999.991503
2 Mar 2024 15:14:42.000,265.111,13.691,1614.839356
2 Mar 2024 15:15:42.000,268.878,21.981,1243.776780
2 Mar 2024 15:16:42.000,276.673,35.106,908.218858
2 Mar 2024 15:17:42.000,301.091,55.973,666.404946
2 Mar 2024 15:18:42.000,18.883,60.639,637.261422
2 Mar 2024 15:19:42.000,52.867,39.087,843.186427
2 Mar 2024 15:20:42.000,62.469,24.386,1165.091177
2 Mar 2024 15:21:42.000,66.807,15.299,1530.674890
2 Mar 2024 15:22:42.000,69.318,9.030,1914.073763
2 Mar 2024 15:22:55.249,69.742,7.876,2000.000015
2 Mar 2024 16:54:46.987,286.324,7.877,1999.989321
2 Mar 2024 16:55:46.000,289.950,13.475,1628.958465
2 Mar 2024 16:56:46.000,296.005,21.264,1270.816747
2 Mar 2024 16:57:46.000,307.816,32.655,955.852803
2 Mar 2024 16:58:46.000,336.138,47.052,743.160068
2 Mar 2024 16:59:46.000,27.890,48.379,729.587178
2 Mar 2024 17:00:46.000,59.354,34.251,924.006661
2 Mar 2024 17:01:46.000,72.296,22.344,1231.075539
2 Mar 2024 17:02:46.000,78.772,14.217,1585.891419
2 Mar 2024 17:03:46.000,82.636,8.347,1961.753480
2 Mar 2024 17:03:51.997,82.939,7.842,1999.983483
2 Mar 2024 18:35:33.375,289.078,7.872,1999.970957
2 Mar 2024 18:36:33.000,288.516,13.766,1611.739233
2 Mar 2024 18:37:33.000,287.405,22.273,1233.549386
2 Mar 2024 18:38:33.000,284.769,36.305,886.459642
2 Mar 2024 18:39:33.000,273.888,62.326,627.000929
2 Mar 2024 18:40:33.000,142.820,71.964,587.526461
2 Mar 2024 18:41:33.000,121.439,41.880,801.381222
2 Mar 2024 18:42:33.000,117.851,25.314,1132.735533
2 Mar 2024 18:43:33.000,116.460,15.686,1505.114279
2 Mar 2024 18:44:33.000,115.762,9.210,1893.477574
2 Mar 2024 18:44:49.239,115.633,7.771,1999.977756
2 Mar 2024 20:16:48.841,269.803,7.826,1999.992163
2 Mar 2024 20:17:48.000,260.752,11.955,1714.013837
2 Mar 2024 20:18:48.000,247.862,16.154,1482.513200
2 Mar 2024 20:19:48.000,230.633,19.283,1341.714885
2 Mar 2024 20:20:48.000,210.787,19.758,1321.474678
2 Mar 2024 20:21:48.000,192.404,17.261,1426.939368
2 Mar 2024 20:22:48.000,178.155,13.208,1633.534014
2 Mar 2024 20:23:48.000,167.937,8.938,1907.987996
2 Mar 2024 20:24:06.110,165.480,7.703,1999.988549
3 Mar 2024 11:51:57.182,174.063,7.750,1999.992690
3 Mar 2024 11:52:57.000,162.564,10.447,1807.455197
3 Mar 2024 11:53:57.000,148.690,12.252,1693.896372
3 Mar 2024 11:54:57.000,133.585,12.555,1676.838123
3 Mar 2024 11:55:57.000,119.114,11.238,1759.243749
3 Mar 2024 11:56:57.000,106.739,8.786,1928.191369
3 Mar 2024 11:57:16.946,103.187,7.833,1999.988213
3 Mar 2024 13:30:08.304,232.469,7.793,1999.991431
3 Mar 2024 13:31:08.000,229.771,13.578,1618.137620
3 Mar 2024 13:32:08.000,225.053,21.703,1251.378475
3 Mar 2024 13:33:08.000,215.174,34.141,924.512115
3 Mar 2024 13:34:08.000,187.437,51.709,698.200939
3 Mar 2024 13:35:08.000,125.207,53.711,682.398417
3 Mar 2024 13:36:08.000,93.027,36.220,888.449886
3 Mar 2024 13:37:08.000,81.969,23.064,1207.158785
3 Mar 2024 13:38:08.000,76.869,14.531,1570.577127
3 Mar 2024 13:39:08.000,74.012,8.502,1952.901798
3 Mar 2024 13:39:15.279,73.751,7.879,1999.995892
3 Mar 2024 15:10:50.930,269.728,7.856,1999.985044
3 Mar 2024 15:11:50.000,272.741,13.537,1624.310664
3 Mar 2024 15:12:50.000,277.810,21.555,1259.643710
3 Mar 2024 15:13:50.000,287.981,33.734,934.294960
3 Mar 2024 15:14:50.000,315.275,50.848,706.908556
3 Mar 2024 15:15:50.000,16.069,53.566,684.497102
3 Mar 2024 15:16:50.000,49.521,36.602,882.849747
3 Mar 2024 15:17:50.000,61.418,23.413,1196.298695
3 Mar 2024 15:18:50.000,67.085,14.812,1555.986539
3 Mar 2024 15:19:50.000,70.410,8.737,1935.315620
3 Mar 2024 15:20:00.063,70.841,7.875,1999.987310
3 Mar 2024 16:51:53.377,288.717,7.882,1999.999868
3 Mar 2024 16:52:53.000,291.937,13.602,1621.993035
3 Mar 2024 16:53:53.000,297.301,21.586,1259.173219
3 Mar 2024 16:54:53.000,308.005,33.608,936.886982
3 Mar 2024 16:55:53.000,335.947,49.992,714.403529
3 Mar 2024 16:56:53.000,34.208,52.043,696.299450
3 Mar 2024 16:57:53.000,66.873,35.830,895.143388
3 Mar 2024 16:58:53.000,78.987,23.019,1207.701693
3 Mar 2024 16:59:53.000,84.841,14.566,1566.566077
3 Mar 2024 17:00:53.000,88.288,8.558,1945.312890
3 Mar 2024 17:01:01.519,88.668,7.832,1999.983701
3 Mar 2024 18:32:38.061,286.953,7.869,1999.975664
3 Mar 2024 18:33:38.000,284.725,13.715,1614.250481
3 Mar 2024 18:34:38.000,280.770,21.970,1243.798892
3 Mar 2024 18:35:38.000,272.255,34.910,910.696038
3 Mar 2024 18:36:38.000,246.012,54.577,675.009426
3 Mar 2024 18:37:38.000,174.807,57.584,653.708759
3 Mar 2024 18:38:38.000,142.119,37.604,862.893723
3 Mar 2024 18:39:38.000,132.195,23.573,1185.817703
3 Mar 2024 18:40:38.000,127.770,14.746,1552.255416
3 Mar 2024 18:41:38.000,125.317,8.597,1936.664820
3 Mar 2024 18:41:47.740,125.020,7.756,1999.980766
3 Mar 2024 20:14:24.490,260.092,7.807,1999.996430
3 Mar 2024 20:15:24.000,249.088,10.838,1783.328226
3 Mar 2024 20:16:24.000,235.246,13.140,1640.730108
3 Mar 2024 20:17:24.000,219.525,13.924,1595.303049
3 Mar 2024 20:18:24.000,203.965,12.846,1655.159647
3 Mar 2024 20:19:24.000,190.488,10.360,1809.590804
3 Mar 2024 20:20:15.277,181.172,7.701,1999.989343
4 Mar 2024 11:47:59.235,190.826,7.752,1999.978827
4 Mar 2024 11:48:59.000,181.154,11.695,1726.992545
4 Mar 2024 11:49:59.000,167.889,15.461,1516.187391
4 Mar 2024 11:50:59.000,150.899,17.971,1398.743689
4 Mar 2024 11:51:59.000,132.166,17.988,1398.950181
4 Mar 2024 11:52:59.000,115.181,15.508,1516.828861
4 Mar 2024 11:53:59.000,101.931,11.762,1728.136610
4 Mar 2024 11:54:58.413,92.333,7.854,1999.986852
4 Mar 2024 13:27:05.254,242.046,7.810,1999.973947
4 Mar 2024 13:28:05.000,241.055,13.714,1611.581644
4 Mar 2024 13:29:05.000,239.230,22.202,1234.577596
4 Mar 2024 13:30:05.000,235.084,36.100,889.770315
4 Mar 2024 13:31:05.000,219.068,61.023,634.471232
4 Mar 2024 13:32:05.000,108.199,69.003,598.541939
4 Mar 2024 13:33:05.000,80.304,41.276,811.734723
4 Mar 2024 13:34:05.000,74.864,25.153,1141.630168
4 Mar 2024 13:35:05.000,72.687,15.653,1512.917667
4 Mar 2024 13:36:05.000,71.565,9.226,1900.481517
4 Mar 2024 13:36:20.200,71.368,7.884,1999.979881
4 Mar 2024 15:08:00.242,275.697,7.867,1999.980269
4 Mar 2024 15:09:00.000,279.284,13.562,1623.650095
4 Mar 2024 15:10:00.000,285.238,21.426,1264.836065
4 Mar 2024 15:11:00.000,296.935,32.998,949.108189
4 Mar 2024 15:12:00.000,325.498,47.769,736.141088
4 Mar 2024 15:13:00.000,18.460,48.987,724.195115
4 Mar 2024 15:14:00.000,49.881,34.448,921.142332
4 Mar 2024 15:15:00.000,62.577,22.414,1229.941416
4 Mar 2024 15:16:00.000,68.903,14.252,1585.757583
4 Mar 2024 15:17:00.000,72.676,8.371,1962.199358
4 Mar 2024 15:17:05.921,72.969,7.872,1999.982072
4 Mar 2024 16:48:58.275,290.075,7.885,1999.978987
4 Mar 2024 16:49:58.000,292.568,13.691,1617.083707
4 Mar 2024 16:50:58.000,296.729,21.905,1247.737426
4 Mar 2024 16:51:58.000,305.262,34.771,914.814702
4 Mar 2024 16:52:58.000,330.823,54.541,676.702339
4 Mar 2024 16:53:58.000,42.985,58.541,649.231077
4 Mar 2024 16:54:58.000,77.081,38.368,853.116898
4 Mar 2024 16:55:58.000,87.417,24.075,1172.911903
4 Mar 2024 16:56:58.000,92.146,15.115,1537.139347
4 Mar 2024 16:57:58.000,94.882,8.895,1919.706537
4 Mar 2024 16:58:10.398,95.314,7.820,1999.978158
4 Mar 2024 18:29:44.600,283.786,7.864,1999.996807
4 Mar 2024 18:30:44.000,279.743,13.437,1629.452958
4 Mar 2024 18:31:44.000,272.840,21.020,1277.814816
4 Mar 2024 18:32:44.000,259.439,31.592,975.870038
4 Mar 2024 18:33:44.000,230.365,43.168,785.057160
4 Mar 2024 18:34:44.000,186.323,42.626,791.258282
4 Mar 2024 18:35:44.000,158.497,30.812,990.748566
4 Mar 2024 18:36:44.000,145.652,20.407,1296.676939
4 Mar 2024 18:37:44.000,138.959,12.958,1650.054045
4 Mar 2024 18:38:40.033,135.176,7.741,1999.978668
4 Mar 2024 20:12:39.317,242.783,7.773,1999.993288
4 Mar 2024 20:13:39.000,230.319,8.923,1912.595013
4 Mar 2024 20:14:39.000,217.148,8.926,1910.909166
4 Mar 2024 20:15:39.000,204.578,7.771,1995.741816
4 Mar 2024 20:15:41.018,204.178,7.715,1999.997646
5 Mar 2024 11:44:22.766,204.434,7.761,1999.987924
5 Mar 2024 11:45:22.000,196.851,12.494,1678.822471
5 Mar 2024 11:46:22.000,185.316,17.948,1399.193366
5 Mar 2024 11:47:22.000,167.958,23.189,1199.509221
5 Mar 2024 11:48:22.000,144.845,25.643,1124.223804
5 Mar 2024 11:49:22.000,121.667,23.302,1197.387947
5 Mar 2024 11:50:22.000,104.205,18.109,1395.656374
5 Mar 2024 11:51:22.000,92.604,12.663,1674.614117
5 Mar 2024 11:52:21.999,84.919,7.868,1999.971545
5 Mar 2024 13:24:06.931,250.885,7.826,1999.984018
5 Mar 2024 13:25:06.000,251.371,13.667,1615.286893
5 Mar 2024 13:26:06.000,252.118,22.165,1236.693569
5 Mar 2024 13:27:06.000,253.578,36.209,888.466698
5 Mar 2024 13:28:06.000,258.946,62.696,625.994459
5 Mar 2024 13:29:06.000,54.276,74.542,581.713911
5 Mar 2024 13:30:06.000,66.382,42.721,793.146858
5 Mar 2024 13:31:06.000,68.365,25.774,1123.721379
5 Mar 2024 13:32:06.000,69.270,16.008,1495.619030
5 Mar 2024 13:33:06.000,69.843,9.469,1883.512074
5 Mar 2024 13:33:23.777,69.980,7.887,1999.974788
5 Mar 2024 15:05:09.140,280.696,7.877,1999.991886
5 Mar 2024 15:06:09.000,284.542,13.548,1624.984008
5 Mar 2024 15:07:09.000,290.893,21.319,1269.167077
5 Mar 2024 15:08:09.000,303.220,32.561,958.199720
5 Mar 2024 15:09:09.000,332.009,46.273,751.883546
5 Mar 2024 15:10:09.000,21.841,47.002,744.100498
5 Mar 2024 15:11:09.000,52.365,33.471,939.813507
5 Mar 2024 15:12:09.000,65.357,21.950,1246.090342
5 Mar 2024 15:13:09.000,71.963,13.990,1599.867174
5 Mar 2024 15:14:09.000,75.935,8.198,1974.807724
5 Mar 2024 15:14:12.960,76.143,7.867,1999.983729
5 Mar 2024 16:46:02.009,290.424,7.886,1999.975801
5 Mar 2024 16:47:02.000,291.913,13.794,1611.362878
5 Mar 2024 16:48:02.000,294.364,22.238,1235.922446
5 Mar 2024 16:49:02.000,299.473,35.985,892.977615
5 Mar 2024 16:50:02.000,317.675,60.166,639.617105
5 Mar 2024 16:51:02.000,60.901,67.632,603.476142
5 Mar 2024 16:52:02.000,91.369,41.019,814.164239
5 Mar 2024 16:53:02.000,97.961,25.063,1141.951563
5 Mar 2024 16:54:02.000,100.828,15.598,1511.731303
5 Mar 2024 16:55:02.000,102.477,9.181,1898.143516
5 Mar 2024 16:55:17.597,102.803,7.806,1999.990275
5 Mar 2024 18:26:54.595,279.434,7.857,1999.982858
5 Mar 2024 18:27:54.000,273.412,13.044,1651.331788
5 Mar 2024 18:28:54.000,263.699,19.567,1333.458337
5 Mar 2024 18:29:54.000,247.224,27.131,1082.435234
5 Mar 2024 18:30:54.000,220.808,32.579,953.878977
5 Mar 2024 18:31:54.000,190.840,30.538,996.857363
5 Mar 2024 18:32:54.000,169.379,23.328,1192.800025
5 Mar 2024 18:33:54.000,156.684,16.115,1481.638079
5 Mar 2024 18:34:54.000,149.003,10.244,1818.799178
5 Mar 2024 18:35:24.382,146.232,7.728,1999.977896
6 Mar 2024 11:40:59.358,216.375,7.773,1999.983746
6 Mar 2024 11:41:59.000,210.762,13.098,1644.229926
6 Mar 2024 11:42:59.000,201.634,19.919,1317.634383
6 Mar 2024 11:43:59.000,185.658,28.224,1053.861252
6 Mar 2024 11:44:59.000,158.399,34.884,910.725929
6 Mar 2024 11:45:59.000,125.886,33.098,945.372235
6 Mar 2024 11:46:59.000,103.078,25.114,1141.644140
6 Mar 2024 11:47:59.000,90.193,17.275,1434.133099
6 Mar 2024 11:48:59.000,82.655,11.058,1775.101106
6 Mar 2024 11:49:36.248,79.460,7.878,1999.989924
6 Mar 2024 13:21:12.017,258.979,7.841,1999.990894
6 Mar 2024 13:22:12.000,260.705,13.741,1612.144264
6 Mar 2024 13:23:12.000,263.580,22.151,1237.936531
6 Mar 2024 13:24:12.000,269.590,35.737,897.175036
6 Mar 2024 13:25:12.000,290.221,58.922,647.367578
6 Mar 2024 13:26:12.000,23.801,65.430,613.521080
6 Mar 2024 13:27:12.000,56.197,40.519,822.793040
6 Mar 2024 13:28:12.000,63.871,24.938,1148.735870
6 Mar 2024 13:29:12.000,67.247,15.580,1517.127232
6 Mar 2024 13:30:12.000,69.197,9.204,1902.462354
6 Mar 2024 13:30:26.975,69.568,7.888,1999.997497
6 Mar 2024 15:02:16.952,284.676,7.884,1999.990579
6 Mar 2024 15:03:16.000,288.428,13.471,1629.757026
6 Mar 2024 15:04:16.000,294.682,21.217,1273.190071
6 Mar 2024 15:05:16.000,306.806,32.445,960.722455
6 Mar 2024 15:06:16.000,335.237,46.313,751.496605
6 Mar 2024 15:07:16.000,25.418,47.390,740.061030
6 Mar 2024 15:08:16.000,56.413,33.778,933.752959
6 Mar 2024 15:09:16.000,69.507,22.133,1239.405002
6 Mar 2024 15:10:16.000,76.128,14.107,1593.059463
6 Mar 2024 15:11:16.000,80.096,8.281,1968.042738
6 Mar 2024 15:11:21.023,80.358,7.860,1999.990562
6 Mar 2024 16:43:05.149,289.789,7.886,1999.988979
6 Mar 2024 16:44:05.000,289.989,13.813,1610.119374
6 Mar 2024 16:45:05.000,290.208,22.359,1231.489027
6 Mar 2024 16:46:05.000,290.486,36.532,883.382418
6 Mar 2024 16:47:05.000,291.105,63.453,621.943074
6 Mar 2024 16:48:05.000,109.176,74.522,580.951926
6 Mar 2024 16:49:05.000,110.322,42.403,795.414331
6 Mar 2024 16:50:05.000,110.626,25.530,1127.499336
6 Mar 2024 16:51:05.000,110.839,15.811,1500.263140
6 Mar 2024 16:52:05.000,111.020,9.297,1888.789278
6 Mar 2024 16:52:21.951,111.068,7.791,1999.989088
6 Mar 2024 18:24:10.454,273.596,7.846,1999.998093
6 Mar 2024 18:25:10.000,265.517,12.433,1686.487937
6 Mar 2024 18:26:10.000,253.488,17.508,1420.468394
6 Mar 2024 18:27:10.000,236.020,22.040,1238.422710
6 Mar 2024 18:28:10.000,213.879,23.730,1180.634295
6 Mar 2024 18:29:10.000,192.344,21.260,1264.418863
6 Mar 2024 18:30:10.000,175.979,16.447,1465.366812
6 Mar 2024 18:31:10.000,164.811,11.402,1742.757692
6 Mar 2024 18:31:58.337,158.483,7.718,1999.985112
7 Mar 2024 10:00:17.344,162.498,7.755,1999.998575
7 Mar 2024 10:01:17.000,150.281,9.502,1872.664976
7 Mar 2024 10:02:17.000,136.726,10.143,1829.701858
7 Mar 2024 10:03:17.000,123.214,9.460,1878.191970
7 Mar 2024 10:04:12.921,111.807,7.822,1999.991833
7 Mar 2024 11:37:45.301,227.207,7.788,1999.991272
7 Mar 2024 11:38:45.000,223.548,13.463,1624.349765
7 Mar 2024 11:39:45.000,217.287,21.253,1267.569681
7 Mar 2024 11:40:45.000,204.838,32.475,957.290672
7 Mar 2024 11:41:45.000,175.693,45.816,755.156933
7 Mar 2024 11:42:45.000,127.067,45.892,754.767358
7 Mar 2024 11:43:45.000,97.789,32.600,956.372178
7 Mar 2024 11:44:45.000,85.301,21.376,1266.427011
7 Mar 2024 11:45:45.000,79.042,13.580,1623.129534
7 Mar 2024 11:46:44.889,75.397,7.886,1999.977742
7 Mar 2024 13:18:19.283,266.280,7.855,1999.984718
7 Mar 2024 13:19:19.000,268.951,13.650,1618.061917
7 Mar 2024 13:20:19.000,273.421,21.821,1250.266570
7 Mar 2024 13:21:19.000,282.546,34.498,920.010737
7 Mar 2024 13:22:19.000,308.935,53.392,686.007597
7 Mar 2024 13:23:19.000,16.946,56.832,661.154344
7 Mar 2024 13:24:19.000,50.832,37.794,863.736888
7 Mar 2024 13:25:19.000,61.714,23.887,1181.567147
7 Mar 2024 13:26:19.000,66.767,15.052,1544.258940
7 Mar 2024 13:27:19.000,69.710,8.883,1925.635184
7 Mar 2024 13:27:30.516,70.144,7.888,1999.983674
7 Mar 2024 14:59:23.288,287.610,7.890,1999.979803
7 Mar 2024 15:00:23.000,291.106,13.590,1623.341354
7 Mar 2024 15:01:23.000,296.909,21.485,1263.504849
7 Mar 2024 15:02:23.000,308.354,33.173,946.031469
7 Mar 2024 15:03:23.000,336.782,48.352,730.467382
7 Mar 2024 15:04:23.000,31.041,49.777,716.728470
7 Mar 2024 15:05:23.000,62.808,34.817,914.022319
7 Mar 2024 15:06:23.000,75.371,22.574,1223.760054
7 Mar 2024 15:07:23.000,81.577,14.331,1580.392310
7 Mar 2024 15:08:23.000,85.263,8.413,1957.490785
7 Mar 2024 15:08:29.648,85.583,7.851,1999.982585
7 Mar 2024 16:40:08.481,288.178,7.884,1999.989749
7 Mar 2024 16:41:08.000,286.850,13.741,1613.920857
7 Mar 2024 16:42:08.000,284.411,22.156,1238.245598
7 Mar 2024 16:43:08.000,278.946,35.795,895.730918
7 Mar 2024 16:44:08.000,259.108,59.307,644.116020
7 Mar 2024 16:45:08.000,163.185,65.833,610.296214
7 Mar 2024 16:46:08.000,131.838,40.406,821.741249
7 Mar 2024 16:47:08.000,124.805,24.757,1149.837901
7 Mar 2024 16:48:08.000,121.889,15.397,1520.057884
7 Mar 2024 16:49:08.000,120.334,9.026,1907.032028
7 Mar 2024 16:49:22.214,120.070,7.776,1999.976560
7 Mar 2024 18:21:36.548,265.596,7.831,1999.987428
7 Mar 2024 18:22:36.000,255.552,11.497,1742.822825
7 Mar 2024 18:23:36.000,242.049,14.813,1550.524720
7 Mar 2024 18:24:36.000,225.366,16.740,1453.526346
7 Mar 2024 18:25:36.000,207.610,16.345,1471.120678
7 Mar 2024 18:26:36.000,191.761,13.837,1599.393375
7 Mar 2024 18:27:36.000,179.315,10.295,1814.531369
7 Mar 2024 18:28:17.594,172.607,7.712,1999.992308
8 Mar 2024 09:55:57.860,182.717,7.749,1999.988355
8 Mar 2024 09:56:57.000,172.192,11.080,1765.898615
8 Mar 2024 09:57:57.000,158.483,13.876,1599.979919
8 Mar 2024 09:58:57.000,142.317,15.203,1530.449355
8 Mar 2024 09:59:57.000,125.791,14.459,1570.523330
8 Mar 2024 10:00:57.000,111.284,12.004,1712.455375
8 Mar 2024 10:01:57.000,99.816,8.731,1933.534639
8 Mar 2024 10:02:12.397,97.349,7.849,1999.979226
8 Mar 2024 11:34:38.362,237.177,7.803,1999.991057
8 Mar 2024 11:35:38.000,235.330,13.652,1614.691779
8 Mar 2024 11:36:38.000,232.035,21.994,1241.673992
8 Mar 2024 11:37:38.000,224.857,35.287,903.959795
8 Mar 2024 11:38:38.000,201.090,56.760,660.463023
8 Mar 2024 11:39:38.000,120.381,61.392,632.789496
8 Mar 2024 11:40:38.000,87.388,39.120,842.544094
8 Mar 2024 11:41:38.000,78.591,24.310,1167.622749
8 Mar 2024 11:42:38.000,74.816,15.213,1535.652608
8 Mar 2024 11:43:38.000,72.775,8.947,1921.098976
8 Mar 2024 11:43:50.107,72.476,7.891,1999.988078
8 Mar 2024 13:15:27.587,272.721,7.868,1999.982608
8 Mar 2024 13:16:27.000,276.045,13.556,1624.113444
8 Mar 2024 13:17:27.000,281.598,21.495,1262.573843
8 Mar 2024 13:18:27.000,292.617,33.351,942.358353
8 Mar 2024 13:19:27.000,320.694,49.172,722.686273
8 Mar 2024 13:20:27.000,16.970,51.036,705.812607
8 Mar 2024 13:21:27.000,49.355,35.458,903.200745
8 Mar 2024 13:22:27.000,61.742,22.900,1214.003715
8 Mar 2024 13:23:27.000,67.788,14.533,1571.525402
8 Mar 2024 13:24:27.000,71.367,8.559,1949.243746
8 Mar 2024 13:24:34.925,71.735,7.886,1999.981205
8 Mar 2024 14:56:28.058,289.500,7.894,1999.975887
8 Mar 2024 14:57:28.000,292.421,13.687,1618.046758
8 Mar 2024 14:58:28.000,297.281,21.795,1252.364365
8 Mar 2024 14:59:28.000,307.117,34.231,925.497096
8 Mar 2024 15:00:28.000,334.411,52.079,696.616142
8 Mar 2024 15:01:28.000,38.132,54.764,675.348405
8 Mar 2024 15:02:28.000,71.441,36.922,877.024139
8 Mar 2024 15:03:28.000,82.833,23.480,1193.039826
8 Mar 2024 15:04:28.000,88.210,14.808,1554.393997
8 Mar 2024 15:05:28.000,91.352,8.707,1934.884496
8 Mar 2024 15:05:38.102,91.759,7.840,1999.975690
8 Mar 2024 16:37:13.021,285.562,7.879,1999.986527
8 Mar 2024 16:38:13.000,282.457,13.647,1618.728056
8 Mar 2024 16:39:13.000,277.061,21.646,1255.941194
8 Mar 2024 16:40:13.000,265.952,33.594,935.900504
8 Mar 2024 16:41:13.000,237.096,49.232,720.143845
8 Mar 2024 16:42:13.000,181.443,50.060,711.959497
8 Mar 2024 16:43:13.000,150.618,34.490,916.946073
8 Mar 2024 16:44:13.000,138.865,22.195,1232.480102
8 Mar 2024 16:45:13.000,133.221,13.988,1593.385327
8 Mar 2024 16:46:13.000,129.981,8.103,1973.928641
8 Mar 2024 16:46:17.044,129.813,7.761,1999.979337
8 Mar 2024 18:19:23.891,253.460,7.807,1999.997053
8 Mar 2024 18:20:23.000,241.756,10.077,1834.107265
8 Mar 2024 18:21:23.000,227.960,11.367,1747.842830
8 Mar 2024 18:22:23.000,213.482,11.206,1756.703957
8 Mar 2024 18:23:23.000,199.974,9.650,1859.208854
8 Mar 2024 18:24:11.254,190.584,7.717,1999.985226
9 Mar 2024 09:52:11.098,197.641,7.754,1999.983545
9 Mar 2024 09:53:11.000,188.898,12.151,1699.110017
9 Mar 2024 09:54:11.000,176.322,16.767,1452.689605
9 Mar 2024 09:55:11.000,158.915,20.520,1294.325800
9 Mar 2024 09:56:11.000,138.071,21.508,1258.487536
9 Mar 2024 09:57:11.000,118.402,19.041,1355.128636
9 Mar 2024 09:58:11.000,103.292,14.705,1559.548951
9 Mar 2024 09:59:11.000,92.688,10.133,1835.498255
9 Mar 2024 09:59:42.671,88.465,7.866,1999.988147
9 Mar 2024 11:31:36.893,246.391,7.819,1999.976202
9 Mar 2024 11:32:36.000,246.148,13.668,1614.850509
9 Mar 2024 11:33:36.000,245.618,22.175,1236.122871
9 Mar 2024 11:34:36.000,244.285,36.236,887.894127
9 Mar 2024 11:35:36.000,238.501,62.727,625.818476
9 Mar 2024 11:36:36.000,86.565,74.232,582.557343
9 Mar 2024 11:37:36.000,73.463,42.603,794.777086
9 Mar 2024 11:38:36.000,71.575,25.712,1125.764053
9 Mar 2024 11:39:36.000,70.909,15.968,1497.954803
9 Mar 2024 11:40:36.000,70.624,9.440,1886.103496
9 Mar 2024 11:40:53.372,70.578,7.895,1999.977011
9 Mar 2024 13:12:35.925,278.228,7.878,1999.982331
9 Mar 2024 13:13:35.000,281.918,13.479,1629.091346
9 Mar 2024 13:14:35.000,288.075,21.254,1271.819135
9 Mar 2024 13:15:35.000,300.051,32.572,958.274923
9 Mar 2024 13:16:35.000,328.450,46.702,747.610040
9 Mar 2024 13:17:35.000,19.384,47.890,735.375929
9 Mar 2024 13:18:35.000,50.591,34.034,929.464345
9 Mar 2024 13:19:35.000,63.609,22.265,1235.730292
9 Mar 2024 13:20:35.000,70.161,14.190,1589.835745
9 Mar 2024 13:21:35.000,74.082,8.342,1965.114089
9 Mar 2024 13:21:40.477,74.364,7.882,1999.972273
9 Mar 2024 14:53:31.463,290.368,7.896,1999.970572
9 Mar 2024 14:54:31.000,292.400,13.719,1616.276970
9 Mar 2024 14:55:31.000,295.794,22.035,1243.768968
9 Mar 2024 14:56:31.000,302.820,35.309,905.528798
9 Mar 2024 14:57:31.000,325.607,57.109,659.014523
9 Mar 2024 14:58:31.000,49.304,62.798,625.679582
9 Mar 2024 14:59:31.000,83.297,39.826,831.703203
9 Mar 2024 15:00:31.000,92.186,24.668,1154.973244
9 Mar 2024 15:01:31.000,96.133,15.426,1521.758661
9 Mar 2024 15:02:31.000,98.402,9.091,1906.133920
9 Mar 2024 15:02:45.437,98.816,7.826,1999.990684
9 Mar 2024 16:34:20.113,281.851,7.873,1999.982631
9 Mar 2024 16:35:20.000,276.819,13.338,1635.709526
9 Mar 2024 16:36:20.000,268.485,20.481,1298.676431
9 Mar 2024 16:37:20.000,253.259,29.665,1019.627360
9 Mar 2024 16:38:20.000,224.963,37.933,858.657387
9 Mar 2024 16:39:20.000,188.729,36.370,883.551226
9 Mar 2024 16:40:20.000,164.207,27.118,1081.447434
9 Mar 2024 16:41:20.000,151.234,18.384,1379.241671
9 Mar 2024 16:42:20.000,143.940,11.715,1725.126881
9 Mar 2024 16:43:04.893,140.372,7.747,1999.991352
10 Mar 2024 09:48:40.686,210.337,7.763,1999.988501
10 Mar 2024 09:49:40.000,203.716,12.799,1661.020007
10 Mar 2024 09:50:40.000,193.273,18.952,1356.406851
10 Mar 2024 09:51:40.000,176.345,25.645,1123.621974
10 Mar 2024 09:52:40.000,151.157,29.853,1014.608513
10 Mar 2024 09:53:40.000,124.034,27.705,1068.441089
10 Mar 2024 09:54:40.000,104.151,21.402,1264.350174
10 Mar 2024 09:55:40.000,91.795,14.932,1548.793784
10 Mar 2024 09:56:40.000,84.053,9.488,1881.234302
10 Mar 2024 09:57:00.253,82.097,7.878,1999.997383
10 Mar 2024 11:28:39.497,254.870,7.835,1999.979343
10 Mar 2024 11:29:39.000,255.979,13.709,1613.512318
10 Mar 2024 11:30:39.000,257.806,22.184,1236.564175
10 Mar 2024 11:31:39.000,261.604,36.080,891.114866
10 Mar 2024 11:32:39.000,275.618,61.347,633.406491
10 Mar 2024 11:33:39.000,34.111,70.717,593.218228
10 Mar 2024 11:34:39.000,60.820,41.917,803.937662
10 Mar 2024 11:35:39.000,65.899,25.482,1132.790724
10 Mar 2024 11:36:39.000,68.098,15.864,1503.353028
10 Mar 2024 11:37:39.000,69.384,9.384,1890.245017
10 Mar 2024 11:37:55.788,69.660,7.897,1999.972011
10 Mar 2024 13:09:43.494,282.739,7.886,1999.983148
10 Mar 2024 13:10:43.000,286.577,13.518,1627.362430
10 Mar 2024 13:11:43.000,292.938,21.266,1271.681577
10 Mar 2024 13:12:43.000,305.255,32.459,960.771747
10 Mar 2024 13:13:43.000,333.904,46.101,754.133109
10 Mar 2024 13:14:43.000,23.484,46.925,745.281600
10 Mar 2024 13:15:43.000,54.095,33.493,939.847367
10 Mar 2024 13:16:43.000,67.170,21.984,1245.414617
10 Mar 2024 13:17:43.000,73.821,14.021,1598.783279
10 Mar 2024 13:18:43.000,77.819,8.224,1973.472782
10 Mar 2024 13:18:47.172,78.039,7.875,1999.986124
10 Mar 2024 14:50:33.953,290.241,7.896,1999.975481
10 Mar 2024 14:51:33.000,291.127,13.720,1616.102380
10 Mar 2024 14:52:33.000,292.554,22.184,1238.365665
10 Mar 2024 14:53:33.000,295.462,36.105,891.337418
10 Mar 2024 14:54:33.000,306.258,61.877,630.495809
10 Mar 2024 14:55:33.000,77.192,72.604,586.757679
10 Mar 2024 14:56:33.000,99.819,42.348,796.883524
10 Mar 2024 14:57:33.000,103.761,25.606,1126.352379
10 Mar 2024 14:58:33.000,105.462,15.892,1497.606016
10 Mar 2024 14:59:33.000,106.457,9.371,1885.140708
10 Mar 2024 14:59:50.540,106.681,7.812,1999.975884
10 Mar 2024 16:31:31.670,276.840,7.864,1999.987443
10 Mar 2024 16:32:31.000,269.852,12.785,1666.993032
10 Mar 2024 16:33:31.000,258.955,18.657,1371.521344
10 Mar 2024 16:34:31.000,241.772,24.735,1151.376641
10 Mar 2024 16:35:31.000,217.357,28.128,1055.817117
10 Mar 2024 16:36:31.000,191.906,25.815,1117.604083
10 Mar 2024 16:37:31.000,173.047,19.954,1314.492367
10 Mar 2024 16:38:31.000,160.981,13.902,1596.651316
10 Mar 2024 16:39:31.000,153.225,8.722,1926.107524
10 Mar 2024 16:39:43.759,151.944,7.735,1999.999860
11 Mar 2024 08:09:28.620,140.326,7.773,1999.998765
11 Mar 2024 08:09:50.707,135.711,7.854,1994.283978
11 Mar 2024 08:10:12.793,131.095,7.787,1999.998315
11 Mar 2024 09:45:21.252,221.694,7.776,1999.993536
11 Mar 2024 09:46:21.000,217.025,13.300,1632.844889
11 Mar 2024 09:47:21.000,209.234,20.642,1289.861069
11 Mar 2024 09:48:21.000,194.679,30.412,1001.488407
11 Mar 2024 09:49:21.000,165.997,39.966,828.575289
11 Mar 2024 09:50:21.000,126.959,38.823,845.986694
11 Mar 2024 09:51:21.000,101.126,28.698,1044.203362
11 Mar 2024 09:52:21.000,88.128,19.342,1345.025724
11 Mar 2024 09:53:21.000,81.048,12.367,1693.841841
11 Mar 2024 09:54:10.593,77.356,7.886,1999.989639
11 Mar 2024 11:25:44.903,262.586,7.849,1999.991129
11 Mar 2024 11:26:44.000,264.766,13.614,1619.741814
11 Mar 2024 11:27:44.000,268.444,21.872,1248.236381
11 Mar 2024 11:28:44.000,276.032,34.947,911.676701
11 Mar 2024 11:29:44.000,299.774,55.893,667.459048
11 Mar 2024 11:30:44.000,18.187,61.238,634.480521
11 Mar 2024 11:31:44.000,52.854,39.478,838.116726
11 Mar 2024 11:32:44.000,62.467,24.608,1159.264412
11 Mar 2024 11:33:44.000,66.781,15.444,1524.592566
11 Mar 2024 11:34:44.000,69.271,9.137,1907.891347
11 Mar 2024 11:34:58.201,69.719,7.897,1999.990078
11 Mar 2024 13:06:49.749,286.215,7.892,1999.990684
11 Mar 2024 13:07:49.000,289.871,13.518,1627.682412
11 Mar 2024 13:08:49.000,295.959,21.320,1269.914098
11 Mar 2024 13:09:49.000,307.833,32.717,955.578695
11 Mar 2024 13:10:49.000,336.260,47.059,743.925297
11 Mar 2024 13:11:49.000,27.868,48.281,731.420719
11 Mar 2024 13:12:49.000,59.187,34.193,926.215371
11 Mar 2024 13:13:49.000,72.108,22.323,1233.246862
11 Mar 2024 13:14:49.000,78.585,14.211,1587.927676
11 Mar 2024 13:15:49.000,82.452,8.347,1963.642487
11 Mar 2024 13:15:54.702,82.742,7.867,1999.975177
11 Mar 2024 14:47:36.200,289.138,7.894,1999.979167
11 Mar 2024 14:48:36.000,288.631,13.813,1610.695097
11 Mar 2024 14:49:36.000,287.618,22.341,1232.610643
11 Mar 2024 14:50:36.000,285.191,36.419,885.662889
11 Mar 2024 14:51:36.000,275.056,62.599,626.472050
11 Mar 2024 14:52:36.000,140.592,72.263,587.463509
11 Mar 2024 14:53:36.000,120.614,41.949,801.600159
11 Mar 2024 14:54:36.000,117.316,25.356,1133.004671
11 Mar 2024 14:55:36.000,116.045,15.717,1505.347636
11 Mar 2024 14:56:36.000,115.413,9.235,1893.644187
11 Mar 2024 14:56:52.220,115.298,7.797,1999.995312
11 Mar 2024 16:28:50.808,270.092,7.851,1999.997993
11 Mar 2024 16:29:50.000,261.108,12.019,1711.944658
11 Mar 2024 16:30:50.000,248.273,16.287,1477.873681
11 Mar 2024 16:31:50.000,231.015,19.512,1334.055089
11 Mar 2024 16:32:50.000,211.009,20.063,1311.088194
11 Mar 2024 16:33:50.000,192.422,17.565,1414.888778
11 Mar 2024 16:34:50.000,178.031,13.463,1620.883055
11 Mar 2024 16:35:50.000,167.743,9.141,1895.344668
11 Mar 2024 16:36:10.534,164.963,7.728,1999.989224
12 Mar 2024 08:04:01.647,173.311,7.744,1999.990534
12 Mar 2024 08:05:01.000,161.849,10.364,1812.670746
12 Mar 2024 08:06:01.000,147.994,12.099,1702.991030
12 Mar 2024 08:07:01.000,132.992,12.341,1689.562364
12 Mar 2024 08:08:01.000,118.673,10.999,1774.708528
12 Mar 2024 08:09:01.000,106.441,8.556,1945.305468
12 Mar 2024 08:09:16.286,103.724,7.835,1999.984918
12 Mar 2024 09:42:09.980,232.085,7.790,1999.991563
12 Mar 2024 09:43:09.000,229.356,13.494,1622.788198
12 Mar 2024 09:44:09.000,224.558,21.565,1256.397180
12 Mar 2024 09:45:09.000,214.573,33.863,929.943223
12 Mar 2024 09:46:09.000,187.004,51.101,703.574359
12 Mar 2024 09:47:09.000,126.055,53.275,686.030185
12 Mar 2024 09:48:09.000,93.631,36.164,889.792007
12 Mar 2024 09:49:09.000,82.315,23.084,1207.069824
12 Mar 2024 09:50:09.000,77.078,14.563,1569.675459
12 Mar 2024 09:51:09.000,74.141,8.534,1951.503358
12 Mar 2024 09:51:16.502,73.864,7.893,1999.990648
12 Mar 2024 11:22:51.926,269.479,7.861,1999.995544
12 Mar 2024 11:23:51.000,272.467,13.549,1624.201706
12 Mar 2024 11:24:51.000,277.494,21.579,1259.369575
12 Mar 2024 11:25:51.000,287.589,33.792,933.728038
12 Mar 2024 11:26:51.000,314.808,51.024,705.870032
12 Mar 2024 11:27:51.000,16.032,53.818,683.091407
12 Mar 2024 11:28:51.000,49.565,36.728,881.471678
12 Mar 2024 11:29:51.000,61.410,23.483,1195.044195
12 Mar 2024 11:30:51.000,67.042,14.859,1554.818643
12 Mar 2024 11:31:51.000,70.343,8.773,1934.195401
12 Mar 2024 11:32:01.234,70.778,7.895,1999.977011
12 Mar 2024 13:03:54.451,288.645,7.897,1999.992511
12 Mar 2024 13:04:54.000,291.883,13.610,1622.695741
12 Mar 2024 13:05:54.000,297.280,21.588,1260.203498
12 Mar 2024 13:06:54.000,308.035,33.580,938.377283
12 Mar 2024 13:07:54.000,335.978,49.860,716.408269
12 Mar 2024 13:08:54.000,33.863,51.900,698.313843
12 Mar 2024 13:09:54.000,66.510,35.808,896.600869
12 Mar 2024 13:10:54.000,78.685,23.033,1208.641306
12 Mar 2024 13:11:54.000,84.575,14.587,1567.135236
12 Mar 2024 13:12:54.000,88.047,8.579,1945.608440
12 Mar 2024 13:13:02.477,88.428,7.857,1999.978426
12 Mar 2024 14:44:39.094,287.053,7.891,1999.973253
12 Mar 2024 14:45:39.000,284.895,13.743,1614.289342
12 Mar 2024 14:46:39.000,281.055,22.019,1243.495293
12 Mar 2024 14:47:39.000,272.764,35.028,909.711956
12 Mar 2024 14:48:39.000,246.879,55.004,672.796015
12 Mar 2024 14:49:39.000,174.181,58.250,650.389552
12 Mar 2024 14:50:39.000,141.404,37.891,859.512656
12 Mar 2024 14:51:39.000,131.656,23.718,1182.666955
12 Mar 2024 14:52:39.000,127.335,14.838,1549.277007
12 Mar 2024 14:53:39.000,124.946,8.664,1933.786758
12 Mar 2024 14:53:49.180,124.645,7.782,1999.976566
12 Mar 2024 16:26:23.924,260.538,7.833,1999.995895
12 Mar 2024 16:27:23.000,249.692,10.897,1781.409303
12 Mar 2024 16:28:23.000,235.882,13.286,1634.252569
12 Mar 2024 16:29:23.000,220.088,14.163,1584.086567
12 Mar 2024 16:30:23.000,204.360,13.141,1639.948411
12 Mar 2024 16:31:23.000,190.699,10.659,1791.670750
12 Mar 2024 16:32:18.925,180.500,7.726,1999.989690
13 Mar 2024 08:00:00.855,190.241,7.742,1999.976000
13 Mar 2024 08:01:00.000,180.609,11.605,1732.009945
13 Mar 2024 08:02:00.000,167.337,15.307,1523.602081
13 Mar 2024 08:03:00.000,150.427,17.741,1408.608202
13 Mar 2024 08:04:00.000,131.865,17.720,1410.621430
13 Mar 2024 08:05:00.000,115.051,15.263,1529.240592
13 Mar 2024 08:06:00.000,101.907,11.567,1740.451247
13 Mar 2024 08:06:57.020,92.683,7.856,1999.997395
13 Mar 2024 09:39:04.980,241.680,7.805,1999.991280
13 Mar 2024 09:40:04.000,240.642,13.625,1616.399508
13 Mar 2024 09:41:04.000,238.722,22.063,1239.398363
13 Mar 2024 09:42:04.000,234.394,35.835,894.412686
13 Mar 2024 09:43:04.000,218.026,60.393,638.107362
13 Mar 2024 09:44:04.000,110.459,68.829,599.348176
13 Mar 2024 09:45:04.000,80.990,41.422,810.072630
13 Mar 2024 09:46:04.000,75.188,25.263,1138.845260
13 Mar 2024 09:47:04.000,72.864,15.733,1509.611179
13 Mar 2024 09:48:04.000,71.663,9.289,1896.895316
13 Mar 2024 09:48:19.755,71.444,7.897,1999.980728
13 Mar 2024 11:19:59.487,275.477,7.872,1999.990957
13 Mar 2024 11:20:59.000,279.031,13.545,1625.114410
13 Mar 2024 11:21:59.000,284.945,21.407,1266.086406
13 Mar 2024 11:22:59.000,296.563,32.984,949.910147
13 Mar 2024 11:23:59.000,324.992,47.829,736.025032
13 Mar 2024 11:24:59.000,18.141,49.185,722.868558
13 Mar 2024 11:25:59.000,49.741,34.597,919.117912
13 Mar 2024 11:26:59.000,62.460,22.509,1227.666958
13 Mar 2024 11:27:59.000,68.784,14.320,1583.386987
13 Mar 2024 11:28:59.000,72.552,8.423,1959.778694
13 Mar 2024 11:29:05.303,72.862,7.892,1999.998024
13 Mar 2024 13:00:57.650,290.042,7.899,1999.999926
13 Mar 2024 13:01:57.000,292.549,13.664,1619.742596
13 Mar 2024 13:02:57.000,296.753,21.853,1250.648300
13 Mar 2024 13:03:57.000,305.346,34.648,917.978834
13 Mar 2024 13:04:57.000,330.848,54.228,679.786886
13 Mar 2024 13:05:57.000,42.116,58.363,651.097100
13 Mar 2024 13:06:57.000,76.492,38.413,853.425543
13 Mar 2024 13:07:57.000,86.996,24.138,1172.266822
13 Mar 2024 13:08:57.000,91.803,15.170,1535.939151
13 Mar 2024 13:09:57.000,94.584,8.942,1918.144738
13 Mar 2024 13:10:09.649,95.031,7.844,1999.984914
13 Mar 2024 14:41:43.786,283.931,7.885,1999.971094
13 Mar 2024 14:42:43.000,279.981,13.454,1630.048395
13 Mar 2024 14:43:43.000,273.207,21.068,1277.441622
13 Mar 2024 14:44:43.000,260.004,31.745,973.816116
13 Mar 2024 14:45:43.000,230.979,43.629,780.455894
13 Mar 2024 14:46:43.000,186.188,43.246,784.569882
13 Mar 2024 14:47:43.000,158.025,31.194,983.656959
13 Mar 2024 14:48:43.000,145.192,20.627,1289.882099
13 Mar 2024 14:49:43.000,138.551,13.101,1643.603883
13 Mar 2024 14:50:40.010,134.758,7.767,1999.988171
13 Mar 2024 16:24:33.902,243.842,7.800,1999.995406
13 Mar 2024 16:25:33.000,231.540,9.052,1905.346981
13 Mar 2024 16:26:33.000,218.287,9.177,1894.922819
13 Mar 2024 16:27:33.000,205.527,8.109,1972.078486
13 Mar 2024 16:27:46.204,202.898,7.739,1999.997711
14 Mar 2024 07:56:22.051,203.918,7.748,1999.999343
14 Mar 2024 07:57:22.000,196.141,12.515,1676.830867
14 Mar 2024 07:58:22.000,184.462,17.912,1400.251099
14 Mar 2024 07:59:22.000,167.013,23.019,1204.777722
14 Mar 2024 08:00:22.000,144.036,25.296,1134.138166
14 Mar 2024 08:01:22.000,121.202,22.897,1210.712103
14 Mar 2024 08:02:22.000,104.008,17.771,1410.519671
14 Mar 2024 08:03:22.000,92.535,12.408,1689.836436
14 Mar 2024 08:04:19.343,85.179,7.870,1999.999826
14 Mar 2024 09:36:04.753,250.537,7.820,1999.999960
14 Mar 2024 09:37:04.000,250.968,13.683,1614.112709
14 Mar 2024 09:38:04.000,251.620,22.196,1235.516880
14 Mar 2024 09:39:04.000,252.872,36.275,887.350381
14 Mar 2024 09:40:04.000,257.436,62.873,625.175816
14 Mar 2024 09:41:04.000,56.734,74.611,581.673204
14 Mar 2024 09:42:04.000,66.918,42.695,793.736403
14 Mar 2024 09:43:04.000,68.604,25.760,1124.571685
14 Mar 2024 09:44:04.000,69.388,16.001,1496.577791
14 Mar 2024 09:45:04.000,69.895,9.467,1884.519153
14 Mar 2024 09:45:21.623,70.018,7.899,1999.975581
14 Mar 2024 11:17:06.667,280.511,7.881,1999.992630
14 Mar 2024 11:18:06.000,284.310,13.499,1628.236749
14 Mar 2024 11:19:06.000,290.622,21.250,1272.181718
14 Mar 2024 11:20:06.000,302.853,32.467,960.634015
14 Mar 2024 11:21:06.000,331.415,46.218,752.955213
14 Mar 2024 11:22:06.000,21.276,47.151,743.084146
14 Mar 2024 11:23:06.000,52.051,33.637,937.310382
14 Mar 2024 11:24:06.000,65.130,22.068,1242.898220
14 Mar 2024 11:25:06.000,71.767,14.076,1596.348565
14 Mar 2024 11:26:06.000,75.751,8.267,1971.108697
14 Mar 2024 11:26:10.543,75.990,7.886,1999.984372
14 Mar 2024 12:57:59.677,290.430,7.900,1999.974354
14 Mar 2024 12:58:59.000,291.945,13.732,1615.868758
14 Mar 2024 12:59:59.000,294.460,22.134,1240.545332
14 Mar 2024 13:00:59.000,299.685,35.771,897.554661
14 Mar 2024 13:01:59.000,317.999,59.642,643.348265
14 Mar 2024 13:02:59.000,58.895,67.549,604.493945
14 Mar 2024 13:03:59.000,90.556,41.200,812.646370
14 Mar 2024 13:04:59.000,97.436,25.199,1139.189777
14 Mar 2024 13:05:59.000,100.418,15.698,1508.336780
14 Mar 2024 13:06:59.000,102.129,9.259,1894.369897
14 Mar 2024 13:07:15.186,102.478,7.830,1999.990325
14 Mar 2024 14:38:51.845,279.636,7.877,1999.982986
14 Mar 2024 14:39:51.000,273.728,13.064,1651.720153
14 Mar 2024 14:40:51.000,264.144,19.637,1332.071250
14 Mar 2024 14:41:51.000,247.792,27.332,1078.352133
14 Mar 2024 14:42:51.000,221.263,33.006,946.471915
14 Mar 2024 14:43:51.000,190.847,31.036,987.059492
14 Mar 2024 14:44:51.000,169.102,23.697,1182.321207
14 Mar 2024 14:45:51.000,156.334,16.364,1471.341863
14 Mar 2024 14:46:51.000,148.654,10.421,1808.885896
14 Mar 2024 14:47:22.986,145.761,7.754,1999.975418
15 Mar 2024 07:52:56.490,215.899,7.759,1999.983982
15 Mar 2024 07:53:56.000,210.217,13.051,1646.030301
15 Mar 2024 07:54:56.000,200.985,19.819,1320.930385
15 Mar 2024 07:55:56.000,184.928,27.992,1059.311195
15 Mar 2024 07:56:56.000,157.843,34.441,918.579386
15 Mar 2024 07:57:56.000,125.816,32.636,954.440470
15 Mar 2024 07:58:56.000,103.236,24.818,1150.406211
15 Mar 2024 07:59:56.000,90.367,17.100,1442.099503
15 Mar 2024 08:00:56.000,82.795,10.947,1782.325308
15 Mar 2024 08:01:32.130,79.660,7.880,1999.990463
15 Mar 2024 09:33:07.981,258.652,7.835,1999.990760
15 Mar 2024 09:34:07.000,260.298,13.628,1618.145207
15 Mar 2024 09:35:07.000,263.066,21.992,1243.382244
15 Mar 2024 09:36:07.000,268.827,35.495,901.413692
15 Mar 2024 09:37:07.000,288.500,58.711,648.703701
15 Mar 2024 09:38:07.000,23.152,66.237,610.129958
15 Mar 2024 09:39:07.000,56.324,40.975,816.689360
15 Mar 2024 09:40:07.000,63.939,25.181,1141.826136
15 Mar 2024 09:41:07.000,67.262,15.734,1509.992668
15 Mar 2024 09:42:07.000,69.176,9.316,1895.272949
15 Mar 2024 09:42:23.076,69.565,7.899,1999.989573
15 Mar 2024 11:14:12.785,284.529,7.888,1999.990536
15 Mar 2024 11:15:12.000,288.301,13.495,1628.829988
15 Mar 2024 11:16:12.000,294.575,21.248,1272.493782
15 Mar 2024 11:17:12.000,306.740,32.482,960.430178
15 Mar 2024 11:18:12.000,335.240,46.318,751.893942
15 Mar 2024 11:19:12.000,25.339,47.329,741.201740
15 Mar 2024 11:20:12.000,56.240,33.739,935.198663
15 Mar 2024 11:21:12.000,69.316,22.118,1240.865142
15 Mar 2024 11:22:12.000,75.936,14.104,1594.451453
15 Mar 2024 11:23:12.000,79.906,8.282,1969.347685
15 Mar 2024 11:23:16.817,80.157,7.879,1999.975751
15 Mar 2024 12:55:01.081,289.836,7.898,1999.978685
15 Mar 2024 12:56:01.000,290.096,13.837,1609.793657
15 Mar 2024 12:57:01.000,290.420,22.391,1231.333547
15 Mar 2024 12:58:01.000,290.927,36.574,883.476645
15 Mar 2024 12:59:01.000,292.486,63.487,622.416874
15 Mar 2024 13:00:01.000,106.268,74.480,581.706986
15 Mar 2024 13:01:01.000,109.436,42.423,796.058037
15 Mar 2024 13:02:01.000,110.051,25.558,1127.953332
15 Mar 2024 13:03:01.000,110.390,15.836,1500.554036
15 Mar 2024 13:04:01.000,110.640,9.320,1888.940056
15 Mar 2024 13:04:17.934,110.703,7.815,1999.991167
15 Mar 2024 14:36:05.635,273.876,7.866,1999.984716
15 Mar 2024 14:37:05.000,265.911,12.473,1685.616848
15 Mar 2024 14:38:05.000,253.980,17.620,1416.927162
15 Mar 2024 14:39:05.000,236.535,22.281,1231.428069
15 Mar 2024 14:40:05.000,214.218,24.103,1170.172191
15 Mar 2024 14:41:05.000,192.388,21.652,1251.710535
15 Mar 2024 14:42:05.000,175.817,16.768,1451.864144
15 Mar 2024 14:43:05.000,164.559,11.647,1729.276502
15 Mar 2024 14:43:55.718,157.939,7.743,1999.985188
16 Mar 2024 06:12:17.060,161.354,7.738,2000.000019
16 Mar 2024 06:13:17.000,149.024,9.396,1879.017161
16 Mar 2024 06:14:17.000,135.522,9.925,1843.548417
16 Mar 2024 06:15:17.000,122.175,9.158,1898.795625
16 Mar 2024 06:16:03.647,112.714,7.810,1999.997561
16 Mar 2024 07:49:40.370,226.757,7.772,1999.991768
16 Mar 2024 07:50:40.000,223.021,13.427,1625.358069
16 Mar 2024 07:51:40.000,216.636,21.180,1269.493175
16 Mar 2024 07:52:40.000,204.003,32.284,960.707835
16 Mar 2024 07:53:40.000,174.868,45.293,760.623445
16 Mar 2024 07:54:40.000,127.170,45.271,761.403778
16 Mar 2024 07:55:40.000,98.144,32.288,962.556577
16 Mar 2024 07:56:40.000,85.569,21.224,1271.819495
16 Mar 2024 07:57:40.000,79.224,13.495,1627.899314
16 Mar 2024 07:58:39.212,75.549,7.887,1999.979010
16 Mar 2024 09:30:13.430,265.979,7.848,1999.987932
16 Mar 2024 09:31:13.000,268.606,13.631,1618.797013
16 Mar 2024 09:32:13.000,273.010,21.804,1250.652921
16 Mar 2024 09:33:13.000,282.005,34.507,919.784845
16 Mar 2024 09:34:13.000,308.164,53.560,684.716026
16 Mar 2024 09:35:13.000,16.873,57.198,658.803654
16 Mar 2024 09:36:13.000,50.927,37.968,861.175736
16 Mar 2024 09:37:13.000,61.740,23.974,1179.144085
16 Mar 2024 09:38:13.000,66.745,15.106,1541.986054
16 Mar 2024 09:39:13.000,69.657,8.923,1923.477358
16 Mar 2024 09:39:24.847,70.098,7.898,1999.984599
16 Mar 2024 11:11:17.440,287.504,7.893,1999.975765
16 Mar 2024 11:12:17.000,291.008,13.576,1624.461279
16 Mar 2024 11:13:17.000,296.833,21.460,1264.834385
16 Mar 2024 11:14:17.000,308.305,33.114,947.628365
16 Mar 2024 11:15:17.000,336.681,48.213,732.255604
16 Mar 2024 11:16:17.000,30.655,49.667,718.211663
16 Mar 2024 11:17:17.000,62.440,34.806,914.872201
16 Mar 2024 11:18:17.000,75.061,22.590,1224.122538
16 Mar 2024 11:19:17.000,81.302,14.352,1580.430859
16 Mar 2024 11:20:17.000,85.010,8.434,1957.300194
16 Mar 2024 11:20:23.679,85.333,7.869,1999.973848
16 Mar 2024 12:52:02.637,288.269,7.895,1999.984732
16 Mar 2024 12:53:02.000,287.016,13.741,1614.825249
16 Mar 2024 12:54:02.000,284.705,22.163,1238.901638
16 Mar 2024 12:55:02.000,279.512,35.834,895.844487
16 Mar 2024 12:56:02.000,260.462,59.592,643.069852
16 Mar 2024 12:57:02.000,162.020,66.573,607.812446
16 Mar 2024 12:58:02.000,130.954,40.682,818.795811
16 Mar 2024 12:59:02.000,124.187,24.895,1146.892955
16 Mar 2024 13:00:02.000,121.401,15.485,1517.155203
16 Mar 2024 13:01:02.000,119.921,9.091,1904.150274
16 Mar 2024 13:01:16.654,119.663,7.800,1999.976949
16 Mar 2024 14:33:29.375,266.001,7.851,1999.987686
16 Mar 2024 14:34:29.000,256.006,11.578,1739.274844
16 Mar 2024 14:35:29.000,242.537,14.977,1543.545078
16 Mar 2024 14:36:29.000,225.785,17.002,1442.857054
16 Mar 2024 14:37:29.000,207.846,16.667,1457.380171
16 Mar 2024 14:38:29.000,191.796,14.153,1583.821554
16 Mar 2024 14:39:29.000,179.208,10.568,1798.241383
16 Mar 2024 14:40:14.037,171.943,7.737,1999.998931
17 Mar 2024 06:07:53.488,181.980,7.729,1999.997472
17 Mar 2024 06:08:53.000,171.299,11.023,1768.131468
17 Mar 2024 06:09:53.000,157.546,13.727,1607.004554
17 Mar 2024 06:10:53.000,141.454,14.948,1542.555994
17 Mar 2024 06:11:53.000,125.121,14.137,1586.946721
17 Mar 2024 06:12:53.000,110.830,11.678,1731.740823
17 Mar 2024 06:13:53.000,99.528,8.439,1954.327567
17 Mar 2024 06:14:03.626,97.828,7.838,1999.980123
17 Mar 2024 07:46:31.430,236.749,7.786,1999.991252
17 Mar 2024 07:47:31.000,234.828,13.621,1615.357378
17 Mar 2024 07:48:31.000,231.406,21.941,1242.727493
17 Mar 2024 07:49:31.000,223.978,35.158,905.712266
17 Mar 2024 07:50:31.000,199.759,56.284,663.336020
17 Mar 2024 07:51:31.000,121.102,60.697,636.337627
17 Mar 2024 07:52:31.000,87.974,38.894,845.659803
17 Mar 2024 07:53:31.000,78.917,24.219,1170.216003
17 Mar 2024 07:54:31.000,75.008,15.167,1537.897262
17 Mar 2024 07:55:31.000,72.888,8.919,1923.116820
17 Mar 2024 07:55:42.803,72.584,7.891,1999.989892
17 Mar 2024 09:27:19.961,272.451,7.860,1999.991062
17 Mar 2024 09:28:19.000,275.725,13.510,1626.275058
17 Mar 2024 09:29:19.000,281.219,21.440,1264.317250
17 Mar 2024 09:30:19.000,292.117,33.297,943.313534
17 Mar 2024 09:31:19.000,319.969,49.228,722.141825
17 Mar 2024 09:32:19.000,16.561,51.318,703.429582
17 Mar 2024 09:33:19.000,49.231,35.653,899.920753
17 Mar 2024 09:34:19.000,61.644,23.014,1210.516402
17 Mar 2024 09:35:19.000,67.682,14.608,1568.027742
17 Mar 2024 09:36:19.000,71.250,8.615,1945.779768
17 Mar 2024 09:36:27.466,71.641,7.895,1999.990390
17 Mar 2024 11:08:20.526,289.438,7.896,1999.991658
17 Mar 2024 11:09:20.000,292.363,13.635,1621.230907
17 Mar 2024 11:10:20.000,297.253,21.711,1255.713431
17 Mar 2024 11:11:20.000,307.117,34.068,928.947769
17 Mar 2024 11:12:20.000,334.254,51.754,699.702811
17 Mar 2024 11:13:20.000,37.300,54.608,676.924048
17 Mar 2024 11:14:20.000,70.848,36.963,876.944566
17 Mar 2024 11:15:20.000,82.398,23.538,1191.991333
17 Mar 2024 11:16:20.000,87.851,14.859,1552.800483
17 Mar 2024 11:17:20.000,91.036,8.752,1932.948282
17 Mar 2024 11:17:30.412,91.462,7.857,1999.990421
17 Mar 2024 12:49:05.349,285.702,7.891,1999.982482
17 Mar 2024 12:50:05.000,282.701,13.635,1620.346442
17 Mar 2024 12:51:05.000,277.458,21.649,1256.692343
17 Mar 2024 12:52:05.000,266.629,33.678,935.047394
17 Mar 2024 12:53:05.000,238.081,49.693,716.523320
17 Mar 2024 12:54:05.000,181.235,50.847,705.666970
17 Mar 2024 12:55:05.000,149.985,34.922,909.970706
17 Mar 2024 12:56:05.000,138.306,22.428,1225.703032
17 Mar 2024 12:57:05.000,132.743,14.135,1586.890506
17 Mar 2024 12:58:05.000,129.565,8.210,1967.657759
17 Mar 2024 12:58:10.015,129.361,7.784,1999.983818
17 Mar 2024 14:31:13.495,254.154,7.828,1999.994038
17 Mar 2024 14:32:13.000,242.432,10.190,1828.060415
17 Mar 2024 14:33:13.000,228.607,11.571,1736.622815
17 Mar 2024 14:34:13.000,214.001,11.486,1740.683992
17 Mar 2024 14:35:13.000,200.312,9.963,1839.506494
17 Mar 2024 14:36:07.634,189.636,7.740,1999.993480
18 Mar 2024 06:04:04.109,197.023,7.731,1999.986367
18 Mar 2024 06:05:04.000,188.190,12.087,1701.436493
18 Mar 2024 06:06:04.000,175.539,16.624,1458.075643
18 Mar 2024 06:07:04.000,158.156,20.255,1303.378094
18 Mar 2024 06:08:04.000,137.513,21.141,1270.897616
18 Mar 2024 06:09:04.000,118.116,18.674,1369.539953
18 Mar 2024 06:10:04.000,103.190,14.406,1574.579420
18 Mar 2024 06:11:04.000,92.672,9.903,1850.386675
18 Mar 2024 06:11:32.916,88.805,7.855,1999.985157
18 Mar 2024 07:43:28.011,245.983,7.801,1999.984822
18 Mar 2024 07:44:28.000,245.666,13.749,1609.151015
18 Mar 2024 07:45:28.000,245.011,22.305,1230.699445
18 Mar 2024 07:46:28.000,243.393,36.475,883.248087
18 Mar 2024 07:47:28.000,236.384,63.124,623.454724
18 Mar 2024 07:48:28.000,88.476,73.357,584.630890
18 Mar 2024 07:49:28.000,74.063,42.196,799.707355
18 Mar 2024 07:50:28.000,71.863,25.500,1131.673398
18 Mar 2024 07:51:28.000,71.062,15.837,1504.225508
18 Mar 2024 07:52:28.000,70.703,9.348,1892.531151
18 Mar 2024 07:52:44.390,70.644,7.894,1999.982979
18 Mar 2024 09:24:26.569,277.994,7.869,1999.981717
18 Mar 2024 09:25:26.000,281.700,13.511,1626.793054
18 Mar 2024 09:26:26.000,287.859,21.308,1269.539584
18 Mar 2024 09:27:26.000,299.860,32.669,956.158721
18 Mar 2024 09:28:26.000,328.398,46.842,746.087236
18 Mar 2024 09:29:26.000,19.501,47.926,735.049151
18 Mar 2024 09:30:26.000,50.591,34.004,930.170590
18 Mar 2024 09:31:26.000,63.534,22.237,1236.979729
18 Mar 2024 09:32:26.000,70.051,14.171,1591.354277
18 Mar 2024 09:33:26.000,73.952,8.328,1966.772433
18 Mar 2024 09:33:31.216,74.219,7.890,1999.976136
18 Mar 2024 11:05:22.239,290.350,7.897,1999.987939
18 Mar 2024 11:06:22.000,292.438,13.744,1615.097318
18 Mar 2024 11:07:22.000,295.917,22.065,1243.013578
18 Mar 2024 11:08:22.000,303.122,35.327,905.531771
18 Mar 2024 11:09:22.000,326.350,56.949,660.395769
18 Mar 2024 11:10:22.000,48.805,62.314,628.514849
18 Mar 2024 11:11:22.000,82.699,39.648,834.817645
18 Mar 2024 11:12:22.000,91.722,24.599,1157.874730
18 Mar 2024 11:13:22.000,95.745,15.394,1524.418965
18 Mar 2024 11:14:22.000,98.060,9.074,1908.586913
18 Mar 2024 11:14:36.065,98.471,7.844,1999.977908
18 Mar 2024 12:46:10.536,282.048,7.884,1999.982196
18 Mar 2024 12:47:10.000,277.151,13.325,1637.305854
18 Mar 2024 12:48:10.000,268.981,20.506,1298.572463
18 Mar 2024 12:49:10.000,253.972,29.822,1016.737735
18 Mar 2024 12:50:10.000,225.662,38.417,851.874644
18 Mar 2024 12:51:10.000,188.757,37.014,873.645664
18 Mar 2024 12:52:10.000,163.831,27.566,1070.631091
18 Mar 2024 12:53:10.000,150.792,18.664,1368.616296
18 Mar 2024 12:54:10.000,143.517,11.906,1714.911027
18 Mar 2024 12:54:56.486,139.868,7.769,1999.990639
19 Mar 2024 06:00:31.408,209.778,7.739,1999.979245
19 Mar 2024 06:01:31.000,203.024,12.772,1660.942546
19 Mar 2024 06:02:31.000,192.444,18.863,1358.728488
19 Mar 2024 06:03:31.000,175.416,25.408,1129.383820
19 Mar 2024 06:04:31.000,150.392,29.402,1024.293522
19 Mar 2024 06:05:31.000,123.708,27.202,1080.802877
19 Mar 2024 06:06:31.000,104.114,21.019,1277.495947
19 Mar 2024 06:07:31.000,91.853,14.668,1561.734312
19 Mar 2024 06:08:31.000,84.123,9.300,1893.697246
19 Mar 2024 06:08:49.171,82.354,7.866,1999.983090
19 Mar 2024 07:40:28.717,254.486,7.816,1999.975663
19 Mar 2024 07:41:28.000,255.532,13.666,1614.729163
19 Mar 2024 07:42:28.000,257.254,22.132,1237.448022
19 Mar 2024 07:43:28.000,260.825,36.025,891.418419
19 Mar 2024 07:44:28.000,274.018,61.417,632.609105
19 Mar 2024 07:45:28.000,35.316,71.257,591.134873
19 Mar 2024 07:46:28.000,61.291,42.073,801.548314
19 Mar 2024 07:47:28.000,66.109,25.547,1130.528697
19 Mar 2024 07:48:28.000,68.193,15.901,1501.248511
19 Mar 2024 07:49:28.000,69.414,9.409,1888.272779
19 Mar 2024 07:49:45.085,69.681,7.895,1999.977913
19 Mar 2024 09:21:32.440,282.547,7.877,1999.975228
19 Mar 2024 09:22:32.000,286.391,13.515,1627.017215
19 Mar 2024 09:23:32.000,292.756,21.266,1271.362117
19 Mar 2024 09:24:32.000,305.083,32.462,960.525546
19 Mar 2024 09:25:32.000,333.752,46.102,754.055409
19 Mar 2024 09:26:32.000,23.323,46.910,745.444597
19 Mar 2024 09:27:32.000,53.910,33.482,940.164008
19 Mar 2024 09:28:32.000,66.978,21.980,1245.787003
19 Mar 2024 09:29:32.000,73.627,14.021,1599.167419
19 Mar 2024 09:30:32.000,77.624,8.227,1973.849360
19 Mar 2024 09:30:36.111,77.841,7.883,1999.975051
19 Mar 2024 11:02:23.012,290.269,7.896,1999.999647
19 Mar 2024 11:03:23.000,291.233,13.828,1610.224170
19 Mar 2024 11:04:23.000,292.777,22.344,1232.991383
19 Mar 2024 11:05:23.000,295.953,36.370,887.060402
19 Mar 2024 11:06:23.000,307.903,62.226,628.931517
19 Mar 2024 11:07:23.000,76.123,71.693,589.813474
19 Mar 2024 11:08:23.000,99.027,41.949,802.547942
19 Mar 2024 11:09:23.000,103.199,25.413,1132.724123
19 Mar 2024 11:10:23.000,105.008,15.780,1504.125812
19 Mar 2024 11:11:23.000,106.066,9.296,1891.644313
19 Mar 2024 11:11:39.551,106.290,7.829,1999.976347
19 Mar 2024 12:43:20.071,277.111,7.874,1999.987913
19 Mar 2024 12:44:20.000,270.134,12.880,1662.201364
19 Mar 2024 12:45:20.000,259.299,18.832,1364.957413
19 Mar 2024 12:46:20.000,242.092,25.052,1142.649592
19 Mar 2024 12:47:20.000,217.418,28.580,1045.287571
19 Mar 2024 12:48:20.000,191.607,26.234,1106.693189
19 Mar 2024 12:49:20.000,172.583,20.243,1304.392121
19 Mar 2024 12:50:20.000,160.500,14.092,1587.649520
19 Mar 2024 12:51:20.000,152.773,8.854,1918.069202
19 Mar 2024 12:51:34.103,151.371,7.757,1999.999859
20 Mar 2024 05:57:09.823,221.172,7.750,1999.991007
20 Mar 2024 05:58:09.000,216.465,13.195,1637.101633
20 Mar 2024 05:59:09.000,208.578,20.465,1295.138305
20 Mar 2024 06:00:09.000,193.949,30.070,1008.185323
20 Mar 2024 06:01:09.000,165.532,39.352,836.603120
20 Mar 2024 06:02:09.000,127.204,38.255,853.849336
20 Mar 2024 06:03:09.000,101.533,28.405,1050.621864
20 Mar 2024 06:04:09.000,88.445,19.195,1350.072836
20 Mar 2024 06:05:09.000,81.271,12.283,1697.918757
20 Mar 2024 06:05:58.032,77.553,7.874,1999.989638
20 Mar 2024 07:37:32.272,262.229,7.829,1999.991056
20 Mar 2024 07:38:32.000,264.392,13.668,1615.465576
20 Mar 2024 07:39:32.000,268.013,21.970,1243.792034
20 Mar 2024 07:40:32.000,275.517,35.156,907.185119
20 Mar 2024 07:41:32.000,299.334,56.384,663.600349
20 Mar 2024 07:42:32.000,19.220,61.458,632.905721
20 Mar 2024 07:43:32.000,53.283,39.401,838.849931
20 Mar 2024 07:44:32.000,62.638,24.532,1161.211313
20 Mar 2024 07:45:32.000,66.840,15.387,1527.163415
20 Mar 2024 07:46:32.000,69.270,9.093,1910.821586
20 Mar 2024 07:46:45.741,69.694,7.894,1999.990240
20 Mar 2024 09:18:37.018,286.069,7.882,1999.990964
20 Mar 2024 09:19:37.000,289.796,13.586,1623.267387
20 Mar 2024 09:20:37.000,295.948,21.416,1265.993248
20 Mar 2024 09:21:37.000,307.970,32.847,952.710061
20 Mar 2024 09:22:37.000,336.723,47.112,743.269958
20 Mar 2024 09:23:37.000,28.186,48.036,733.828229
20 Mar 2024 09:24:37.000,59.121,33.970,930.526328
20 Mar 2024 09:25:37.000,71.936,22.184,1238.275250
20 Mar 2024 09:26:37.000,78.383,14.121,1593.199553
20 Mar 2024 09:27:37.000,82.242,8.283,1968.983935
20 Mar 2024 09:27:41.865,82.489,7.874,1999.977129
20 Mar 2024 10:59:23.511,289.214,7.893,1999.981514
20 Mar 2024 11:00:23.000,288.785,13.780,1612.656077
20 Mar 2024 11:01:23.000,287.904,22.295,1234.391506
20 Mar 2024 11:02:23.000,285.771,36.354,887.008693
20 Mar 2024 11:03:23.000,276.800,62.600,626.708682
20 Mar 2024 11:04:23.000,138.139,72.906,585.865948
20 Mar 2024 11:05:23.000,119.586,42.182,799.021778
20 Mar 2024 11:06:23.000,116.635,25.476,1130.150319
20 Mar 2024 11:07:23.000,115.513,15.795,1502.398424
20 Mar 2024 11:08:23.000,114.963,9.293,1890.643561
20 Mar 2024 11:08:39.678,114.862,7.813,1999.990586
20 Mar 2024 12:40:36.977,270.470,7.861,1999.986812
20 Mar 2024 12:41:36.000,261.613,12.062,1710.139591
20 Mar 2024 12:42:36.000,248.865,16.418,1472.424128
20 Mar 2024 12:43:36.000,231.586,19.780,1324.264331
20 Mar 2024 12:44:36.000,211.373,20.445,1297.290583
20 Mar 2024 12:45:36.000,192.500,17.958,1398.563960
20 Mar 2024 12:46:36.000,177.904,13.796,1603.574953
20 Mar 2024 12:47:36.000,167.511,9.407,1877.961476
20 Mar 2024 12:47:59.845,164.290,7.748,1999.977806
21 Mar 2024 04:15:51.801,172.337,7.716,1999.987487
21 Mar 2024 04:16:51.000,160.829,10.252,1818.195246
21 Mar 2024 04:17:51.000,146.988,11.886,1714.169544
21 Mar 2024 04:18:51.000,132.115,12.038,1706.161931
21 Mar 2024 04:19:51.000,117.999,10.653,1795.572992
21 Mar 2024 04:20:51.000,105.966,8.217,1968.936637
21 Mar 2024 04:20:59.736,104.419,7.812,1999.983972
21 Mar 2024 05:53:56.484,231.591,7.764,1999.991770
21 Mar 2024 05:54:56.000,228.744,13.510,1620.067040
21 Mar 2024 05:55:56.000,223.774,21.574,1254.577802
21 Mar 2024 05:56:56.000,213.457,33.808,929.867996
21 Mar 2024 05:57:56.000,185.398,50.647,706.722924
21 Mar 2024 05:58:56.000,125.872,52.356,692.666807
21 Mar 2024 05:59:56.000,93.990,35.665,897.604730
21 Mar 2024 06:00:56.000,82.586,22.823,1214.856443
21 Mar 2024 06:01:56.000,77.257,14.403,1577.240246
21 Mar 2024 06:02:56.000,74.252,8.422,1958.862820
21 Mar 2024 06:03:02.365,74.010,7.880,1999.975359
21 Mar 2024 07:34:37.496,269.155,7.841,1999.998584
21 Mar 2024 07:35:37.000,272.136,13.579,1621.229558
21 Mar 2024 07:36:37.000,277.128,21.639,1256.169078
21 Mar 2024 07:37:37.000,287.185,33.929,930.336044
21 Mar 2024 07:38:37.000,314.532,51.331,702.691811
21 Mar 2024 07:39:37.000,16.415,54.004,681.237876
21 Mar 2024 07:40:37.000,49.771,36.718,881.189929
21 Mar 2024 07:41:37.000,61.467,23.448,1195.714148
21 Mar 2024 07:42:37.000,67.024,14.828,1556.023260
21 Mar 2024 07:43:37.000,70.282,8.748,1935.725468
21 Mar 2024 07:43:46.990,70.701,7.892,1999.978195
21 Mar 2024 09:15:40.053,288.548,7.886,1999.982114
21 Mar 2024 09:16:40.000,291.841,13.640,1620.378296
21 Mar 2024 09:17:40.000,297.305,21.627,1258.331006
21 Mar 2024 09:18:40.000,308.197,33.618,937.373369
21 Mar 2024 09:19:40.000,336.388,49.772,717.079053
21 Mar 2024 09:20:40.000,33.871,51.572,701.026862
21 Mar 2024 09:21:40.000,66.212,35.600,900.273941
21 Mar 2024 09:22:40.000,78.371,22.922,1212.503620
21 Mar 2024 09:23:40.000,84.277,14.520,1570.968513
21 Mar 2024 09:24:40.000,87.764,8.535,1949.360471
21 Mar 2024 09:24:47.895,88.121,7.863,1999.980010
21 Mar 2024 10:56:24.601,287.181,7.889,1999.981342
21 Mar 2024 10:57:24.000,285.133,13.691,1617.174373
21 Mar 2024 10:58:24.000,281.461,21.962,1245.622969
21 Mar 2024 10:59:24.000,273.517,35.003,910.362565
21 Mar 2024 11:00:24.000,248.394,55.344,670.559089
21 Mar 2024 11:01:24.000,173.803,59.211,644.781852
21 Mar 2024 11:02:24.000,140.580,38.352,852.749356
21 Mar 2024 11:03:24.000,130.999,23.950,1175.905317
21 Mar 2024 11:04:24.000,126.793,14.981,1542.694262
21 Mar 2024 11:05:24.000,124.480,8.766,1927.367463
21 Mar 2024 11:05:35.161,124.162,7.797,1999.976755
21 Mar 2024 12:38:07.359,261.112,7.843,1999.980926
21 Mar 2024 12:39:07.000,250.237,11.003,1775.361138
21 Mar 2024 12:40:07.000,236.423,13.484,1623.950496
21 Mar 2024 12:41:07.000,220.514,14.450,1569.630253
21 Mar 2024 12:42:07.000,204.589,13.471,1622.309757
21 Mar 2024 12:43:07.000,190.735,10.977,1772.205095
21 Mar 2024 12:44:07.000,179.751,7.783,1996.970890
21 Mar 2024 12:44:07.709,179.638,7.744,1999.979583
22 Mar 2024 04:11:47.807,189.493,7.713,1999.976728
22 Mar 2024 04:12:47.000,179.756,11.526,1734.919434
22 Mar 2024 04:13:47.000,166.422,15.133,1530.607911
22 Mar 2024 04:14:47.000,149.571,17.444,1420.204243
22 Mar 2024 04:15:47.000,131.223,17.337,1426.223030
22 Mar 2024 04:16:47.000,114.665,14.880,1547.351470
22 Mar 2024 04:17:47.000,101.706,11.237,1759.632739
22 Mar 2024 04:18:40.062,93.129,7.833,1999.982958
22 Mar 2024 05:50:49.481,241.210,7.778,1999.991154
22 Mar 2024 05:51:49.000,240.079,13.648,1613.253821
22 Mar 2024 05:52:49.000,238.007,22.101,1236.571707
22 Mar 2024 05:53:49.000,233.345,35.888,892.368775
22 Mar 2024 05:54:49.000,215.817,60.273,638.000643
22 Mar 2024 05:55:49.000,111.341,67.867,602.285881
22 Mar 2024 05:56:49.000,81.623,41.027,814.582078
22 Mar 2024 05:57:49.000,75.522,25.064,1143.765397
22 Mar 2024 05:58:49.000,73.052,15.611,1514.643898
22 Mar 2024 05:59:49.000,71.767,9.203,1901.967995
22 Mar 2024 06:00:03.979,71.542,7.883,1999.977380
22 Mar 2024 07:31:43.307,275.192,7.852,1999.986912
22 Mar 2024 07:32:43.000,278.738,13.545,1623.766673
22 Mar 2024 07:33:43.000,284.629,21.421,1264.500320
22 Mar 2024 07:34:43.000,296.221,33.038,948.047502
22 Mar 2024 07:35:43.000,324.709,47.973,734.015817
22 Mar 2024 07:36:43.000,18.154,49.300,721.289340
22 Mar 2024 07:37:43.000,49.736,34.615,918.285772
22 Mar 2024 07:38:43.000,62.393,22.503,1227.376903
22 Mar 2024 07:39:43.000,68.680,14.310,1583.436237
22 Mar 2024 07:40:43.000,72.425,8.415,1960.049315
22 Mar 2024 07:40:49.256,72.731,7.887,1999.986715
22 Mar 2024 09:12:41.577,289.994,7.887,1999.999912
22 Mar 2024 09:13:41.000,292.549,13.656,1619.474830
22 Mar 2024 09:14:41.000,296.827,21.837,1250.724840
22 Mar 2024 09:15:41.000,305.566,34.595,918.664417
22 Mar 2024 09:16:41.000,331.304,53.982,681.492383
22 Mar 2024 09:17:41.000,41.636,57.941,653.675796
22 Mar 2024 09:18:41.000,75.911,38.246,855.984232
22 Mar 2024 09:19:41.000,86.529,24.069,1174.540320
22 Mar 2024 09:20:41.000,91.404,15.135,1537.967843
22 Mar 2024 09:21:41.000,94.228,8.923,1919.984889
22 Mar 2024 09:21:53.368,94.672,7.850,1999.969796
22 Mar 2024 10:53:27.420,284.118,7.883,1999.978929
22 Mar 2024 10:54:27.000,280.235,13.506,1627.032500
22 Mar 2024 10:55:27.000,273.589,21.180,1273.373031
22 Mar 2024 10:56:27.000,260.544,32.019,968.174123
22 Mar 2024 10:57:27.000,231.368,44.269,773.012051
22 Mar 2024 10:58:27.000,185.587,43.914,776.753235
22 Mar 2024 10:59:27.000,157.214,31.518,977.086676
22 Mar 2024 11:00:27.000,144.501,20.784,1284.598626
22 Mar 2024 11:01:27.000,137.970,13.193,1639.227956
22 Mar 2024 11:02:24.604,134.222,7.781,1999.981977
22 Mar 2024 12:36:11.960,245.131,7.812,1999.999865
22 Mar 2024 12:37:11.000,232.892,9.197,1896.012185
22 Mar 2024 12:38:11.000,219.544,9.463,1875.823660
