aer_data/CR_AER.csv

Time (UTCG),Azimuth (deg),Elevation (deg),Range (km)
31 Mar 2023 16:00:00.000,69.750,10.784,1798.159811
31 Mar 2023 16:00:15.824,70.560,9.315,1898.715905
31 Mar 2023 16:00:31.647,71.288,7.943,1999.978753
31 Mar 2023 17:32:29.525,289.185,7.946,1999.991750
31 Mar 2023 17:33:29.000,292.230,13.679,1622.200495
31 Mar 2023 17:34:29.000,297.316,21.726,1258.104197
31 Mar 2023 17:35:29.000,307.526,33.948,933.523649
31 Mar 2023 17:36:29.000,334.979,51.076,707.286124
31 Mar 2023 17:37:29.000,35.902,53.629,686.053254
31 Mar 2023 17:38:29.000,69.162,36.618,884.799157
31 Mar 2023 17:39:29.000,80.986,23.428,1198.205779
31 Mar 2023 17:40:29.000,86.619,14.822,1557.781597
31 Mar 2023 17:41:29.000,89.920,8.742,1937.022288
31 Mar 2023 17:41:38.798,90.336,7.902,1999.977102
31 Mar 2023 19:13:18.939,286.202,7.938,1999.978737
31 Mar 2023 19:14:18.000,283.541,13.654,1622.518284
31 Mar 2023 19:15:18.000,278.829,21.743,1256.028157
31 Mar 2023 19:16:18.000,268.963,34.090,929.263072
31 Mar 2023 19:17:18.000,241.449,51.484,702.243102
31 Mar 2023 19:18:18.000,179.767,53.661,684.041831
31 Mar 2023 19:19:18.000,147.308,36.299,887.657267
31 Mar 2023 19:20:18.000,136.085,23.112,1204.975199
31 Mar 2023 19:21:18.000,130.893,14.546,1567.613419
31 Mar 2023 19:22:18.000,127.966,8.496,1949.447477
31 Mar 2023 19:22:25.818,127.678,7.825,1999.982638
31 Mar 2023 20:55:22.898,256.525,7.873,1999.999371
31 Mar 2023 20:56:22.000,245.146,10.489,1811.272182
31 Mar 2023 20:57:22.000,231.293,12.231,1699.116449
31 Mar 2023 20:58:22.000,216.245,12.471,1683.323775
31 Mar 2023 20:59:22.000,201.848,11.110,1766.453390
31 Mar 2023 21:00:22.000,189.533,8.638,1935.427299
31 Mar 2023 21:00:40.050,186.319,7.776,1999.989084
1 Apr 2023 12:29:12.653,195.145,7.791,1999.988200
1 Apr 2023 12:30:12.000,186.140,11.994,1711.373619
1 Apr 2023 12:31:12.000,173.318,16.306,1477.225710
1 Apr 2023 12:32:12.000,156.067,19.597,1333.002276
1 Apr 2023 12:33:12.000,136.036,20.217,1309.460459
1 Apr 2023 12:34:12.000,117.401,17.764,1412.796981
1 Apr 2023 12:35:12.000,102.977,13.676,1618.605170
1 Apr 2023 12:36:12.000,92.685,9.352,1893.159727
1 Apr 2023 12:36:32.939,89.858,7.910,1999.998699
1 Apr 2023 14:08:35.953,244.822,7.859,1999.976914
1 Apr 2023 14:09:35.000,244.318,13.703,1615.658093
1 Apr 2023 14:10:35.000,243.330,22.203,1237.561613
1 Apr 2023 14:11:35.000,241.001,36.205,890.369185
1 Apr 2023 14:12:35.000,231.436,62.220,629.902010
1 Apr 2023 14:13:35.000,96.401,72.965,587.456391
1 Apr 2023 14:14:35.000,76.008,42.449,798.673781
1 Apr 2023 14:15:35.000,72.765,25.703,1128.672373
1 Apr 2023 14:16:35.000,71.541,15.989,1500.213939
1 Apr 2023 14:17:35.000,70.950,9.468,1887.921208
1 Apr 2023 14:17:52.111,70.841,7.947,1999.976390
1 Apr 2023 15:49:38.320,277.356,7.924,1999.972666
1 Apr 2023 15:50:38.000,281.046,13.605,1625.253226
1 Apr 2023 15:51:38.000,287.165,21.436,1268.027941
1 Apr 2023 15:52:38.000,299.116,32.869,954.641953
1 Apr 2023 15:53:38.000,327.718,47.177,744.610859
1 Apr 2023 15:54:38.000,19.246,48.243,733.860013
1 Apr 2023 15:55:38.000,50.358,34.173,929.344607
1 Apr 2023 15:56:38.000,63.224,22.339,1236.346851
1 Apr 2023 15:57:38.000,69.689,14.243,1590.779579
1 Apr 2023 15:58:38.000,73.557,8.386,1966.183242
1 Apr 2023 15:58:43.312,73.827,7.939,1999.999936
1 Apr 2023 17:30:39.426,290.297,7.948,2000.000010
1 Apr 2023 17:31:39.000,292.497,13.771,1617.067099
1 Apr 2023 17:32:39.000,296.173,22.062,1246.015598
1 Apr 2023 17:33:39.000,303.758,35.201,910.056448
1 Apr 2023 17:34:39.000,327.639,56.245,666.868542
1 Apr 2023 17:35:39.000,46.685,61.333,635.319950
1 Apr 2023 17:36:39.000,80.956,39.450,839.742778
1 Apr 2023 17:37:39.000,90.433,24.576,1161.126041
1 Apr 2023 17:38:39.000,94.684,15.412,1526.545965
1 Apr 2023 17:39:39.000,97.131,9.102,1909.925601
1 Apr 2023 17:39:52.883,97.561,7.888,1999.980191
1 Apr 2023 19:11:31.838,282.536,7.931,1999.975275
1 Apr 2023 19:12:31.000,277.902,13.389,1636.913307
1 Apr 2023 19:13:31.000,270.093,20.685,1294.505021
1 Apr 2023 19:14:31.000,255.533,30.350,1006.788706
1 Apr 2023 19:15:31.000,227.033,39.733,834.082998
1 Apr 2023 19:16:31.000,188.371,38.599,850.391686
1 Apr 2023 19:17:31.000,162.583,28.582,1046.845627
1 Apr 2023 19:18:31.000,149.501,19.265,1346.233967
1 Apr 2023 19:19:31.000,142.338,12.297,1694.015456
1 Apr 2023 19:20:20.671,138.576,7.810,1999.990739
2 Apr 2023 12:26:44.645,208.741,7.799,1999.999572
2 Apr 2023 12:27:44.000,201.846,12.768,1665.426830
2 Apr 2023 12:28:44.000,191.083,18.743,1367.521582
2 Apr 2023 12:29:44.000,173.990,25.035,1143.767205
2 Apr 2023 12:30:44.000,149.366,28.712,1044.142687
2 Apr 2023 12:31:44.000,123.427,26.495,1103.251698
2 Apr 2023 12:32:44.000,104.249,20.531,1299.456602
2 Apr 2023 12:33:44.000,92.088,14.362,1582.004623
2 Apr 2023 12:34:44.000,84.342,9.101,1912.198427
2 Apr 2023 12:34:59.101,82.846,7.923,1999.971595
2 Apr 2023 14:06:44.226,253.828,7.874,1999.987264
2 Apr 2023 14:07:44.000,254.783,13.793,1611.685881
2 Apr 2023 14:08:44.000,256.339,22.310,1234.619588
2 Apr 2023 14:09:44.000,259.561,36.319,888.957578
2 Apr 2023 14:10:44.000,271.644,62.071,631.028864
2 Apr 2023 14:11:44.000,38.633,71.779,591.264737
2 Apr 2023 14:12:44.000,62.217,42.150,802.835831
2 Apr 2023 14:13:44.000,66.511,25.593,1132.180839
2 Apr 2023 14:14:44.000,68.379,15.939,1502.970509
2 Apr 2023 14:15:44.000,69.481,9.442,1889.960121
2 Apr 2023 14:16:00.832,69.721,7.948,1999.994854
2 Apr 2023 15:47:52.527,282.242,7.933,1999.976358
2 Apr 2023 15:48:52.000,286.079,13.568,1627.838521
2 Apr 2023 15:49:52.000,292.441,21.323,1272.479648
2 Apr 2023 15:50:52.000,304.755,32.519,961.941979
2 Apr 2023 15:51:52.000,333.370,46.152,755.587175
2 Apr 2023 15:52:52.000,22.899,47.001,746.525673
2 Apr 2023 15:53:52.000,53.531,33.589,940.499029
2 Apr 2023 15:54:52.000,66.625,22.071,1245.535169
2 Apr 2023 15:55:52.000,73.286,14.096,1598.495883
2 Apr 2023 15:56:52.000,77.290,8.290,1972.857510
2 Apr 2023 15:56:56.273,77.516,7.932,1999.990303
2 Apr 2023 17:28:48.251,290.311,7.948,1999.990721
2 Apr 2023 17:29:48.000,291.363,13.857,1612.193734
2 Apr 2023 17:30:48.000,293.064,22.358,1235.469770
2 Apr 2023 17:31:48.000,296.574,36.319,890.181408
2 Apr 2023 17:32:48.000,309.631,61.837,632.606397
2 Apr 2023 17:33:48.000,72.607,71.261,592.681720
2 Apr 2023 17:34:48.000,97.617,42.011,803.683471
2 Apr 2023 17:35:48.000,102.263,25.500,1132.700458
2 Apr 2023 17:36:48.000,104.270,15.855,1503.386442
2 Apr 2023 17:37:48.000,105.437,9.360,1890.410702
2 Apr 2023 17:38:04.757,105.687,7.873,1999.979759
2 Apr 2023 19:09:49.271,277.489,7.922,1999.983436
2 Apr 2023 19:10:49.000,270.682,12.955,1661.134866
2 Apr 2023 19:11:49.000,260.029,19.007,1360.515811
2 Apr 2023 19:12:49.000,242.931,25.445,1133.454481
2 Apr 2023 19:13:49.000,217.988,29.261,1030.850108
2 Apr 2023 19:14:49.000,191.572,26.964,1088.840260
2 Apr 2023 19:15:49.000,172.165,20.800,1285.647408
2 Apr 2023 19:16:49.000,159.959,14.486,1569.282724
2 Apr 2023 19:17:49.000,152.219,9.142,1900.406745
2 Apr 2023 19:18:06.079,150.542,7.797,1999.990474
3 Apr 2023 12:24:29.311,220.775,7.812,1999.981588
3 Apr 2023 12:25:29.000,215.947,13.305,1635.080839
3 Apr 2023 12:26:29.000,207.920,20.568,1294.914330
3 Apr 2023 12:27:29.000,193.091,30.091,1010.746769
3 Apr 2023 12:28:29.000,164.634,39.102,842.925638
3 Apr 2023 12:29:29.000,126.884,37.839,863.018840
3 Apr 2023 12:30:29.000,101.581,28.143,1060.346226
3 Apr 2023 12:31:29.000,88.554,19.060,1359.286115
3 Apr 2023 12:32:29.000,81.367,12.210,1706.448274
3 Apr 2023 12:33:16.752,77.711,7.932,1999.990324
3 Apr 2023 14:04:55.781,262.002,7.889,1999.990904
3 Apr 2023 14:05:55.000,264.112,13.680,1618.863466
3 Apr 2023 14:06:55.000,267.665,21.972,1247.170866
3 Apr 2023 14:07:55.000,275.011,35.136,910.226384
3 Apr 2023 14:08:55.000,298.321,56.422,665.354799
3 Apr 2023 14:09:55.000,18.770,61.987,631.991005
3 Apr 2023 14:10:55.000,53.304,39.766,835.911171
3 Apr 2023 14:11:55.000,62.647,24.758,1157.354480
3 Apr 2023 14:12:55.000,66.823,15.544,1522.837090
3 Apr 2023 14:13:55.000,69.232,9.214,1906.196523
3 Apr 2023 14:14:09.462,69.673,7.948,1999.999971
3 Apr 2023 15:46:05.376,285.994,7.939,1999.984798
3 Apr 2023 15:47:05.000,289.702,13.610,1625.815883
3 Apr 2023 15:48:05.000,295.848,21.428,1268.809202
3 Apr 2023 15:49:05.000,307.835,32.829,955.685728
3 Apr 2023 15:50:05.000,336.422,47.059,745.893971
3 Apr 2023 15:51:05.000,27.726,48.113,735.075964
3 Apr 2023 15:52:05.000,58.808,34.112,930.239555
3 Apr 2023 15:53:05.000,71.705,22.306,1236.992025
3 Apr 2023 15:54:05.000,78.191,14.219,1591.291356
3 Apr 2023 15:55:05.000,82.070,8.364,1966.643092
3 Apr 2023 15:55:10.237,82.337,7.923,1999.980201
3 Apr 2023 17:26:56.736,289.251,7.946,1999.980341
3 Apr 2023 17:27:56.000,288.860,13.814,1614.332898
3 Apr 2023 17:28:56.000,288.046,22.326,1236.255141
3 Apr 2023 17:29:56.000,286.061,36.371,888.975900
3 Apr 2023 17:30:56.000,277.694,62.594,628.369090
3 Apr 2023 17:31:56.000,136.968,73.320,586.193105
3 Apr 2023 17:32:56.000,119.083,42.409,798.022521
3 Apr 2023 17:33:56.000,116.299,25.621,1128.450687
3 Apr 2023 17:34:56.000,115.249,15.898,1500.291328
3 Apr 2023 17:35:56.000,114.740,9.374,1888.251620
3 Apr 2023 17:36:13.050,114.645,7.857,1999.977787
3 Apr 2023 19:08:14.581,270.606,7.909,1999.991687
3 Apr 2023 19:09:14.000,261.717,12.159,1707.525661
3 Apr 2023 19:10:14.000,248.973,16.550,1469.094990
3 Apr 2023 19:11:14.000,231.657,19.952,1320.154248
3 Apr 2023 19:12:14.000,211.359,20.636,1292.598029
3 Apr 2023 19:13:14.000,192.401,18.131,1393.680988
3 Apr 2023 19:14:14.000,177.760,13.935,1598.797806
3 Apr 2023 19:15:14.000,167.355,9.515,1873.395833
3 Apr 2023 19:15:38.701,164.025,7.788,1999.990111
4 Apr 2023 10:44:13.262,172.488,7.778,1999.990587
4 Apr 2023 10:45:13.000,160.879,10.349,1816.230793
4 Apr 2023 10:46:13.000,147.023,11.990,1712.199412
4 Apr 2023 10:47:13.000,132.133,12.143,1704.211671
4 Apr 2023 10:48:13.000,118.003,10.751,1793.666499
4 Apr 2023 10:49:13.000,105.962,8.304,1967.076185
4 Apr 2023 10:49:22.247,104.325,7.873,1999.983373
4 Apr 2023 12:22:23.185,231.724,7.826,1999.991800
4 Apr 2023 12:23:23.000,228.883,13.617,1618.368444
4 Apr 2023 12:24:23.000,223.938,21.716,1253.153620
4 Apr 2023 12:25:23.000,213.652,34.015,928.815713
4 Apr 2023 12:26:23.000,185.521,50.960,706.252743
4 Apr 2023 12:27:23.000,125.594,52.601,692.881005
4 Apr 2023 12:28:23.000,93.793,35.792,898.120054
4 Apr 2023 12:29:23.000,82.475,22.910,1215.359830
4 Apr 2023 12:30:23.000,77.191,14.470,1577.619516
4 Apr 2023 12:31:23.000,74.213,8.479,1959.080981
4 Apr 2023 12:31:29.334,73.975,7.938,1999.975417
4 Apr 2023 14:03:09.238,269.277,7.902,1999.999143
4 Apr 2023 14:04:09.000,272.288,13.675,1619.997317
4 Apr 2023 14:05:09.000,277.313,21.754,1255.528162
4 Apr 2023 14:06:09.000,287.442,34.062,930.586429
4 Apr 2023 14:07:09.000,314.937,51.398,704.272260
4 Apr 2023 14:08:09.000,16.598,53.924,683.917120
4 Apr 2023 14:09:09.000,49.787,36.709,883.890103
4 Apr 2023 14:10:09.000,61.478,23.475,1198.033107
4 Apr 2023 14:11:09.000,67.044,14.862,1557.955912
4 Apr 2023 14:12:09.000,70.311,8.782,1937.320353
4 Apr 2023 14:12:18.750,70.721,7.946,1999.978052
4 Apr 2023 15:44:16.551,288.598,7.943,1999.992584
4 Apr 2023 15:45:16.000,291.846,13.650,1623.693971
4 Apr 2023 15:46:16.000,297.266,21.627,1261.649281
4 Apr 2023 15:47:16.000,308.050,33.596,940.384994
4 Apr 2023 15:48:16.000,335.957,49.792,718.921800
4 Apr 2023 15:49:16.000,33.530,51.857,700.562684
4 Apr 2023 15:50:16.000,66.204,35.868,897.928476
4 Apr 2023 15:51:16.000,78.440,23.108,1209.186054
4 Apr 2023 15:52:16.000,84.365,14.657,1567.120291
4 Apr 2023 15:53:16.000,87.858,8.642,1945.170880
4 Apr 2023 15:53:24.554,88.244,7.912,1999.979316
4 Apr 2023 17:25:05.878,287.113,7.942,1999.972266
4 Apr 2023 17:26:05.000,285.034,13.717,1619.359169
4 Apr 2023 17:27:05.000,281.299,21.971,1248.313300
4 Apr 2023 17:28:05.000,273.248,34.947,913.696276
4 Apr 2023 17:29:05.000,248.070,55.051,674.416046
4 Apr 2023 17:30:05.000,174.613,58.966,647.903175
4 Apr 2023 17:31:05.000,141.157,38.385,854.291013
4 Apr 2023 17:32:05.000,131.395,24.019,1176.325952
4 Apr 2023 17:33:05.000,127.101,15.045,1542.409867
4 Apr 2023 17:34:05.000,124.736,8.823,1926.601616
4 Apr 2023 17:34:16.290,124.408,7.841,1999.976432
4 Apr 2023 19:06:54.664,260.745,7.889,1999.996144
4 Apr 2023 19:07:54.000,249.881,10.996,1779.138258
4 Apr 2023 19:08:54.000,236.070,13.422,1630.537818
4 Apr 2023 19:09:54.000,220.235,14.334,1578.891030
4 Apr 2023 19:10:54.000,204.437,13.326,1633.537162
4 Apr 2023 19:11:54.000,190.707,10.835,1784.464649
4 Apr 2023 19:12:51.740,180.170,7.786,1999.979756
5 Apr 2023 10:41:15.019,190.349,7.775,1999.987144
5 Apr 2023 10:42:15.000,180.574,11.704,1728.291246
5 Apr 2023 10:43:15.000,167.260,15.413,1520.503658
5 Apr 2023 10:44:15.000,150.302,17.841,1406.425170
5 Apr 2023 10:45:15.000,131.714,17.796,1409.547627
5 Apr 2023 10:46:15.000,114.909,15.312,1529.208278
5 Apr 2023 10:47:15.000,101.792,11.598,1741.205987
5 Apr 2023 10:48:11.763,92.631,7.895,1999.985092
5 Apr 2023 12:20:24.052,241.792,7.841,1999.976825
5 Apr 2023 12:21:24.000,240.752,13.774,1610.594006
5 Apr 2023 12:22:24.000,238.847,22.277,1234.077423
5 Apr 2023 12:23:24.000,234.526,36.186,890.070788
5 Apr 2023 12:24:24.000,217.918,60.981,636.125288
5 Apr 2023 12:25:24.000,108.930,68.617,601.411682
5 Apr 2023 12:26:24.000,80.677,41.219,814.527110
5 Apr 2023 12:27:24.000,75.056,25.168,1143.983177
5 Apr 2023 12:28:24.000,72.795,15.685,1514.879894
5 Apr 2023 12:29:24.000,71.625,9.263,1902.117532
5 Apr 2023 12:29:38.962,71.422,7.942,1999.982833
5 Apr 2023 14:01:23.350,275.572,7.913,1999.980063
5 Apr 2023 14:02:23.000,279.144,13.606,1624.537746
5 Apr 2023 14:03:23.000,285.077,21.480,1265.929677
5 Apr 2023 14:04:23.000,296.731,33.065,950.357784
5 Apr 2023 14:05:23.000,325.211,47.873,737.283685
5 Apr 2023 14:06:23.000,18.247,49.176,724.666969
5 Apr 2023 14:07:23.000,49.773,34.623,920.796888
5 Apr 2023 14:08:23.000,62.489,22.550,1229.013149
5 Apr 2023 14:09:23.000,68.817,14.362,1584.414663
5 Apr 2023 14:10:23.000,72.590,8.464,1960.527518
5 Apr 2023 14:10:29.190,72.896,7.941,1999.999919
5 Apr 2023 15:42:26.099,290.064,7.945,1999.984603
5 Apr 2023 15:43:26.000,292.585,13.781,1616.426556
5 Apr 2023 15:44:26.000,296.784,22.013,1247.728533
5 Apr 2023 15:45:26.000,305.393,34.891,915.758387
5 Apr 2023 15:46:26.000,331.109,54.571,678.988899
5 Apr 2023 15:47:26.000,42.843,58.439,652.361939
5 Apr 2023 15:48:26.000,76.843,38.403,855.830920
5 Apr 2023 15:49:26.000,87.221,24.147,1174.947273
5 Apr 2023 15:50:26.000,91.978,15.188,1538.599781
5 Apr 2023 15:51:26.000,94.732,8.964,1920.690230
5 Apr 2023 15:51:38.261,95.162,7.899,1999.983362
5 Apr 2023 17:23:16.989,283.837,7.936,1999.975485
5 Apr 2023 17:24:16.000,279.860,13.484,1631.939926
5 Apr 2023 17:25:16.000,273.031,21.079,1280.147542
5 Apr 2023 17:26:16.000,259.767,31.689,977.604428
5 Apr 2023 17:27:16.000,230.849,43.413,785.293416
5 Apr 2023 17:28:16.000,186.521,43.046,789.308295
5 Apr 2023 17:29:16.000,158.432,31.156,987.227918
5 Apr 2023 17:30:16.000,145.531,20.652,1292.327307
5 Apr 2023 17:31:16.000,138.833,13.143,1645.211909
5 Apr 2023 17:32:12.850,135.010,7.824,1999.986040
5 Apr 2023 19:06:15.317,243.025,7.856,1999.993150
5 Apr 2023 19:07:15.000,230.573,9.035,1910.817697
5 Apr 2023 19:08:15.000,217.384,9.065,1907.237952
5 Apr 2023 19:09:15.000,204.774,7.926,1990.321804
5 Apr 2023 19:09:19.588,203.865,7.798,1999.997883
6 Apr 2023 10:38:41.037,204.622,7.781,1999.994193
6 Apr 2023 10:39:41.000,196.957,12.591,1674.636157
6 Apr 2023 10:40:41.000,185.396,18.079,1395.041411
6 Apr 2023 10:41:41.000,167.971,23.354,1195.637356
6 Apr 2023 10:42:41.000,144.753,25.808,1121.069698
6 Apr 2023 10:43:41.000,121.515,23.424,1195.276906
6 Apr 2023 10:44:41.000,104.061,18.187,1394.508196
6 Apr 2023 10:45:41.000,92.492,12.717,1674.148410
6 Apr 2023 10:46:41.000,84.838,7.910,1999.943154
6 Apr 2023 10:46:41.010,84.837,7.910,1999.999783
6 Apr 2023 12:18:30.173,251.049,7.857,1999.979951
6 Apr 2023 12:19:30.000,251.568,13.791,1610.638514
6 Apr 2023 12:20:30.000,252.366,22.342,1232.580803
6 Apr 2023 12:21:30.000,253.942,36.492,885.372107
6 Apr 2023 12:22:30.000,259.841,63.132,625.168186
6 Apr 2023 12:23:30.000,53.726,74.025,584.437689
6 Apr 2023 12:24:30.000,66.173,42.522,797.616145
6 Apr 2023 12:25:30.000,68.268,25.703,1128.489071
6 Apr 2023 12:26:30.000,69.222,15.983,1500.304278
6 Apr 2023 12:27:30.000,69.823,9.464,1888.015652
6 Apr 2023 12:27:47.103,69.962,7.943,1999.990506
6 Apr 2023 13:59:37.052,280.806,7.922,1999.990800
6 Apr 2023 14:00:37.000,284.663,13.611,1624.752624
6 Apr 2023 14:01:37.000,291.024,21.395,1269.362635
6 Apr 2023 14:02:37.000,303.367,32.649,958.966505
6 Apr 2023 14:03:37.000,332.170,46.344,753.310069
6 Apr 2023 14:04:37.000,21.936,47.058,745.784902
6 Apr 2023 14:05:37.000,52.430,33.550,941.165292
6 Apr 2023 14:06:37.000,65.423,22.030,1246.987224
6 Apr 2023 14:07:37.000,72.034,14.063,1600.361892
6 Apr 2023 14:08:37.000,76.010,8.265,1974.955179
6 Apr 2023 14:08:40.939,76.217,7.935,1999.979318
6 Apr 2023 15:40:34.388,290.424,7.945,1999.987935
6 Apr 2023 15:41:34.000,291.872,13.821,1614.060671
6 Apr 2023 15:42:34.000,294.262,22.262,1238.798670
6 Apr 2023 15:43:34.000,299.232,35.992,895.878343
6 Apr 2023 15:44:34.000,316.894,60.178,641.884082
6 Apr 2023 15:45:34.000,61.011,68.165,603.692098
6 Apr 2023 15:46:34.000,91.710,41.369,812.476345
6 Apr 2023 15:47:34.000,98.228,25.291,1139.272922
6 Apr 2023 15:48:34.000,101.051,15.765,1508.477750
6 Apr 2023 15:49:34.000,102.675,9.314,1894.483662
6 Apr 2023 15:49:50.171,103.006,7.884,1999.987078
6 Apr 2023 17:21:31.883,279.266,7.927,1999.997858
6 Apr 2023 17:22:31.000,273.219,13.082,1654.221901
6 Apr 2023 17:23:31.000,263.452,19.572,1337.852277
6 Apr 2023 17:24:31.000,246.966,27.051,1088.662652
6 Apr 2023 17:25:31.000,220.734,32.384,961.646814
6 Apr 2023 17:26:31.000,191.084,30.366,1004.749908
6 Apr 2023 17:27:31.000,169.749,23.262,1199.597827
6 Apr 2023 17:28:31.000,157.048,16.113,1487.117940
6 Apr 2023 17:29:31.000,149.333,10.270,1823.140861
6 Apr 2023 17:30:00.746,146.598,7.810,1999.990382
7 Apr 2023 10:36:21.355,217.074,7.792,1999.982912
7 Apr 2023 10:37:21.000,211.585,13.148,1642.796067
7 Apr 2023 10:38:21.000,202.627,20.045,1314.024825
7 Apr 2023 10:39:21.000,186.813,28.547,1046.991292
7 Apr 2023 10:40:21.000,159.351,35.555,899.948045
7 Apr 2023 10:41:21.000,126.098,33.845,932.192607
7 Apr 2023 10:42:21.000,102.908,25.625,1128.375172
7 Apr 2023 10:43:21.000,89.977,17.600,1421.654880
7 Apr 2023 10:44:21.000,82.479,11.283,1763.435237
7 Apr 2023 10:45:00.077,79.179,7.919,1999.990150
7 Apr 2023 12:16:40.028,259.488,7.871,1999.990926
7 Apr 2023 12:17:40.000,261.287,13.771,1612.673586
7 Apr 2023 12:18:40.000,264.284,22.175,1239.105219
7 Apr 2023 12:19:40.000,270.542,35.712,899.310127
7 Apr 2023 12:20:40.000,291.758,58.581,650.839111
7 Apr 2023 12:21:40.000,22.840,64.859,617.492340
7 Apr 2023 12:22:40.000,55.674,40.443,825.804808
7 Apr 2023 12:23:40.000,63.643,24.958,1150.790042
7 Apr 2023 12:24:40.000,67.158,15.621,1518.495983
7 Apr 2023 12:25:40.000,69.188,9.249,1903.317470
7 Apr 2023 12:25:54.858,69.571,7.943,1999.983247
7 Apr 2023 13:57:49.576,284.921,7.928,1999.991740
7 Apr 2023 13:58:49.000,288.692,13.566,1627.629563
7 Apr 2023 13:59:49.000,294.950,21.344,1271.437259
7 Apr 2023 14:00:49.000,307.099,32.624,959.560167
7 Apr 2023 14:01:49.000,335.655,46.529,751.316665
7 Apr 2023 14:02:49.000,25.967,47.513,741.007657
7 Apr 2023 14:03:49.000,56.858,33.847,935.233304
7 Apr 2023 14:04:49.000,69.886,22.193,1240.940646
7 Apr 2023 14:05:49.000,76.477,14.162,1594.476776
7 Apr 2023 14:06:49.000,80.428,8.332,1969.283815
7 Apr 2023 14:06:53.829,80.679,7.926,1999.982682
7 Apr 2023 15:38:42.077,289.705,7.943,1999.969575
7 Apr 2023 15:39:42.000,289.802,13.891,1609.952688
7 Apr 2023 15:40:42.000,289.840,22.456,1231.747976
7 Apr 2023 15:41:42.000,289.719,36.653,884.255654
7 Apr 2023 15:42:42.000,288.708,63.552,623.676244
7 Apr 2023 15:43:42.000,114.232,74.536,583.070321
7 Apr 2023 15:44:42.000,111.855,42.512,796.953248
7 Apr 2023 15:45:42.000,111.622,25.635,1128.431504
7 Apr 2023 15:46:42.000,111.615,15.901,1500.735428
7 Apr 2023 15:47:42.000,111.677,9.376,1888.893190
7 Apr 2023 15:47:58.948,111.700,7.867,1999.977019
7 Apr 2023 17:19:53.370,273.047,7.915,1999.990130
7 Apr 2023 17:20:53.000,264.795,12.459,1689.966381
7 Apr 2023 17:21:53.000,252.614,17.417,1429.295168
7 Apr 2023 17:22:53.000,235.150,21.733,1253.734857
7 Apr 2023 17:23:53.000,213.367,23.211,1201.911249
7 Apr 2023 17:24:53.000,192.364,20.726,1288.969985
7 Apr 2023 17:25:53.000,176.350,16.037,1490.431648
7 Apr 2023 17:26:53.000,165.328,11.114,1766.928945
7 Apr 2023 17:27:37.139,159.515,7.799,1999.999966
8 Apr 2023 08:56:29.238,165.133,7.766,1999.986592
8 Apr 2023 08:57:29.000,153.027,9.736,1857.237994
8 Apr 2023 08:58:29.000,139.358,10.628,1798.256952
8 Apr 2023 08:59:29.000,125.480,10.142,1832.264910
8 Apr 2023 09:00:29.000,112.824,8.446,1954.373693
8 Apr 2023 09:00:45.000,109.777,7.848,1999.988372
8 Apr 2023 10:34:11.777,228.331,7.806,1999.982671
8 Apr 2023 10:35:11.000,224.913,13.459,1625.916930
8 Apr 2023 10:36:11.000,219.005,21.311,1266.680077
8 Apr 2023 10:37:11.000,207.140,32.782,952.153588
8 Apr 2023 10:38:11.000,178.328,47.003,743.437731
8 Apr 2023 10:39:11.000,127.270,47.616,737.678221
8 Apr 2023 10:40:11.000,97.074,33.563,938.628897
8 Apr 2023 10:41:11.000,84.716,21.893,1249.773306
8 Apr 2023 10:42:11.000,78.641,13.905,1607.551401
8 Apr 2023 10:43:11.000,75.131,8.110,1985.920187
8 Apr 2023 10:43:13.194,75.032,7.926,1999.980755
8 Apr 2023 12:14:52.213,267.055,7.885,1999.985991
8 Apr 2023 12:15:52.000,269.820,13.685,1618.324228
8 Apr 2023 12:16:52.000,274.443,21.840,1251.570974
8 Apr 2023 12:17:52.000,283.849,34.431,922.950420
8 Apr 2023 12:18:52.000,310.592,52.903,691.297498
8 Apr 2023 12:19:52.000,16.777,56.072,667.809731
8 Apr 2023 12:20:52.000,50.494,37.554,869.549658
8 Apr 2023 12:21:52.000,61.608,23.826,1186.196533
8 Apr 2023 12:22:52.000,66.803,15.045,1547.975041
8 Apr 2023 12:23:52.000,69.836,8.896,1928.659511
8 Apr 2023 12:24:03.066,70.266,7.941,1999.985291
8 Apr 2023 13:56:00.491,287.890,7.933,1999.975492
8 Apr 2023 13:57:00.000,291.318,13.625,1624.485104
8 Apr 2023 13:58:00.000,297.025,21.541,1264.304659
8 Apr 2023 13:59:00.000,308.295,33.292,946.081861
8 Apr 2023 14:00:00.000,336.530,48.705,729.047004
8 Apr 2023 14:01:00.000,31.491,50.350,713.590036
8 Apr 2023 14:02:00.000,63.563,35.180,910.100021
8 Apr 2023 14:03:00.000,76.091,22.798,1219.638942
8 Apr 2023 14:04:00.000,82.247,14.489,1576.201462
8 Apr 2023 14:05:00.000,85.896,8.536,1953.239797
8 Apr 2023 14:05:07.313,86.243,7.916,1999.982397
8 Apr 2023 15:36:50.071,287.916,7.939,1999.983366
8 Apr 2023 15:37:50.000,286.376,13.843,1612.185743
8 Apr 2023 15:38:50.000,283.583,22.263,1238.013706
8 Apr 2023 15:39:50.000,277.377,35.823,898.098209
8 Apr 2023 15:40:50.000,255.563,58.554,650.931046
8 Apr 2023 15:41:50.000,166.251,63.974,620.958405
8 Apr 2023 15:42:50.000,134.273,39.887,832.093397
8 Apr 2023 15:43:50.000,126.516,24.592,1158.837015
8 Apr 2023 15:44:50.000,123.244,15.338,1527.954588
8 Apr 2023 15:45:50.000,121.481,9.005,1914.092799
8 Apr 2023 15:46:03.161,121.201,7.850,1999.977541
8 Apr 2023 17:18:26.708,264.354,7.898,1999.995915
8 Apr 2023 17:19:26.000,254.107,11.420,1752.671800
8 Apr 2023 17:20:26.000,240.505,14.507,1571.590359
8 Apr 2023 17:21:26.000,224.035,16.154,1486.377633
8 Apr 2023 17:22:26.000,206.820,15.582,1513.575046
8 Apr 2023 17:23:26.000,191.569,13.080,1647.449797
8 Apr 2023 17:24:26.000,179.551,9.647,1864.651684
8 Apr 2023 17:24:56.828,174.590,7.793,1999.984213
9 Apr 2023 08:53:16.920,185.190,7.758,1999.983895
9 Apr 2023 08:54:16.000,174.955,11.267,1754.645507
9 Apr 2023 08:55:16.000,161.361,14.359,1574.473467
9 Apr 2023 08:56:16.000,144.931,16.028,1489.981166
9 Apr 2023 08:57:16.000,127.767,15.496,1517.655168
9 Apr 2023 08:58:16.000,112.558,13.042,1651.837649
9 Apr 2023 08:59:16.000,100.572,9.650,1869.346118
9 Apr 2023 08:59:45.762,95.785,7.875,1999.979609
9 Apr 2023 10:32:09.815,238.661,7.821,1999.976141
9 Apr 2023 10:33:09.000,237.094,13.637,1616.802173
9 Apr 2023 10:34:09.000,234.263,22.010,1242.302030
9 Apr 2023 10:35:09.000,228.039,35.466,901.772113
9 Apr 2023 10:36:09.000,206.502,58.021,653.069074
9 Apr 2023 10:37:09.000,118.327,64.038,620.241227
9 Apr 2023 10:38:09.000,85.461,40.105,829.398262
9 Apr 2023 10:39:09.000,77.513,24.765,1155.366413
9 Apr 2023 10:40:09.000,74.184,15.484,1524.152319
9 Apr 2023 10:41:09.000,72.409,9.139,1910.106128
9 Apr 2023 10:41:22.776,72.117,7.930,1999.982753
9 Apr 2023 12:13:05.429,273.669,7.896,1999.986951
9 Apr 2023 12:14:05.000,277.086,13.598,1623.904857
9 Apr 2023 12:15:05.000,282.779,21.521,1263.549658
9 Apr 2023 12:16:05.000,294.036,33.292,945.195568
9 Apr 2023 12:17:05.000,322.294,48.748,728.177300
9 Apr 2023 12:18:05.000,17.368,50.388,713.054405
9 Apr 2023 12:19:05.000,49.426,35.191,909.962517
9 Apr 2023 12:20:05.000,61.933,22.809,1219.717162
9 Apr 2023 12:21:05.000,68.081,14.504,1576.352824
9 Apr 2023 12:22:05.000,71.730,8.556,1953.375463
9 Apr 2023 12:22:12.295,72.076,7.937,1999.999930
9 Apr 2023 13:54:09.723,289.716,7.935,1999.985555
9 Apr 2023 13:55:09.000,292.477,13.674,1621.788663
9 Apr 2023 13:56:09.000,297.105,21.795,1255.082548
9 Apr 2023 13:57:09.000,306.483,34.314,926.203713
9 Apr 2023 13:58:09.000,332.987,52.692,693.454237
9 Apr 2023 13:59:09.000,38.839,56.100,667.689283
9 Apr 2023 14:00:09.000,72.893,37.650,867.650128
9 Apr 2023 14:01:09.000,84.120,23.877,1183.536126
9 Apr 2023 14:02:09.000,89.353,15.065,1545.048701
9 Apr 2023 14:03:09.000,92.396,8.898,1925.696215
9 Apr 2023 14:03:20.521,92.843,7.903,1999.974538
9 Apr 2023 15:34:59.574,285.017,7.933,1999.984532
9 Apr 2023 15:35:59.000,281.639,13.613,1624.540144
9 Apr 2023 15:36:59.000,275.778,21.486,1265.193239
9 Apr 2023 15:37:59.000,263.943,33.000,950.515886
9 Apr 2023 15:38:59.000,235.008,47.290,741.722842
9 Apr 2023 15:39:59.000,183.600,47.780,736.274341
9 Apr 2023 15:40:59.000,153.463,33.564,937.726729
9 Apr 2023 15:41:59.000,141.179,21.836,1249.202181
9 Apr 2023 15:42:59.000,135.132,13.827,1607.151759
9 Apr 2023 15:43:59.000,131.622,8.022,1985.597324
9 Apr 2023 15:44:01.243,131.520,7.834,1999.976139
9 Apr 2023 17:17:26.795,250.479,7.871,1999.986340
9 Apr 2023 17:18:26.000,238.511,9.826,1856.234211
9 Apr 2023 17:19:26.000,224.836,10.722,1794.471296
9 Apr 2023 17:20:26.000,210.909,10.232,1825.851781
9 Apr 2023 17:21:26.000,198.178,8.522,1945.666387
9 Apr 2023 17:21:45.087,194.535,7.797,1999.993747
10 Apr 2023 08:50:36.050,200.299,7.762,1999.976770
10 Apr 2023 08:51:36.000,191.951,12.325,1689.234719
10 Apr 2023 08:52:36.000,179.723,17.275,1429.795562
10 Apr 2023 08:53:36.000,162.252,21.579,1255.696263
10 Apr 2023 08:54:36.000,140.527,23.059,1205.357448
10 Apr 2023 08:55:36.000,119.618,20.614,1293.556441
10 Apr 2023 08:56:36.000,103.677,15.980,1495.742360
10 Apr 2023 08:57:36.000,92.704,11.103,1772.756358
10 Apr 2023 08:58:19.010,87.051,7.892,1999.987255
10 Apr 2023 10:30:13.619,248.170,7.836,1999.999961
10 Apr 2023 10:31:13.000,248.220,13.720,1613.174633
10 Apr 2023 10:32:13.000,248.203,22.253,1234.539775
10 Apr 2023 10:33:13.000,247.990,36.381,886.390916
10 Apr 2023 10:34:13.000,246.664,63.154,624.456178
10 Apr 2023 10:35:13.000,73.814,74.893,581.661799
10 Apr 2023 10:36:13.000,70.603,42.729,794.333575
10 Apr 2023 10:37:13.000,70.264,25.781,1125.450566
10 Apr 2023 10:38:13.000,70.227,16.021,1497.601785
10 Apr 2023 10:39:13.000,70.286,9.485,1885.634729
10 Apr 2023 10:39:30.450,70.313,7.932,1999.975632
10 Apr 2023 12:11:18.551,279.247,7.906,1999.992519
10 Apr 2023 12:12:18.000,283.013,13.546,1627.354679
10 Apr 2023 12:13:18.000,289.265,21.326,1271.048312
10 Apr 2023 12:14:18.000,301.410,32.613,959.070254
10 Apr 2023 12:15:18.000,329.979,46.535,750.795257
10 Apr 2023 12:16:18.000,20.332,47.518,740.632739
10 Apr 2023 12:17:18.000,51.219,33.843,935.075795
10 Apr 2023 12:18:18.000,64.240,22.190,1240.925106
10 Apr 2023 12:19:18.000,70.826,14.163,1594.531620
10 Apr 2023 12:20:18.000,74.777,8.335,1969.362313
10 Apr 2023 12:20:22.817,75.028,7.931,1999.983354
10 Apr 2023 13:52:17.549,290.427,7.935,1999.982655
10 Apr 2023 13:53:17.000,292.240,13.771,1616.256917
10 Apr 2023 13:54:17.000,295.263,22.137,1242.757326
10 Apr 2023 13:55:17.000,301.538,35.587,902.728112
10 Apr 2023 13:56:17.000,322.594,58.285,653.132553
10 Apr 2023 13:57:17.000,52.873,64.908,617.246852
10 Apr 2023 13:58:17.000,86.313,40.554,823.634051
10 Apr 2023 13:59:17.000,94.410,25.005,1147.874799
10 Apr 2023 14:00:17.000,97.963,15.630,1515.355486
10 Apr 2023 14:01:17.000,100.001,9.237,1900.181088
10 Apr 2023 14:01:32.337,100.395,7.887,1999.990317
10 Apr 2023 15:33:12.204,280.890,7.925,1999.982628
10 Apr 2023 15:34:12.000,275.438,13.302,1641.478734
10 Apr 2023 15:35:12.000,266.515,20.218,1312.267756
10 Apr 2023 15:36:12.000,250.695,28.750,1044.744461
10 Apr 2023 15:37:12.000,223.113,35.771,897.330331
10 Apr 2023 15:38:12.000,189.700,33.973,929.641976
10 Apr 2023 15:39:12.000,166.490,25.643,1126.179678
10 Apr 2023 15:40:12.000,153.578,17.560,1419.745346
10 Apr 2023 15:41:12.000,146.087,11.215,1761.649124
10 Apr 2023 15:41:51.368,142.760,7.818,1999.990624
11 Apr 2023 08:48:11.595,213.231,7.772,1999.985969
11 Apr 2023 08:49:11.000,207.095,12.946,1653.054634
11 Apr 2023 08:50:11.000,197.262,19.427,1337.480421
11 Apr 2023 08:51:11.000,180.727,26.881,1089.442177
11 Apr 2023 08:52:11.000,154.538,32.177,963.914319
11 Apr 2023 08:53:11.000,125.044,30.187,1008.304076
11 Apr 2023 08:54:11.000,103.809,23.168,1203.844141
11 Apr 2023 08:55:11.000,91.149,16.086,1491.703945
11 Apr 2023 08:56:11.000,83.461,10.284,1827.978367
11 Apr 2023 08:56:39.920,80.808,7.902,1999.979745
11 Apr 2023 10:28:21.632,256.870,7.851,1999.982691
11 Apr 2023 10:29:21.000,258.273,13.700,1615.238895
11 Apr 2023 10:30:21.000,260.611,22.130,1239.530557
11 Apr 2023 10:31:21.000,265.487,35.849,896.041140
11 Apr 2023 10:32:21.000,282.827,60.090,641.195089
11 Apr 2023 10:33:21.000,27.538,68.407,602.164471
11 Apr 2023 10:34:21.000,58.334,41.485,810.804015
11 Apr 2023 10:35:21.000,64.808,25.371,1137.676754
11 Apr 2023 10:36:21.000,67.617,15.836,1506.908637
11 Apr 2023 10:37:21.000,69.241,9.384,1892.864904
11 Apr 2023 10:37:37.420,69.580,7.933,1999.974818
11 Apr 2023 12:09:30.708,283.723,7.913,1999.992370
11 Apr 2023 12:10:30.000,287.530,13.528,1628.755413
11 Apr 2023 12:11:30.000,293.855,21.279,1273.012628
11 Apr 2023 12:12:30.000,306.099,32.483,961.839915
11 Apr 2023 12:13:30.000,334.631,46.194,754.483792
11 Apr 2023 12:14:30.000,24.357,47.139,744.482263
11 Apr 2023 12:15:30.000,55.131,33.674,938.192645
11 Apr 2023 12:16:30.000,68.236,22.113,1243.316929
11 Apr 2023 12:17:30.000,74.889,14.120,1596.427815
11 Apr 2023 12:18:30.000,78.883,8.306,1970.932920
11 Apr 2023 12:18:34.573,79.124,7.923,1999.983868
11 Apr 2023 13:50:24.536,290.052,7.934,1999.972314
11 Apr 2023 13:51:24.000,290.612,13.822,1613.178149
11 Apr 2023 13:52:24.000,291.462,22.345,1235.179978
11 Apr 2023 13:53:24.000,293.122,36.429,887.787664
11 Apr 2023 13:54:24.000,299.274,62.915,626.698166
11 Apr 2023 13:55:24.000,91.553,74.165,583.955586
11 Apr 2023 13:56:24.000,104.882,42.605,795.718010
11 Apr 2023 13:57:24.000,107.088,25.716,1126.120403
11 Apr 2023 13:58:24.000,108.075,15.962,1497.840199
11 Apr 2023 13:59:24.000,108.679,9.426,1885.617749
11 Apr 2023 13:59:41.463,108.819,7.871,1999.995125
11 Apr 2023 15:31:30.352,275.261,7.913,1999.991371
11 Apr 2023 15:32:30.000,267.693,12.703,1675.412888
11 Apr 2023 15:33:30.000,256.187,18.199,1394.587950
11 Apr 2023 15:34:30.000,238.782,23.494,1193.674876
11 Apr 2023 15:35:30.000,215.499,25.959,1117.532254
11 Apr 2023 15:36:30.000,192.144,23.539,1190.581575
11 Apr 2023 15:37:30.000,174.606,18.241,1389.196514
11 Apr 2023 15:38:30.000,162.989,12.721,1668.489172
11 Apr 2023 15:39:30.000,155.297,7.883,1993.973800
11 Apr 2023 15:39:31.057,155.186,7.804,1999.984199
12 Apr 2023 07:08:53.748,155.644,7.758,1999.990349
12 Apr 2023 07:09:53.000,143.274,8.926,1914.126599
12 Apr 2023 07:10:53.000,130.118,8.964,1912.859260
12 Apr 2023 07:11:53.000,117.565,7.842,1998.036060
12 Apr 2023 07:11:53.933,117.380,7.817,1999.997446
12 Apr 2023 08:45:58.301,224.824,7.784,1999.999114
12 Apr 2023 08:46:58.000,220.730,13.397,1627.911860
12 Apr 2023 08:47:58.000,213.796,21.005,1276.725964
12 Apr 2023 08:48:58.000,200.366,31.615,975.433360
12 Apr 2023 08:49:58.000,171.264,43.229,785.559174
12 Apr 2023 08:50:58.000,127.237,42.713,792.621839
12 Apr 2023 08:51:58.000,99.444,30.936,992.404173
12 Apr 2023 08:52:58.000,86.625,20.550,1298.289949
12 Apr 2023 08:53:58.000,79.959,13.107,1651.538287
12 Apr 2023 08:54:53.819,76.220,7.910,1999.981025
12 Apr 2023 10:26:32.408,264.721,7.865,1999.977616
12 Apr 2023 10:27:32.000,267.196,13.666,1617.976933
12 Apr 2023 10:28:32.000,271.347,21.887,1248.767589
12 Apr 2023 10:29:32.000,279.866,34.754,916.098389
12 Apr 2023 10:30:32.000,305.345,54.507,678.242054
12 Apr 2023 10:31:32.000,17.334,58.621,650.492492
12 Apr 2023 10:32:32.000,51.572,38.522,853.627616
12 Apr 2023 10:33:32.000,61.962,24.224,1172.762074
12 Apr 2023 10:34:32.000,66.719,15.252,1536.437546
12 Apr 2023 10:35:32.000,69.479,9.025,1918.491718
12 Apr 2023 10:35:44.602,69.923,7.931,1999.981246
12 Apr 2023 12:07:41.358,287.059,7.918,1999.971754
12 Apr 2023 12:08:41.000,290.643,13.605,1624.650602
12 Apr 2023 12:09:41.000,296.590,21.470,1266.089287
12 Apr 2023 12:10:41.000,308.261,33.039,950.538582
12 Apr 2023 12:11:41.000,336.743,47.813,737.449614
12 Apr 2023 12:12:41.000,29.698,49.103,724.782569
12 Apr 2023 12:13:41.000,61.208,34.570,920.890574
12 Apr 2023 12:14:41.000,73.931,22.508,1229.142843
12 Apr 2023 12:15:41.000,80.263,14.326,1584.623976
12 Apr 2023 12:16:41.000,84.035,8.430,1960.848792
12 Apr 2023 12:16:47.134,84.337,7.912,1999.976098
12 Apr 2023 13:48:31.504,288.610,7.930,1999.999951
12 Apr 2023 13:49:31.000,287.634,13.808,1613.584724
12 Apr 2023 13:50:31.000,285.803,22.284,1236.915815
12 Apr 2023 13:51:31.000,281.621,36.138,892.389176
12 Apr 2023 13:52:31.000,265.524,60.907,636.977659
12 Apr 2023 13:53:31.000,155.625,69.015,599.715772
12 Apr 2023 13:54:31.000,127.237,41.369,811.365234
12 Apr 2023 13:55:31.000,121.679,25.201,1140.422375
12 Apr 2023 13:56:31.000,119.440,15.670,1511.268393
12 Apr 2023 13:57:31.000,118.270,9.225,1898.580575
12 Apr 2023 13:57:46.496,118.057,7.854,1999.977190
12 Apr 2023 15:29:58.191,267.515,7.898,1999.988114
12 Apr 2023 15:30:58.000,257.811,11.820,1727.694131
12 Apr 2023 15:31:58.000,244.518,15.536,1518.356343
12 Apr 2023 15:32:58.000,227.536,17.965,1402.724027
12 Apr 2023 15:33:58.000,208.878,17.901,1404.538585
12 Apr 2023 15:34:58.000,191.995,15.378,1523.298765
12 Apr 2023 15:35:58.000,178.817,11.621,1734.692019
12 Apr 2023 15:36:56.187,169.412,7.795,1999.992162
13 Apr 2023 07:05:18.990,179.553,7.743,1999.989523
13 Apr 2023 07:06:18.000,168.726,10.831,1781.663223
13 Apr 2023 07:07:18.000,154.931,13.264,1634.116173
13 Apr 2023 07:08:18.000,139.139,14.200,1583.318976
13 Apr 2023 07:09:18.000,123.394,13.232,1638.576130
13 Apr 2023 07:10:18.000,109.709,10.787,1789.968987
13 Apr 2023 07:11:14.321,99.436,7.852,1999.983885
13 Apr 2023 08:43:53.314,235.428,7.799,1999.991042
13 Apr 2023 08:44:53.000,233.265,13.631,1615.671468
13 Apr 2023 08:45:53.000,229.439,21.905,1244.769642
13 Apr 2023 08:46:53.000,221.220,34.914,910.745912
13 Apr 2023 08:47:53.000,195.608,54.961,673.203763
13 Apr 2023 08:48:53.000,122.705,58.517,649.711089
13 Apr 2023 08:49:53.000,89.643,38.135,858.078558
13 Apr 2023 08:50:53.000,79.887,23.916,1180.871190
13 Apr 2023 08:51:53.000,75.589,15.012,1547.252319
13 Apr 2023 08:52:53.000,73.234,8.827,1931.568647
13 Apr 2023 08:53:03.527,72.930,7.914,1999.990019
13 Apr 2023 10:24:44.612,271.646,7.877,1999.991109
13 Apr 2023 10:25:44.000,274.870,13.577,1623.725415
13 Apr 2023 10:26:44.000,280.263,21.553,1261.290975
13 Apr 2023 10:27:44.000,291.008,33.534,939.578658
13 Apr 2023 10:28:44.000,318.872,49.794,717.649804
13 Apr 2023 10:29:44.000,16.609,51.916,699.179194
13 Apr 2023 10:30:44.000,49.338,35.892,896.845020
13 Apr 2023 10:31:44.000,61.565,23.124,1208.378099
13 Apr 2023 10:32:44.000,67.485,14.675,1566.461760
13 Apr 2023 10:33:44.000,70.979,8.664,1944.560715
13 Apr 2023 10:33:52.651,71.370,7.927,1999.990354
13 Apr 2023 12:05:50.306,289.250,7.920,1999.991599
13 Apr 2023 12:06:50.000,292.279,13.679,1620.563102
13 Apr 2023 12:07:50.000,297.329,21.743,1256.183464
13 Apr 2023 12:08:50.000,307.487,34.018,931.264840
13 Apr 2023 12:09:50.000,334.977,51.287,704.826981
13 Apr 2023 12:10:50.000,36.427,53.810,684.136698
13 Apr 2023 12:11:50.000,69.629,36.644,883.843991
13 Apr 2023 12:12:50.000,81.353,23.421,1197.921937
13 Apr 2023 12:13:50.000,86.932,14.813,1557.904654
13 Apr 2023 12:14:50.000,90.200,8.734,1937.404967
13 Apr 2023 12:14:59.735,90.609,7.899,1999.990412
13 Apr 2023 13:46:39.561,286.079,7.924,1999.992908
13 Apr 2023 13:47:39.000,283.320,13.674,1620.553461
13 Apr 2023 13:48:39.000,278.464,21.760,1254.886713
13 Apr 2023 13:49:39.000,268.322,34.055,929.655709
13 Apr 2023 13:50:39.000,240.408,51.110,705.359252
13 Apr 2023 13:51:39.000,179.977,52.914,689.917467
13 Apr 2023 13:52:39.000,147.939,35.923,894.256364
13 Apr 2023 13:53:39.000,136.626,22.931,1211.354313
13 Apr 2023 13:54:39.000,131.349,14.443,1573.664285
13 Apr 2023 13:55:39.000,128.362,8.429,1955.212217
13 Apr 2023 13:55:45.932,128.100,7.836,1999.979220
13 Apr 2023 15:28:45.597,255.929,7.876,1999.998784
13 Apr 2023 15:29:45.000,244.418,10.438,1815.019293
13 Apr 2023 15:30:45.000,230.563,12.087,1708.445540
13 Apr 2023 15:31:45.000,215.626,12.238,1698.062548
13 Apr 2023 15:32:45.000,201.419,10.831,1785.497170
13 Apr 2023 15:33:45.000,189.295,8.359,1957.292863
13 Apr 2023 15:33:57.000,187.166,7.793,1999.994315
14 Apr 2023 07:02:29.913,195.735,7.744,1999.990780
14 Apr 2023 07:03:29.000,186.859,11.961,1710.091186
14 Apr 2023 07:04:29.000,174.119,16.341,1472.426490
14 Apr 2023 07:05:29.000,156.854,19.748,1324.087901
14 Apr 2023 07:06:29.000,136.640,20.473,1296.819125
14 Apr 2023 07:07:29.000,117.747,18.037,1397.886471
14 Apr 2023 07:08:29.000,103.135,13.905,1602.915154
14 Apr 2023 07:09:29.000,92.746,9.530,1877.556784
14 Apr 2023 07:09:52.892,89.525,7.871,1999.977493
14 Apr 2023 08:41:54.642,245.190,7.815,1999.978937
14 Apr 2023 08:42:54.000,244.744,13.689,1613.396183
14 Apr 2023 08:43:54.000,243.862,22.202,1235.038632
14 Apr 2023 08:44:54.000,241.756,36.256,887.570398
14 Apr 2023 08:45:54.000,232.965,62.496,627.095106
14 Apr 2023 08:46:54.000,93.918,73.099,585.829878
14 Apr 2023 08:47:54.000,75.384,42.335,798.591196
14 Apr 2023 08:48:54.000,72.475,25.609,1129.462299
14 Apr 2023 08:49:54.000,71.386,15.919,1501.486418
14 Apr 2023 08:50:54.000,70.870,9.414,1889.497738
14 Apr 2023 08:51:10.860,70.777,7.917,1999.972065
14 Apr 2023 10:22:57.066,277.563,7.887,1999.979866
14 Apr 2023 10:23:57.000,281.284,13.589,1623.630271
14 Apr 2023 10:24:57.000,287.436,21.422,1266.479969
14 Apr 2023 10:25:57.000,299.456,32.852,953.381182
14 Apr 2023 10:26:57.000,328.181,47.108,744.117928
14 Apr 2023 10:27:57.000,19.581,48.058,734.592468
14 Apr 2023 10:28:57.000,50.533,34.023,930.959791
14 Apr 2023 10:29:57.000,63.369,22.241,1238.381138
14 Apr 2023 10:30:57.000,69.830,14.176,1593.023361
14 Apr 2023 10:31:57.000,73.699,8.336,1968.549775
14 Apr 2023 10:32:01.940,73.951,7.921,1999.999895
14 Apr 2023 12:03:57.731,290.316,7.921,1999.984352
14 Apr 2023 12:04:57.000,292.464,13.710,1618.714234
14 Apr 2023 12:05:57.000,296.062,21.991,1247.179859
14 Apr 2023 12:06:57.000,303.483,35.129,910.383394
14 Apr 2023 12:07:57.000,326.942,56.324,665.671016
14 Apr 2023 12:08:57.000,46.924,61.773,632.421531
14 Apr 2023 12:09:57.000,81.428,39.641,836.373908
14 Apr 2023 12:10:57.000,90.818,24.664,1157.883682
14 Apr 2023 12:11:57.000,95.012,15.462,1523.497050
14 Apr 2023 12:12:57.000,97.423,9.138,1907.044917
14 Apr 2023 12:13:11.321,97.859,7.885,1999.979330
14 Apr 2023 13:44:50.162,282.370,7.916,1999.969314
14 Apr 2023 13:45:50.000,277.590,13.431,1633.651557
14 Apr 2023 13:46:50.000,269.616,20.712,1292.890402
14 Apr 2023 13:47:50.000,254.807,30.281,1007.986499
14 Apr 2023 13:48:50.000,226.214,39.351,839.498459
14 Apr 2023 13:49:50.000,188.196,38.002,859.590288
14 Apr 2023 13:50:50.000,162.856,28.163,1057.475671
14 Apr 2023 13:51:50.000,149.864,19.012,1356.939541
14 Apr 2023 13:52:50.000,142.695,12.133,1704.431036
14 Apr 2023 13:53:38.052,139.018,7.819,1999.990761
15 Apr 2023 07:00:00.160,209.228,7.753,1999.999336
15 Apr 2023 07:01:00.000,202.347,12.783,1661.232340
15 Apr 2023 07:02:00.000,191.638,18.815,1361.547879
15 Apr 2023 07:03:00.000,174.524,25.218,1135.696579
15 Apr 2023 07:04:00.000,149.674,29.010,1034.409161
15 Apr 2023 07:05:00.000,123.414,26.766,1093.324397
15 Apr 2023 07:06:00.000,104.094,20.695,1290.529426
15 Apr 2023 07:07:00.000,91.921,14.451,1574.343573
15 Apr 2023 07:08:00.000,84.202,9.150,1905.652546
15 Apr 2023 07:08:16.174,82.615,7.883,1999.979657
15 Apr 2023 08:40:00.650,254.148,7.830,1999.990741
15 Apr 2023 08:41:00.000,255.145,13.690,1614.298101
15 Apr 2023 08:42:00.000,256.779,22.168,1236.983963
15 Apr 2023 08:43:00.000,260.163,36.092,890.877875
15 Apr 2023 08:44:00.000,272.722,61.631,631.942026
15 Apr 2023 08:45:00.000,36.744,71.624,590.462834
15 Apr 2023 08:46:00.000,61.739,42.165,801.037046
15 Apr 2023 08:47:00.000,66.305,25.595,1130.120559
15 Apr 2023 08:48:00.000,68.283,15.935,1500.880066
15 Apr 2023 08:49:00.000,69.445,9.437,1887.909821
15 Apr 2023 08:49:17.143,69.700,7.917,1999.993243
15 Apr 2023 10:21:08.802,282.398,7.894,1999.978645
15 Apr 2023 10:22:08.000,286.213,13.495,1629.359280
15 Apr 2023 10:23:08.000,292.558,21.232,1273.679869
15 Apr 2023 10:24:08.000,304.829,32.406,962.623863
15 Apr 2023 10:25:08.000,333.336,46.052,755.402664
15 Apr 2023 10:26:08.000,22.864,46.999,745.372313
15 Apr 2023 10:27:08.000,53.613,33.605,938.892917
15 Apr 2023 10:28:08.000,66.750,22.078,1243.856441
15 Apr 2023 10:29:08.000,73.427,14.098,1596.865279
15 Apr 2023 10:30:08.000,77.438,8.291,1971.305360
15 Apr 2023 10:30:12.516,77.677,7.913,1999.987383
15 Apr 2023 12:02:04.102,290.290,7.919,1999.984843
15 Apr 2023 12:03:04.000,291.296,13.844,1611.027413
15 Apr 2023 12:04:04.000,292.915,22.356,1234.083030
15 Apr 2023 12:05:04.000,296.252,36.356,888.532023
15 Apr 2023 12:06:04.000,308.739,62.055,630.785354
15 Apr 2023 12:07:04.000,74.432,71.500,591.380321
15 Apr 2023 12:08:04.000,98.357,41.997,803.265566
15 Apr 2023 12:09:04.000,102.755,25.474,1132.828167
15 Apr 2023 12:10:04.000,104.658,15.835,1503.826287
15 Apr 2023 12:11:04.000,105.768,9.345,1891.047768
15 Apr 2023 12:11:20.654,106.004,7.868,1999.983179
15 Apr 2023 13:43:05.372,277.275,7.906,1999.987250
15 Apr 2023 13:44:05.000,270.403,12.907,1662.959497
15 Apr 2023 13:45:05.000,259.666,18.904,1364.128902
15 Apr 2023 13:46:05.000,242.537,25.226,1139.469807
15 Apr 2023 13:47:05.000,217.772,28.902,1039.312093
15 Apr 2023 13:48:05.000,191.686,26.602,1098.599683
15 Apr 2023 13:49:05.000,172.466,20.544,1295.384378
15 Apr 2023 13:50:05.000,160.306,14.319,1578.443371
15 Apr 2023 13:51:05.000,152.560,9.029,1908.919422
15 Apr 2023 13:51:20.658,151.010,7.804,1999.990550
16 Apr 2023 06:57:42.855,221.193,7.765,1999.982304
16 Apr 2023 06:58:42.000,216.494,13.208,1637.324612
16 Apr 2023 06:59:42.000,208.615,20.480,1295.365752
16 Apr 2023 07:00:42.000,194.001,30.090,1008.361870
16 Apr 2023 07:01:42.000,165.595,39.388,836.620195
16 Apr 2023 07:02:42.000,127.242,38.307,853.618643
16 Apr 2023 07:03:42.000,101.546,28.450,1050.188250
16 Apr 2023 07:04:42.000,88.450,19.230,1349.509475
16 Apr 2023 07:05:42.000,81.274,12.312,1697.264708
16 Apr 2023 07:06:31.147,77.549,7.891,1999.990970
16 Apr 2023 08:38:09.876,262.276,7.844,1999.981474
16 Apr 2023 08:39:09.000,264.417,13.615,1619.398835
16 Apr 2023 08:40:09.000,268.028,21.884,1247.655831
16 Apr 2023 08:41:09.000,275.485,34.998,910.703314
16 Apr 2023 08:42:09.000,298.981,56.126,665.885413
16 Apr 2023 08:43:09.000,18.445,61.619,632.559127
16 Apr 2023 08:44:09.000,53.080,39.613,836.447625
16 Apr 2023 08:45:09.000,62.557,24.672,1157.887061
16 Apr 2023 08:46:09.000,66.800,15.486,1523.400004
16 Apr 2023 08:47:09.000,69.248,9.171,1906.807386
16 Apr 2023 08:47:23.363,69.693,7.916,1999.975945
16 Apr 2023 10:19:19.165,286.103,7.900,1999.981974
16 Apr 2023 10:20:19.000,289.816,13.590,1624.256886
16 Apr 2023 10:21:19.000,295.957,21.417,1267.026163
16 Apr 2023 10:22:19.000,307.949,32.843,953.705397
16 Apr 2023 10:23:19.000,336.624,47.119,743.976579
16 Apr 2023 10:24:19.000,28.089,48.113,733.877427
16 Apr 2023 10:25:19.000,59.108,34.056,929.966578
16 Apr 2023 10:26:19.000,71.953,22.252,1237.349796
16 Apr 2023 10:27:19.000,78.410,14.176,1592.045447
16 Apr 2023 10:28:19.000,82.273,8.330,1967.664563
16 Apr 2023 10:28:24.076,82.531,7.903,1999.993214
16 Apr 2023 12:00:10.164,289.194,7.916,1999.999992
16 Apr 2023 12:01:10.000,288.741,13.846,1610.603783
16 Apr 2023 12:02:10.000,287.824,22.386,1232.660768
16 Apr 2023 12:03:10.000,285.605,36.491,885.857639
16 Apr 2023 12:04:10.000,276.253,62.771,626.750176
16 Apr 2023 12:05:10.000,138.573,72.636,587.561443
16 Apr 2023 12:06:10.000,119.840,42.100,801.368229
16 Apr 2023 12:07:10.000,116.809,25.458,1132.507992
16 Apr 2023 12:08:10.000,115.651,15.797,1504.631660
16 Apr 2023 12:09:10.000,115.080,9.304,1892.728456
16 Apr 2023 12:09:26.364,114.977,7.851,1999.976560
16 Apr 2023 13:41:28.597,270.324,7.892,1999.988047
16 Apr 2023 13:42:28.000,261.365,12.109,1709.538360
16 Apr 2023 13:43:28.000,248.565,16.438,1473.702910
16 Apr 2023 13:44:28.000,231.276,19.745,1327.810821
16 Apr 2023 13:45:28.000,211.140,20.355,1302.991209
16 Apr 2023 13:46:28.000,192.393,17.853,1405.691701
16 Apr 2023 13:47:28.000,177.897,13.708,1611.310911
16 Apr 2023 13:48:28.000,167.561,9.342,1885.784335
16 Apr 2023 13:48:50.360,164.540,7.792,1999.990500
17 Apr 2023 05:17:22.263,173.240,7.732,1999.983316
17 Apr 2023 05:18:22.000,161.690,10.360,1812.056044
17 Apr 2023 05:19:22.000,147.825,12.079,1703.382174
17 Apr 2023 05:20:22.000,132.832,12.304,1691.020957
17 Apr 2023 05:21:22.000,118.539,10.951,1777.115607
17 Apr 2023 05:22:22.000,106.339,8.506,1948.431044
17 Apr 2023 05:22:36.404,103.781,7.828,1999.984270
17 Apr 2023 06:55:34.626,232.088,7.780,1999.991552
17 Apr 2023 06:56:34.000,229.339,13.520,1620.526862
17 Apr 2023 06:57:34.000,224.524,21.607,1254.243505
17 Apr 2023 06:58:34.000,214.489,33.934,928.094095
17 Apr 2023 06:59:34.000,186.743,51.180,702.552928
17 Apr 2023 07:00:34.000,125.753,53.187,686.449133
17 Apr 2023 07:01:34.000,93.534,36.066,891.241549
17 Apr 2023 07:02:34.000,82.276,23.023,1208.960389
17 Apr 2023 07:03:34.000,77.059,14.524,1571.750041
17 Apr 2023 07:04:34.000,74.130,8.509,1953.658180
17 Apr 2023 07:04:41.168,73.866,7.896,1999.990647
17 Apr 2023 08:36:20.945,269.505,7.857,1999.992077
17 Apr 2023 08:37:20.000,272.495,13.541,1624.350319
17 Apr 2023 08:38:20.000,277.525,21.568,1259.560677
17 Apr 2023 08:39:20.000,287.625,33.775,933.974911
17 Apr 2023 08:40:20.000,314.831,50.994,706.159390
17 Apr 2023 08:41:20.000,15.987,53.804,683.318885
17 Apr 2023 08:42:20.000,49.537,36.740,881.559791
17 Apr 2023 08:43:20.000,61.398,23.500,1195.015087
17 Apr 2023 08:44:20.000,67.037,14.878,1554.698181
17 Apr 2023 08:45:20.000,70.343,8.793,1933.996591
17 Apr 2023 08:45:30.267,70.779,7.913,1999.976603
17 Apr 2023 10:17:27.853,288.662,7.903,1999.992468
17 Apr 2023 10:18:27.000,291.869,13.574,1625.265984
17 Apr 2023 10:19:27.000,297.239,21.536,1262.676685
17 Apr 2023 10:20:27.000,307.923,33.501,940.522207
17 Apr 2023 10:21:27.000,335.646,49.795,717.601032
17 Apr 2023 10:22:27.000,33.518,52.046,697.792730
17 Apr 2023 10:23:27.000,66.420,35.972,894.763983
17 Apr 2023 10:24:27.000,78.667,23.152,1206.163373
17 Apr 2023 10:25:27.000,84.581,14.678,1564.321753
17 Apr 2023 10:26:27.000,88.062,8.655,1942.581003
17 Apr 2023 10:26:35.953,88.464,7.891,1999.977578
17 Apr 2023 11:58:16.922,287.024,7.911,1999.995286
17 Apr 2023 11:59:16.000,284.885,13.672,1619.805247
17 Apr 2023 12:00:16.000,281.050,21.905,1249.035795
17 Apr 2023 12:01:16.000,272.807,34.814,914.963743
17 Apr 2023 12:02:16.000,247.341,54.642,676.614979
17 Apr 2023 12:03:16.000,175.287,58.385,650.788614
17 Apr 2023 12:04:16.000,141.845,38.163,856.996262
17 Apr 2023 12:05:16.000,131.901,23.918,1178.703135
17 Apr 2023 12:06:16.000,127.505,14.989,1544.558886
17 Apr 2023 12:07:16.000,125.079,8.786,1928.602985
17 Apr 2023 12:07:26.986,124.750,7.833,1999.975934
17 Apr 2023 13:40:06.919,260.341,7.872,1999.998437
17 Apr 2023 13:41:06.000,249.468,10.922,1782.957046
17 Apr 2023 13:42:06.000,235.656,13.284,1637.601330
17 Apr 2023 13:43:06.000,219.900,14.133,1589.165348
17 Apr 2023 13:44:06.000,204.244,13.095,1646.325201
17 Apr 2023 13:45:06.000,190.655,10.614,1798.756124
17 Apr 2023 13:46:00.171,180.789,7.786,1999.979663
18 Apr 2023 05:14:22.938,190.876,7.731,1999.986992
18 Apr 2023 05:15:22.000,181.342,11.629,1729.658571
18 Apr 2023 05:16:22.000,168.128,15.407,1517.655891
18 Apr 2023 05:17:22.000,151.172,17.948,1398.648816
18 Apr 2023 05:18:22.000,132.428,18.006,1397.183451
18 Apr 2023 05:19:22.000,115.390,15.555,1513.673318
18 Apr 2023 05:20:22.000,102.083,11.818,1724.043956
18 Apr 2023 05:21:22.000,92.361,7.872,1998.243688
18 Apr 2023 05:21:22.354,92.312,7.849,1999.998676
18 Apr 2023 06:53:33.294,242.108,7.796,1999.978009
18 Apr 2023 06:54:33.000,241.129,13.694,1611.799072
18 Apr 2023 06:55:33.000,239.324,22.178,1234.725826
18 Apr 2023 06:56:33.000,235.221,36.074,889.795863
18 Apr 2023 06:57:33.000,219.362,61.024,634.252870
18 Apr 2023 06:58:33.000,108.060,69.120,598.025654
18 Apr 2023 06:59:33.000,80.221,41.325,811.122980
18 Apr 2023 07:00:33.000,74.822,25.183,1141.009161
18 Apr 2023 07:01:33.000,72.664,15.678,1512.287417
18 Apr 2023 07:02:33.000,71.553,9.250,1899.830682
18 Apr 2023 07:02:48.300,71.357,7.900,1999.979403
18 Apr 2023 08:34:32.626,275.755,7.868,1999.981752
18 Apr 2023 08:35:32.000,279.318,13.521,1626.128143
18 Apr 2023 08:36:32.000,285.256,21.369,1267.282905
18 Apr 2023 08:37:32.000,296.902,32.908,951.344544
18 Apr 2023 08:38:32.000,325.281,47.670,737.635216
18 Apr 2023 08:39:32.000,18.142,49.052,724.221495
18 Apr 2023 08:40:32.000,49.749,34.567,919.918430
18 Apr 2023 08:41:32.000,62.526,22.513,1228.036279
18 Apr 2023 08:42:32.000,68.885,14.333,1583.467244
18 Apr 2023 08:43:32.000,72.675,8.441,1959.652970
18 Apr 2023 08:43:38.326,72.989,7.907,1999.999898
18 Apr 2023 10:15:34.929,290.090,7.904,1999.985798
18 Apr 2023 10:16:34.000,292.538,13.643,1621.339403
18 Apr 2023 10:17:34.000,296.654,21.832,1251.888359
18 Apr 2023 10:18:34.000,305.068,34.647,918.510031
18 Apr 2023 10:19:34.000,330.179,54.414,678.891611
18 Apr 2023 10:20:34.000,42.363,58.891,648.418978
18 Apr 2023 10:21:34.000,77.029,38.693,850.007197
18 Apr 2023 10:22:34.000,87.454,24.293,1168.742699
18 Apr 2023 10:23:34.000,92.202,15.274,1532.430581
18 Apr 2023 10:24:34.000,94.944,9.023,1914.655912
18 Apr 2023 10:24:47.187,95.402,7.877,1999.982512
18 Apr 2023 11:56:25.696,283.716,7.904,1999.984969
18 Apr 2023 11:57:25.000,279.649,13.470,1630.582753
18 Apr 2023 11:58:25.000,272.703,21.046,1279.674555
18 Apr 2023 11:59:25.000,259.254,31.577,978.717621
18 Apr 2023 12:00:25.000,230.254,43.041,788.921747
18 Apr 2023 12:01:25.000,186.549,42.508,795.217561
18 Apr 2023 12:02:25.000,158.788,30.816,993.842150
18 Apr 2023 12:03:25.000,145.899,20.457,1298.849762
18 Apr 2023 12:04:25.000,139.166,13.019,1651.498364
18 Apr 2023 12:05:20.892,135.364,7.815,1999.988774
18 Apr 2023 13:39:27.883,242.089,7.840,1999.996013
18 Apr 2023 13:40:27.000,229.732,8.920,1918.104089
18 Apr 2023 13:41:27.000,216.620,8.869,1920.612925
18 Apr 2023 13:42:22.741,204.998,7.793,1999.997311
19 Apr 2023 05:11:47.202,205.044,7.739,1999.990060
19 Apr 2023 05:12:47.000,197.472,12.550,1673.935610
19 Apr 2023 05:13:47.000,185.994,18.079,1392.080613
19 Apr 2023 05:14:47.000,168.600,23.451,1189.794491
19 Apr 2023 05:15:47.000,145.238,26.020,1112.393573
19 Apr 2023 05:16:47.000,121.736,23.657,1184.962834
19 Apr 2023 05:17:47.000,104.107,18.362,1383.914155
19 Apr 2023 05:18:47.000,92.470,12.833,1663.958380
19 Apr 2023 05:19:47.000,84.798,7.989,1990.350339
19 Apr 2023 05:19:48.691,84.623,7.864,1999.993365
19 Apr 2023 06:51:37.143,251.323,7.811,1999.974616
19 Apr 2023 06:52:37.000,251.886,13.740,1610.249340
19 Apr 2023 06:53:37.000,252.760,22.279,1231.972061
19 Apr 2023 06:54:37.000,254.503,36.414,884.501991
19 Apr 2023 06:55:37.000,261.068,63.028,624.070545
19 Apr 2023 06:56:37.000,52.067,73.781,583.585769
19 Apr 2023 06:57:37.000,65.774,42.390,797.355833
19 Apr 2023 06:58:37.000,68.090,25.611,1128.649582
19 Apr 2023 06:59:37.000,69.136,15.914,1500.747086
19 Apr 2023 07:00:37.000,69.786,9.409,1888.670672
19 Apr 2023 07:00:53.995,69.934,7.901,1999.990557
19 Apr 2023 08:32:43.871,280.945,7.876,1999.990900
19 Apr 2023 08:33:43.000,284.739,13.469,1629.580540
19 Apr 2023 08:34:43.000,291.055,21.206,1273.573531
19 Apr 2023 08:35:43.000,303.279,32.393,962.024968
19 Apr 2023 08:36:43.000,331.753,46.106,754.125801
19 Apr 2023 08:37:43.000,21.466,47.104,743.626362
19 Apr 2023 08:38:43.000,52.299,33.652,937.200524
19 Apr 2023 08:39:43.000,65.429,22.094,1242.384232
19 Apr 2023 08:40:43.000,72.093,14.103,1595.592655
19 Apr 2023 08:41:43.000,76.093,8.293,1970.191329
19 Apr 2023 08:41:47.688,76.340,7.900,1999.979685
19 Apr 2023 10:13:40.767,290.416,7.903,1999.985461
19 Apr 2023 10:14:40.000,291.816,13.732,1616.191605
19 Apr 2023 10:15:40.000,294.133,22.149,1240.424686
19 Apr 2023 10:16:40.000,298.942,35.848,896.643144
19 Apr 2023 10:17:40.000,316.020,60.109,641.031003
19 Apr 2023 10:18:40.000,61.450,68.610,600.899386
19 Apr 2023 10:19:40.000,92.189,41.518,809.121821
19 Apr 2023 10:20:40.000,98.583,25.345,1136.053554
19 Apr 2023 10:21:40.000,101.342,15.789,1505.482996
19 Apr 2023 10:22:40.000,102.928,9.327,1891.697212
19 Apr 2023 10:22:56.588,103.260,7.860,1999.983310
19 Apr 2023 11:54:38.305,279.110,7.894,1999.997806
19 Apr 2023 11:55:38.000,272.926,13.086,1651.762327
19 Apr 2023 11:56:38.000,263.030,19.546,1337.082057
19 Apr 2023 11:57:38.000,246.400,26.926,1090.584283
19 Apr 2023 11:58:38.000,220.204,32.062,967.129558
19 Apr 2023 11:59:38.000,190.913,29.950,1013.205004
19 Apr 2023 12:00:38.000,169.853,22.934,1209.397693
19 Apr 2023 12:01:38.000,157.252,15.885,1497.227508
19 Apr 2023 12:02:38.000,149.562,10.106,1833.180189
19 Apr 2023 12:03:06.090,146.966,7.798,1999.977448
20 Apr 2023 05:09:25.521,217.429,7.751,1999.982895
20 Apr 2023 05:10:25.000,212.021,13.095,1642.779497
20 Apr 2023 05:11:25.000,203.161,20.014,1312.484046
20 Apr 2023 05:12:25.000,187.452,28.601,1043.241930
20 Apr 2023 05:13:25.000,159.910,35.793,893.588593
20 Apr 2023 05:14:25.000,126.254,34.143,924.254361
20 Apr 2023 05:15:25.000,102.838,25.808,1120.452711
20 Apr 2023 05:16:25.000,89.870,17.694,1414.379692
20 Apr 2023 05:17:25.000,82.388,11.333,1756.851194
20 Apr 2023 05:18:05.081,79.031,7.873,1999.990403
20 Apr 2023 06:49:44.664,259.721,7.826,1999.990972
20 Apr 2023 06:50:44.000,261.528,13.642,1616.610091
20 Apr 2023 06:51:44.000,264.561,21.993,1242.711027
20 Apr 2023 06:52:44.000,270.873,35.418,902.283415
20 Apr 2023 06:53:44.000,292.005,58.072,652.336486
20 Apr 2023 06:54:44.000,21.727,64.732,616.476684
20 Apr 2023 06:55:44.000,55.323,40.481,823.229889
20 Apr 2023 06:56:44.000,63.502,24.974,1147.736461
20 Apr 2023 06:57:44.000,67.101,15.623,1515.343168
20 Apr 2023 06:58:44.000,69.175,9.247,1900.193557
20 Apr 2023 06:58:59.334,69.578,7.900,1999.977601
20 Apr 2023 08:30:53.924,285.019,7.883,1999.976953
20 Apr 2023 08:31:53.000,288.756,13.476,1629.485705
20 Apr 2023 08:32:53.000,294.984,21.232,1272.793286
20 Apr 2023 08:33:53.000,307.065,32.488,960.112934
20 Apr 2023 08:34:53.000,335.483,46.433,750.575070
20 Apr 2023 08:35:53.000,25.868,47.550,738.933208
20 Apr 2023 08:36:53.000,56.928,33.877,932.660535
20 Apr 2023 08:37:53.000,70.003,22.198,1238.391122
20 Apr 2023 08:38:53.000,76.605,14.158,1592.085697
20 Apr 2023 08:39:53.000,80.560,8.325,1967.072273
20 Apr 2023 08:39:58.173,80.828,7.891,1999.975025
20 Apr 2023 10:11:46.028,289.668,7.901,1999.976411
20 Apr 2023 10:12:46.000,289.722,13.848,1609.444147
20 Apr 2023 10:13:46.000,289.684,22.408,1231.023769
20 Apr 2023 10:14:46.000,289.396,36.605,883.289528
20 Apr 2023 10:15:46.000,287.699,63.529,622.539202
20 Apr 2023 10:16:46.000,116.316,74.410,582.279500
20 Apr 2023 10:17:46.000,112.494,42.415,796.806501
20 Apr 2023 10:18:46.000,112.037,25.568,1128.711281
20 Apr 2023 10:19:46.000,111.938,15.852,1501.287711
20 Apr 2023 10:20:46.000,111.950,9.338,1889.641428
20 Apr 2023 10:21:02.827,111.963,7.843,1999.976878
20 Apr 2023 11:52:57.588,272.847,7.881,1999.989622
20 Apr 2023 11:53:57.000,264.572,12.382,1692.280735
20 Apr 2023 11:54:57.000,252.352,17.290,1433.152783
20 Apr 2023 11:55:57.000,234.911,21.528,1259.457611
20 Apr 2023 11:56:57.000,213.265,22.945,1209.302344
20 Apr 2023 11:57:57.000,192.440,20.473,1297.218144
20 Apr 2023 11:58:57.000,176.533,15.841,1498.755690
20 Apr 2023 11:59:57.000,165.551,10.971,1774.959502
20 Apr 2023 12:00:39.721,159.907,7.784,1999.984173
21 Apr 2023 03:29:28.699,165.868,7.728,1999.992652
21 Apr 2023 03:30:28.000,153.903,9.743,1853.747789
21 Apr 2023 03:31:28.000,140.213,10.714,1789.485666
21 Apr 2023 03:32:28.000,126.226,10.296,1818.649459
21 Apr 2023 03:33:28.000,113.415,8.635,1937.003273
21 Apr 2023 03:33:50.020,109.204,7.805,1999.992725
21 Apr 2023 05:07:13.812,228.635,7.765,1999.982808
21 Apr 2023 05:08:13.000,225.274,13.413,1625.529826
21 Apr 2023 05:09:13.000,219.454,21.274,1265.391202
21 Apr 2023 05:10:13.000,207.732,32.805,949.486648
21 Apr 2023 05:11:13.000,178.969,47.261,738.938053
21 Apr 2023 05:12:13.000,127.205,47.977,732.202035
21 Apr 2023 05:13:13.000,96.818,33.699,933.714528
21 Apr 2023 05:14:13.000,84.527,21.928,1245.717449
21 Apr 2023 05:15:13.000,78.514,13.907,1604.186615
21 Apr 2023 05:16:13.000,75.049,8.101,1983.083720
21 Apr 2023 05:16:15.632,74.931,7.880,1999.974944
21 Apr 2023 06:47:54.466,267.248,7.839,1999.990239
21 Apr 2023 06:48:54.000,270.020,13.601,1619.806293
21 Apr 2023 06:49:54.000,274.668,21.725,1252.856396
21 Apr 2023 06:50:54.000,284.109,34.258,923.944631
21 Apr 2023 06:51:54.000,310.807,52.624,691.773433
21 Apr 2023 06:52:54.000,16.534,55.859,667.578400
21 Apr 2023 06:53:54.000,50.363,37.460,868.938655
21 Apr 2023 06:54:54.000,61.568,23.764,1185.521409
21 Apr 2023 06:55:54.000,66.809,14.997,1547.352195
21 Apr 2023 06:56:54.000,69.867,8.857,1928.128779
21 Apr 2023 06:57:05.145,70.304,7.897,1999.984642
21 Apr 2023 08:29:02.362,287.951,7.887,1999.977682
21 Apr 2023 08:30:02.000,291.374,13.588,1623.362760
21 Apr 2023 08:31:02.000,297.065,21.505,1262.817684
21 Apr 2023 08:32:02.000,308.318,33.277,944.162375
21 Apr 2023 08:33:02.000,336.603,48.756,726.808548
21 Apr 2023 08:34:02.000,31.795,50.371,711.727734
21 Apr 2023 08:35:02.000,63.837,35.125,909.098240
21 Apr 2023 08:36:02.000,76.313,22.737,1219.321901
21 Apr 2023 08:37:02.000,82.441,14.436,1576.353895
21 Apr 2023 08:38:02.000,86.072,8.492,1953.732264
21 Apr 2023 08:38:09.230,86.414,7.879,1999.979159
21 Apr 2023 10:09:51.623,287.854,7.896,1999.989021
21 Apr 2023 10:10:51.000,286.285,13.728,1615.668504
21 Apr 2023 10:11:51.000,283.428,22.100,1241.316134
21 Apr 2023 10:12:51.000,277.111,35.551,901.056621
21 Apr 2023 10:13:51.000,255.232,58.018,652.963739
21 Apr 2023 10:14:51.000,167.636,63.692,621.097465
21 Apr 2023 10:15:51.000,134.970,39.872,830.823756
21 Apr 2023 10:16:51.000,126.965,24.593,1157.021344
21 Apr 2023 10:17:51.000,123.587,15.338,1525.952872
21 Apr 2023 10:18:51.000,121.765,9.006,1912.042957
21 Apr 2023 10:19:04.474,121.469,7.825,1999.977252
21 Apr 2023 11:51:28.893,264.083,7.864,1999.993937
21 Apr 2023 11:52:28.000,253.821,11.343,1755.281968
21 Apr 2023 11:53:28.000,240.206,14.379,1576.398273
21 Apr 2023 11:54:28.000,223.788,15.971,1493.497694
21 Apr 2023 11:55:28.000,206.687,15.371,1522.587401
21 Apr 2023 11:56:28.000,191.555,12.878,1657.596062
21 Apr 2023 11:57:28.000,179.621,9.474,1875.263916
21 Apr 2023 11:57:56.500,175.035,7.775,1999.986951
22 Apr 2023 03:26:15.537,185.646,7.724,1999.988802
22 Apr 2023 03:27:15.000,175.386,11.282,1751.015802
22 Apr 2023 03:28:15.000,161.793,14.418,1568.656693
22 Apr 2023 03:29:15.000,145.299,16.135,1482.036341
