aer_data/MS_AER.csv

Time (UTCG),Azimuth (deg),Elevation (deg),Range (km)
31 Mar 2023 17:31:42.958,299.123,7.945,1999.987991
31 Mar 2023 17:32:42.000,305.661,12.976,1662.388982
31 Mar 2023 17:33:42.000,315.883,19.224,1354.597421
31 Mar 2023 17:34:42.000,332.491,26.246,1113.742951
31 Mar 2023 17:35:42.000,357.917,31.149,991.125078
31 Mar 2023 17:36:42.000,26.442,29.434,1030.380121
31 Mar 2023 17:37:42.000,47.698,22.924,1215.823007
31 Mar 2023 17:38:42.000,60.872,16.114,1493.454953
31 Mar 2023 17:39:42.000,69.131,10.420,1820.823596
31 Mar 2023 17:40:12.785,72.217,7.920,1999.997420
31 Mar 2023 19:12:32.774,299.224,7.942,1999.983064
31 Mar 2023 19:13:32.000,301.242,13.734,1618.451447
31 Mar 2023 19:14:32.000,304.625,22.038,1246.056468
31 Mar 2023 19:15:32.000,311.627,35.279,907.828017
31 Mar 2023 19:16:32.000,334.260,57.010,660.905666
31 Mar 2023 19:17:32.000,57.675,62.899,626.252197
31 Mar 2023 19:18:32.000,91.956,39.962,831.024553
31 Mar 2023 19:19:32.000,100.893,24.760,1153.673333
31 Mar 2023 19:20:32.000,104.847,15.490,1520.159558
31 Mar 2023 19:21:32.000,107.109,9.139,1904.379799
31 Mar 2023 19:21:46.707,107.528,7.849,1999.970066
31 Mar 2023 20:53:39.788,278.600,7.902,1999.988868
31 Mar 2023 20:54:39.000,271.164,12.672,1676.277619
31 Mar 2023 20:55:39.000,259.765,18.211,1393.005358
31 Mar 2023 20:56:39.000,242.426,23.613,1188.683742
31 Mar 2023 20:57:39.000,219.016,26.225,1108.765502
31 Mar 2023 20:58:39.000,195.356,23.853,1179.072616
31 Mar 2023 20:59:39.000,177.582,18.496,1376.491956
31 Mar 2023 21:00:39.000,165.850,12.907,1655.524725
31 Mar 2023 21:01:39.000,158.107,8.020,1981.111754
31 Mar 2023 21:01:42.315,157.760,7.773,1999.998953
1 Apr 2023 12:27:41.001,191.840,7.779,1999.980753
1 Apr 2023 12:28:41.000,182.606,11.977,1711.545346
1 Apr 2023 12:29:41.000,169.657,16.188,1482.100560
1 Apr 2023 12:30:41.000,152.406,19.321,1343.422603
1 Apr 2023 12:31:41.000,132.598,19.804,1325.007986
1 Apr 2023 12:32:41.000,114.286,17.329,1431.647958
1 Apr 2023 12:33:41.000,100.100,13.304,1638.822529
1 Apr 2023 12:34:41.000,89.931,9.055,1913.558402
1 Apr 2023 12:34:58.018,87.628,7.898,1999.981082
1 Apr 2023 14:07:05.199,245.341,7.846,1999.977566
1 Apr 2023 14:08:05.000,246.060,13.772,1610.982685
1 Apr 2023 14:09:05.000,247.217,22.308,1233.214793
1 Apr 2023 14:10:05.000,249.596,36.402,886.512817
1 Apr 2023 14:11:05.000,258.647,62.692,627.141252
1 Apr 2023 14:12:05.000,38.572,73.057,586.911738
1 Apr 2023 14:13:05.000,57.047,42.346,799.673184
1 Apr 2023 14:14:05.000,60.229,25.641,1130.089658
1 Apr 2023 14:15:05.000,61.627,15.953,1501.591904
1 Apr 2023 14:16:05.000,62.468,9.447,1889.078502
1 Apr 2023 14:16:21.946,62.655,7.942,1999.972858
1 Apr 2023 15:48:32.277,283.290,7.918,1999.981161
1 Apr 2023 15:49:32.000,289.564,13.110,1653.178250
1 Apr 2023 15:50:32.000,299.402,19.604,1338.170936
1 Apr 2023 15:51:32.000,315.798,27.171,1087.756475
1 Apr 2023 15:52:32.000,341.996,32.835,955.401817
1 Apr 2023 15:53:32.000,12.256,31.195,990.149083
1 Apr 2023 15:54:32.000,34.427,24.127,1177.150257
1 Apr 2023 15:55:32.000,47.740,16.866,1458.432701
1 Apr 2023 15:56:32.000,55.905,10.922,1789.277090
1 Apr 2023 15:57:07.812,59.363,7.945,1999.983650
1 Apr 2023 17:29:55.862,301.094,7.947,1999.998561
1 Apr 2023 17:30:55.000,307.108,13.125,1653.866754
1 Apr 2023 17:31:55.000,316.652,19.719,1334.425527
1 Apr 2023 17:32:55.000,332.761,27.574,1077.388800
1 Apr 2023 17:33:55.000,359.215,33.762,936.993583
1 Apr 2023 17:34:55.000,30.572,32.298,966.137678
1 Apr 2023 17:35:55.000,53.452,24.911,1151.964465
1 Apr 2023 17:36:55.000,66.936,17.353,1434.337399
1 Apr 2023 17:37:55.000,75.084,11.233,1766.806176
1 Apr 2023 17:38:34.387,78.806,7.909,1999.990618
1 Apr 2023 19:10:40.641,296.388,7.938,1999.981307
1 Apr 2023 19:11:40.000,296.542,13.816,1613.512198
1 Apr 2023 19:12:40.000,296.688,22.341,1235.013962
1 Apr 2023 19:13:40.000,296.813,36.456,886.882535
1 Apr 2023 19:14:40.000,296.839,63.210,624.719988
1 Apr 2023 19:15:40.000,117.583,74.918,581.391908
1 Apr 2023 19:16:40.000,117.440,42.678,793.756283
1 Apr 2023 19:17:40.000,117.538,25.703,1124.854631
1 Apr 2023 19:18:40.000,117.656,15.931,1497.115705
1 Apr 2023 19:19:40.000,117.779,9.389,1885.332365
1 Apr 2023 19:19:57.487,117.814,7.832,1999.984382
1 Apr 2023 20:52:14.135,269.233,7.885,1999.985989
1 Apr 2023 20:53:14.000,259.352,11.719,1732.889954
1 Apr 2023 20:54:14.000,245.958,15.274,1530.444758
1 Apr 2023 20:55:14.000,229.081,17.496,1422.326843
1 Apr 2023 20:56:14.000,210.780,17.292,1430.447387
1 Apr 2023 20:57:14.000,194.312,14.773,1552.871662
1 Apr 2023 20:58:14.000,181.422,11.105,1765.501732
1 Apr 2023 20:59:05.921,173.030,7.768,1999.985006
2 Apr 2023 12:25:10.290,206.375,7.786,1999.980133
2 Apr 2023 12:26:10.000,199.567,12.825,1661.131308
2 Apr 2023 12:27:10.000,188.941,18.902,1360.012465
2 Apr 2023 12:28:10.000,171.888,25.407,1131.947305
2 Apr 2023 12:29:10.000,146.925,29.346,1027.977637
2 Apr 2023 12:30:10.000,120.367,27.142,1084.866944
2 Apr 2023 12:31:10.000,100.837,20.993,1281.224704
2 Apr 2023 12:32:10.000,88.583,14.667,1564.870005
2 Apr 2023 12:33:10.000,80.840,9.312,1896.235248
2 Apr 2023 12:33:27.771,79.103,7.912,1999.990477
2 Apr 2023 14:05:17.535,255.424,7.862,1999.990834
2 Apr 2023 14:06:17.000,257.930,13.648,1618.978870
2 Apr 2023 14:07:17.000,262.154,21.853,1250.088941
2 Apr 2023 14:08:17.000,270.822,34.660,918.011466
2 Apr 2023 14:09:17.000,296.506,54.160,681.062913
2 Apr 2023 14:10:17.000,7.251,58.144,653.747358
2 Apr 2023 14:11:17.000,41.476,38.371,856.378441
2 Apr 2023 14:12:17.000,52.025,24.174,1174.964600
2 Apr 2023 14:13:17.000,56.868,15.233,1538.260207
2 Apr 2023 14:14:17.000,59.679,9.018,1920.044466
2 Apr 2023 14:14:29.370,60.123,7.945,1999.980578
2 Apr 2023 15:46:53.378,289.530,7.927,2000.000057
2 Apr 2023 15:47:53.000,296.245,12.989,1660.786454
2 Apr 2023 15:48:53.000,306.637,19.182,1355.807002
2 Apr 2023 15:49:53.000,323.404,26.051,1119.106990
2 Apr 2023 15:50:53.000,348.702,30.686,1001.487044
2 Apr 2023 15:51:53.000,16.697,28.869,1044.437126
2 Apr 2023 15:52:53.000,37.566,22.494,1231.111345
2 Apr 2023 15:53:53.000,50.609,15.829,1508.531212
2 Apr 2023 15:54:53.000,58.847,10.228,1835.209889
2 Apr 2023 15:55:21.411,61.721,7.942,1999.997460
2 Apr 2023 17:28:05.970,301.825,7.948,1999.999701
2 Apr 2023 17:29:05.000,306.984,13.300,1643.743262
2 Apr 2023 17:30:05.000,315.362,20.381,1308.209116
2 Apr 2023 17:31:05.000,330.325,29.541,1027.832330
2 Apr 2023 17:32:05.000,358.079,38.164,859.997286
2 Apr 2023 17:33:05.000,34.867,37.331,873.037055
2 Apr 2023 17:34:05.000,60.603,28.187,1060.302178
2 Apr 2023 17:35:05.000,74.358,19.268,1350.718383
2 Apr 2023 17:36:05.000,82.161,12.439,1691.211821
2 Apr 2023 17:36:55.937,86.463,7.896,1999.999772
2 Apr 2023 19:08:50.220,292.512,7.932,1999.990426
2 Apr 2023 19:09:50.000,290.524,13.787,1614.617579
2 Apr 2023 19:10:50.000,286.971,22.102,1242.864031
2 Apr 2023 19:11:50.000,279.253,35.264,907.215631
2 Apr 2023 19:12:50.000,254.392,56.010,666.953354
2 Apr 2023 19:13:50.000,177.651,59.924,641.539718
2 Apr 2023 19:14:50.000,144.693,38.569,850.542797
2 Apr 2023 19:15:50.000,135.405,24.040,1174.381341
2 Apr 2023 19:16:50.000,131.340,15.032,1541.515524
2 Apr 2023 19:17:50.000,129.102,8.800,1926.351706
2 Apr 2023 19:18:01.315,128.791,7.815,1999.980894
2 Apr 2023 20:51:14.150,255.065,7.859,1999.987584
2 Apr 2023 20:52:14.000,243.178,10.126,1834.680492
2 Apr 2023 20:53:14.000,229.376,11.367,1751.717924
2 Apr 2023 20:54:14.000,214.950,11.161,1763.566718
2 Apr 2023 20:55:14.000,201.530,9.579,1868.279929
2 Apr 2023 20:55:59.235,192.749,7.773,1999.996962
3 Apr 2023 12:22:54.318,219.227,7.797,1999.971640
3 Apr 2023 12:23:54.000,214.840,13.365,1630.678801
3 Apr 2023 12:24:54.000,207.472,20.845,1283.577278
3 Apr 2023 12:25:54.000,193.468,31.042,988.596332
3 Apr 2023 12:26:54.000,164.556,41.614,806.876156
3 Apr 2023 12:27:54.000,123.117,40.798,818.576171
3 Apr 2023 12:28:54.000,96.254,29.888,1017.019541
3 Apr 2023 12:29:54.000,83.285,20.013,1320.012249
3 Apr 2023 12:30:54.000,76.381,12.793,1670.816525
3 Apr 2023 12:31:47.042,72.618,7.922,1999.990405
3 Apr 2023 14:03:34.364,264.803,7.878,1999.990405
3 Apr 2023 14:04:34.000,268.815,13.506,1627.985143
3 Apr 2023 14:05:34.000,275.455,21.197,1274.684215
3 Apr 2023 14:06:34.000,288.218,32.162,967.738083
3 Apr 2023 14:07:34.000,316.985,45.056,766.793906
3 Apr 2023 14:08:34.000,4.438,45.522,761.848792
3 Apr 2023 14:09:34.000,34.291,32.793,955.899095
3 Apr 2023 14:10:34.000,47.511,21.675,1259.584966
3 Apr 2023 14:11:34.000,54.343,13.872,1611.253156
3 Apr 2023 14:12:34.000,58.479,8.149,1984.561783
3 Apr 2023 14:12:36.435,58.613,7.947,1999.981439
3 Apr 2023 15:45:12.460,294.533,7.935,1999.983968
3 Apr 2023 15:46:12.000,301.390,12.945,1663.755185
3 Apr 2023 15:47:12.000,311.958,19.032,1362.306888
3 Apr 2023 15:48:12.000,328.819,25.668,1130.305873
3 Apr 2023 15:49:12.000,353.800,29.988,1017.557211
3 Apr 2023 15:50:12.000,21.096,28.125,1063.151611
3 Apr 2023 15:51:12.000,41.552,21.959,1249.729900
3 Apr 2023 15:52:12.000,54.495,15.478,1525.898564
3 Apr 2023 15:53:12.000,62.747,9.988,1851.210812
3 Apr 2023 15:53:37.779,65.392,7.936,1999.999413
3 Apr 2023 17:26:13.984,301.404,7.947,1999.982435
3 Apr 2023 17:27:13.000,305.408,13.498,1632.282591
3 Apr 2023 17:28:13.000,312.059,21.141,1279.179545
3 Apr 2023 17:29:13.000,324.780,32.016,972.028072
3 Apr 2023 17:30:13.000,353.298,44.820,769.894952
3 Apr 2023 17:31:13.000,40.478,45.439,762.537059
3 Apr 2023 17:32:13.000,70.506,32.809,954.544885
3 Apr 2023 17:33:13.000,83.847,21.680,1257.238566
3 Apr 2023 17:34:13.000,90.730,13.857,1608.559496
3 Apr 2023 17:35:13.000,94.882,8.119,1981.872613
3 Apr 2023 17:35:15.859,95.040,7.881,1999.982211
3 Apr 2023 19:07:03.237,287.481,7.924,1999.981351
3 Apr 2023 19:08:03.000,283.159,13.506,1629.714123
3 Apr 2023 19:09:03.000,275.861,21.004,1282.009012
3 Apr 2023 19:10:03.000,261.908,31.252,986.205810
3 Apr 2023 19:11:03.000,232.876,41.913,803.574579
3 Apr 2023 19:12:03.000,191.080,41.018,814.971325
3 Apr 2023 19:13:03.000,164.159,29.932,1013.813356
3 Apr 2023 19:14:03.000,151.231,19.972,1317.258961
3 Apr 2023 19:15:03.000,144.347,12.717,1668.355404
3 Apr 2023 19:15:56.411,140.560,7.800,1999.990361
4 Apr 2023 10:42:52.861,166.826,7.769,1999.987609
4 Apr 2023 10:43:52.000,155.066,10.007,1838.751243
4 Apr 2023 10:44:52.000,141.296,11.260,1757.266653
4 Apr 2023 10:45:52.000,126.927,11.078,1770.264619
4 Apr 2023 10:46:52.000,113.567,9.531,1875.829803
4 Apr 2023 10:47:34.804,105.266,7.855,1999.987540
4 Apr 2023 12:20:49.109,231.011,7.811,1999.982298
4 Apr 2023 12:21:49.000,228.944,13.678,1613.974449
4 Apr 2023 12:22:49.000,225.297,21.993,1242.452322
4 Apr 2023 12:23:49.000,217.433,35.140,907.324587
4 Apr 2023 12:24:49.000,192.344,55.748,668.103281
4 Apr 2023 12:25:49.000,116.576,59.578,643.821266
4 Apr 2023 12:26:49.000,83.607,38.501,853.085036
4 Apr 2023 12:27:49.000,74.214,24.072,1176.794064
4 Apr 2023 12:28:49.000,70.110,15.100,1543.753300
4 Apr 2023 12:29:49.000,67.868,8.886,1928.421585
4 Apr 2023 12:30:00.002,67.566,7.930,1999.978770
4 Apr 2023 14:01:54.086,273.394,7.893,1999.981802
4 Apr 2023 14:02:54.000,278.615,13.345,1638.050582
4 Apr 2023 14:03:54.000,287.025,20.476,1302.594257
4 Apr 2023 14:04:54.000,302.100,29.704,1022.928634
4 Apr 2023 14:05:54.000,330.111,38.332,857.029875
4 Apr 2023 14:06:54.000,6.998,37.345,873.035456
4 Apr 2023 14:07:54.000,32.564,28.131,1062.653577
4 Apr 2023 14:08:54.000,46.196,19.226,1354.290270
4 Apr 2023 14:09:54.000,53.940,12.421,1695.282529
4 Apr 2023 14:10:44.260,58.173,7.947,1999.991022
4 Apr 2023 15:43:28.685,298.226,7.940,1999.997569
4 Apr 2023 15:44:28.000,304.908,12.969,1662.625217
4 Apr 2023 15:45:28.000,315.284,19.149,1357.556045
4 Apr 2023 15:46:28.000,332.012,26.007,1120.534025
4 Apr 2023 15:47:28.000,357.258,30.652,1002.255829
4 Apr 2023 15:48:28.000,25.247,28.865,1044.369688
4 Apr 2023 15:49:28.000,46.148,22.504,1230.393309
4 Apr 2023 15:50:28.000,59.219,15.838,1507.450414
4 Apr 2023 15:51:28.000,67.473,10.233,1833.972601
4 Apr 2023 15:51:56.623,70.371,7.928,1999.982468
4 Apr 2023 17:24:20.842,299.913,7.945,1999.970308
4 Apr 2023 17:25:20.000,302.458,13.687,1621.356743
4 Apr 2023 17:26:20.000,306.737,21.858,1252.792861
4 Apr 2023 17:27:20.000,315.469,34.584,920.861424
4 Apr 2023 17:28:20.000,341.109,53.897,683.506154
4 Apr 2023 17:29:20.000,51.142,57.957,654.713061
4 Apr 2023 17:30:20.000,85.574,38.328,855.939586
4 Apr 2023 17:31:20.000,96.247,24.130,1173.903022
4 Apr 2023 17:32:20.000,101.135,15.177,1537.040724
4 Apr 2023 17:33:20.000,103.956,8.953,1918.919501
4 Apr 2023 17:33:32.536,104.405,7.864,1999.971886
4 Apr 2023 19:05:22.124,281.027,7.913,2000.000080
4 Apr 2023 19:06:22.000,274.261,12.976,1659.275685
4 Apr 2023 19:07:22.000,263.672,19.074,1357.169707
4 Apr 2023 19:08:22.000,246.598,25.611,1128.071937
4 Apr 2023 19:09:22.000,221.498,29.555,1023.343988
4 Apr 2023 19:10:22.000,194.783,27.268,1080.153499
4 Apr 2023 19:11:22.000,175.199,21.019,1276.886577
4 Apr 2023 19:12:22.000,162.939,14.632,1560.895282
4 Apr 2023 19:13:22.000,155.189,9.244,1892.427391
4 Apr 2023 19:13:40.415,153.388,7.788,1999.989988
5 Apr 2023 10:39:44.897,186.672,7.763,1999.978274
5 Apr 2023 10:40:44.000,176.891,11.540,1737.586715
5 Apr 2023 10:41:44.000,163.532,15.096,1535.869450
5 Apr 2023 10:42:44.000,146.732,17.342,1428.017230
5 Apr 2023 10:43:44.000,128.515,17.195,1435.876152
5 Apr 2023 10:44:44.000,112.095,14.745,1557.745534
5 Apr 2023 10:45:44.000,99.223,11.133,1769.892469
5 Apr 2023 10:46:35.056,90.963,7.881,1999.995707
5 Apr 2023 12:18:52.287,241.996,7.827,1999.991177
5 Apr 2023 12:19:52.000,242.082,13.750,1610.988775
5 Apr 2023 12:20:52.000,242.139,22.303,1232.412482
5 Apr 2023 12:21:52.000,242.108,36.480,884.480094
5 Apr 2023 12:22:52.000,241.558,63.367,623.280999
5 Apr 2023 12:23:52.000,64.914,74.697,582.083138
5 Apr 2023 12:24:52.000,63.535,42.603,795.886157
5 Apr 2023 12:25:52.000,63.459,25.713,1127.425738
5 Apr 2023 12:26:52.000,63.524,15.979,1499.740653
5 Apr 2023 12:27:52.000,63.636,9.456,1887.841826
5 Apr 2023 12:28:09.113,63.672,7.935,1999.982445
5 Apr 2023 14:00:15.075,281.066,7.905,1999.974143
5 Apr 2023 14:01:15.000,287.155,13.168,1649.001965
5 Apr 2023 14:02:15.000,296.740,19.798,1329.756008
5 Apr 2023 14:03:15.000,312.953,27.690,1073.502839
5 Apr 2023 14:04:15.000,339.573,33.858,934.856278
5 Apr 2023 14:05:15.000,10.961,32.295,966.370027
5 Apr 2023 14:06:15.000,33.730,24.865,1154.048819
5 Apr 2023 14:07:15.000,47.125,17.316,1437.432723
5 Apr 2023 14:08:15.000,55.227,11.213,1770.345145
5 Apr 2023 14:08:53.781,58.882,7.946,1999.977418
5 Apr 2023 15:41:41.760,300.605,7.943,1999.998046
5 Apr 2023 15:42:41.000,306.835,13.080,1656.216894
5 Apr 2023 15:43:41.000,316.652,19.550,1341.152960
5 Apr 2023 15:44:41.000,332.987,27.090,1090.314285
5 Apr 2023 15:45:41.000,359.083,32.760,956.942340
5 Apr 2023 15:46:41.000,29.312,31.176,990.282149
5 Apr 2023 15:47:41.000,51.540,24.137,1176.161571
5 Apr 2023 15:48:41.000,64.903,16.875,1456.828594
5 Apr 2023 15:49:41.000,73.095,10.923,1787.420374
5 Apr 2023 15:50:17.130,76.588,7.918,1999.990058
5 Apr 2023 17:22:27.651,297.400,7.941,1999.978921
5 Apr 2023 17:23:27.000,298.178,13.809,1614.189946
5 Apr 2023 17:24:27.000,299.416,22.307,1236.526895
5 Apr 2023 17:25:27.000,301.927,36.313,889.633542
5 Apr 2023 17:26:27.000,311.347,62.380,629.208874
5 Apr 2023 17:27:27.000,88.832,73.118,586.499453
5 Apr 2023 17:28:27.000,108.602,42.424,797.464911
5 Apr 2023 17:29:27.000,111.971,25.644,1127.272885
5 Apr 2023 17:30:27.000,113.428,15.918,1498.655428
5 Apr 2023 17:31:27.000,114.282,9.392,1886.238366
5 Apr 2023 17:31:44.371,114.471,7.847,1999.970786
5 Apr 2023 19:03:51.003,272.550,7.898,1999.984664
5 Apr 2023 19:04:51.000,263.369,12.105,1710.023969
5 Apr 2023 19:05:51.000,250.441,16.329,1478.961684
5 Apr 2023 19:06:51.000,233.155,19.472,1338.707990
5 Apr 2023 19:07:51.000,213.251,19.937,1319.075941
5 Apr 2023 19:08:51.000,194.839,17.412,1425.052635
5 Apr 2023 19:09:51.000,180.586,13.331,1631.930944
5 Apr 2023 19:10:51.000,170.372,9.041,1906.435239
5 Apr 2023 19:11:09.416,167.876,7.780,1999.999623
6 Apr 2023 10:37:07.282,201.981,7.767,1999.994226
6 Apr 2023 10:38:07.000,194.405,12.571,1674.815234
6 Apr 2023 10:39:07.000,182.922,18.097,1393.349825
6 Apr 2023 10:40:07.000,165.541,23.462,1191.313239
6 Apr 2023 10:41:07.000,142.212,26.034,1113.836197
6 Apr 2023 10:42:07.000,118.727,23.686,1185.952618
6 Apr 2023 10:43:07.000,101.087,18.403,1384.293210
6 Apr 2023 10:44:07.000,89.428,12.877,1663.762849
6 Apr 2023 10:45:07.000,81.736,8.032,1989.666568
6 Apr 2023 10:45:08.814,81.547,7.897,1999.998925
6 Apr 2023 12:17:02.058,252.288,7.843,1999.990970
6 Apr 2023 12:18:02.000,254.275,13.725,1613.445042
6 Apr 2023 12:19:02.000,257.605,22.085,1240.864080
6 Apr 2023 12:20:02.000,264.558,35.456,902.846118
6 Apr 2023 12:21:02.000,287.372,57.456,657.326484
6 Apr 2023 12:22:02.000,12.037,62.956,626.069746
6 Apr 2023 12:23:02.000,45.565,39.858,833.561386
6 Apr 2023 12:24:02.000,54.291,24.724,1157.312956
6 Apr 2023 12:25:02.000,58.175,15.498,1524.140249
6 Apr 2023 12:26:02.000,60.418,9.173,1908.348459
6 Apr 2023 12:26:16.106,60.820,7.938,1999.990065
6 Apr 2023 13:58:35.758,287.671,7.915,1999.990609
6 Apr 2023 13:59:35.000,294.223,12.971,1661.035372
6 Apr 2023 14:00:35.000,304.449,19.232,1353.155116
6 Apr 2023 14:01:35.000,321.080,26.272,1112.377868
6 Apr 2023 14:02:35.000,346.550,31.183,990.112357
6 Apr 2023 14:03:35.000,15.100,29.454,1029.934538
6 Apr 2023 14:04:35.000,36.344,22.935,1215.870647
6 Apr 2023 14:05:35.000,49.502,16.125,1493.784915
6 Apr 2023 14:06:35.000,57.752,10.434,1821.258650
6 Apr 2023 14:07:05.710,60.829,7.942,1999.990026
6 Apr 2023 15:39:51.888,301.721,7.944,1999.983005
6 Apr 2023 15:40:51.000,307.191,13.242,1646.859007
6 Apr 2023 15:41:51.000,316.001,20.159,1316.794477
6 Apr 2023 15:42:51.000,331.428,28.854,1044.496565
6 Apr 2023 15:43:51.000,358.776,36.545,886.442532
6 Apr 2023 15:44:51.000,33.456,35.446,905.332769
6 Apr 2023 15:45:51.000,58.122,26.993,1092.001428
6 Apr 2023 15:46:51.000,71.816,18.590,1379.475575
6 Apr 2023 15:47:51.000,79.768,12.021,1717.103077
6 Apr 2023 15:48:38.040,83.917,7.905,1999.970822
6 Apr 2023 17:20:35.710,293.864,7.935,1999.979534
6 Apr 2023 17:21:35.000,292.596,13.776,1615.505538
6 Apr 2023 17:22:35.000,290.262,22.198,1239.829015
6 Apr 2023 17:23:35.000,285.032,35.856,897.062319
6 Apr 2023 17:24:35.000,265.937,59.547,644.509065
6 Apr 2023 17:25:35.000,167.916,66.574,608.888662
6 Apr 2023 17:26:35.000,136.648,40.756,819.134348
6 Apr 2023 17:27:35.000,129.814,24.959,1146.714353
6 Apr 2023 17:28:35.000,126.991,15.536,1516.634085
6 Apr 2023 17:29:35.000,125.484,9.133,1903.373528
6 Apr 2023 17:29:49.782,125.217,7.830,1999.980938
6 Apr 2023 19:02:39.201,260.445,7.876,1999.996535
6 Apr 2023 19:03:39.000,249.146,10.731,1795.518774
6 Apr 2023 19:04:39.000,235.269,12.752,1668.327716
6 Apr 2023 19:05:39.000,219.866,13.254,1637.948864
6 Apr 2023 19:06:39.000,204.889,12.024,1709.569569
6 Apr 2023 19:07:39.000,192.003,9.542,1871.170382
6 Apr 2023 19:08:14.359,185.642,7.780,1999.996696
7 Apr 2023 10:34:46.393,215.268,7.777,1999.990535
7 Apr 2023 10:35:46.000,210.123,13.197,1638.940889
7 Apr 2023 10:36:46.000,201.647,20.283,1303.854546
7 Apr 2023 10:37:46.000,186.331,29.319,1027.324202
7 Apr 2023 10:38:46.000,158.328,37.355,868.796027
7 Apr 2023 10:39:46.000,122.796,35.889,894.153536
7 Apr 2023 10:40:46.000,98.464,26.941,1090.587225
7 Apr 2023 10:41:46.000,85.425,18.375,1386.698437
7 Apr 2023 10:42:46.000,78.055,11.779,1731.280685
7 Apr 2023 10:43:30.018,74.509,7.909,1999.983635
7 Apr 2023 12:15:16.821,261.892,7.860,1999.968347
7 Apr 2023 12:16:16.000,265.427,13.498,1627.214202
7 Apr 2023 12:17:16.000,271.346,21.344,1268.258324
7 Apr 2023 12:18:16.000,282.970,32.879,952.239694
7 Apr 2023 12:19:16.000,311.292,47.635,738.423122
7 Apr 2023 12:20:16.000,4.083,49.059,724.761317
7 Apr 2023 12:21:16.000,35.717,34.604,920.184380
7 Apr 2023 12:22:16.000,48.509,22.552,1228.121518
7 Apr 2023 12:23:16.000,54.874,14.370,1583.424748
7 Apr 2023 12:24:16.000,58.667,8.476,1959.494930
7 Apr 2023 12:24:22.351,58.982,7.940,1999.992110
7 Apr 2023 13:56:54.779,293.075,7.923,2000.000052
7 Apr 2023 13:57:54.000,299.871,12.908,1665.182490
7 Apr 2023 13:58:54.000,310.394,19.001,1363.044011
7 Apr 2023 13:59:54.000,327.202,25.664,1130.011402
7 Apr 2023 14:00:54.000,352.179,30.044,1015.945152
7 Apr 2023 14:01:54.000,19.566,28.222,1060.403669
7 Apr 2023 14:02:54.000,40.113,22.048,1246.386802
7 Apr 2023 14:03:54.000,53.100,15.546,1522.351013
7 Apr 2023 14:04:54.000,61.371,10.040,1847.628540
7 Apr 2023 14:05:20.390,64.078,7.937,1999.996976
7 Apr 2023 15:37:59.668,301.658,7.943,1999.977469
7 Apr 2023 15:38:59.000,306.093,13.465,1633.992448
7 Apr 2023 15:39:59.000,313.383,20.940,1286.622945
7 Apr 2023 15:40:59.000,327.028,31.250,988.492576
7 Apr 2023 15:41:59.000,355.578,42.467,798.626938
7 Apr 2023 15:42:59.000,38.633,42.396,799.291532
7 Apr 2023 15:43:59.000,67.031,31.133,990.148354
7 Apr 2023 15:44:59.000,80.596,20.831,1288.862482
7 Apr 2023 15:45:59.000,87.841,13.366,1636.661546
7 Apr 2023 15:46:57.846,92.212,7.890,1999.989964
7 Apr 2023 17:18:46.598,289.223,7.927,1999.990838
7 Apr 2023 17:19:46.000,285.689,13.582,1625.746852
7 Apr 2023 17:20:46.000,279.583,21.391,1268.064159
7 Apr 2023 17:21:46.000,267.371,32.697,956.097306
7 Apr 2023 17:22:46.000,238.346,46.351,751.107408
7 Apr 2023 17:23:46.000,188.764,46.596,747.967209
7 Apr 2023 17:24:46.000,159.100,32.971,948.675600
7 Apr 2023 17:25:46.000,146.629,21.542,1258.723845
7 Apr 2023 17:26:46.000,140.402,13.653,1615.530687
7 Apr 2023 17:27:46.000,136.759,7.903,1993.135213
7 Apr 2023 17:27:47.071,136.708,7.813,1999.984109
7 Apr 2023 19:02:46.785,232.896,7.828,1999.998292
7 Apr 2023 19:03:46.000,220.493,7.896,1993.392182
7 Apr 2023 19:03:55.547,218.508,7.807,1999.999937
8 Apr 2023 08:55:16.628,157.955,7.760,1999.991840
8 Apr 2023 08:56:16.000,145.679,9.259,1890.271418
8 Apr 2023 08:57:16.000,132.278,9.642,1864.699576
8 Apr 2023 08:58:16.000,119.168,8.770,1928.461217
8 Apr 2023 08:58:49.415,112.439,7.827,1999.997169
8 Apr 2023 10:32:37.263,227.345,7.790,1999.992701
8 Apr 2023 10:33:37.000,224.556,13.573,1618.407777
8 Apr 2023 10:34:37.000,219.704,21.679,1252.457377
8 Apr 2023 10:35:37.000,209.599,34.036,926.880276
8 Apr 2023 10:36:37.000,181.666,51.267,702.420837
8 Apr 2023 10:37:37.000,120.705,53.110,687.701474
8 Apr 2023 10:38:37.000,88.672,36.002,893.184635
8 Apr 2023 10:39:37.000,77.446,22.994,1211.048137
8 Apr 2023 10:40:37.000,72.232,14.511,1573.808291
8 Apr 2023 10:41:37.000,69.298,8.503,1955.635796
8 Apr 2023 10:41:43.862,69.044,7.917,1999.979953
8 Apr 2023 12:13:34.976,270.741,7.874,1999.999743
8 Apr 2023 12:14:34.000,275.528,13.298,1639.513379
8 Apr 2023 12:15:34.000,283.382,20.574,1297.816533
8 Apr 2023 12:16:34.000,297.744,30.289,1008.517453
8 Apr 2023 12:17:34.000,325.911,40.106,829.940333
8 Apr 2023 12:18:34.000,5.450,39.642,836.990318
8 Apr 2023 12:19:34.000,32.454,29.600,1025.764671
8 Apr 2023 12:20:34.000,46.197,20.064,1319.942289
8 Apr 2023 12:21:34.000,53.785,12.943,1663.714183
8 Apr 2023 12:22:29.015,58.193,7.940,1999.986214
8 Apr 2023 13:55:11.166,297.188,7.929,1999.978883
8 Apr 2023 13:56:11.000,304.020,12.984,1661.033515
8 Apr 2023 13:57:11.000,314.532,19.121,1358.210343
8 Apr 2023 13:58:11.000,331.386,25.856,1124.469562
8 Apr 2023 13:59:11.000,356.539,30.294,1010.127725
8 Apr 2023 14:00:11.000,24.129,28.422,1055.205895
8 Apr 2023 14:01:11.000,44.732,22.157,1242.332750
8 Apr 2023 14:02:11.000,57.693,15.598,1519.381666
8 Apr 2023 14:03:11.000,65.923,10.063,1845.518599
8 Apr 2023 14:03:37.694,68.641,7.929,1999.982454
8 Apr 2023 15:36:05.972,300.501,7.941,1999.973201
8 Apr 2023 15:37:05.000,303.542,13.618,1625.053678
8 Apr 2023 15:38:05.000,308.648,21.629,1260.917948
8 Apr 2023 15:39:05.000,318.876,33.775,936.184903
8 Apr 2023 15:40:05.000,346.198,50.765,709.397939
8 Apr 2023 15:41:05.000,46.580,53.429,686.924220
8 Apr 2023 15:42:05.000,79.980,36.572,884.597695
8 Apr 2023 15:43:05.000,91.913,23.406,1197.531816
8 Apr 2023 15:44:05.000,97.592,14.804,1556.968002
8 Apr 2023 15:45:05.000,100.910,8.724,1936.227862
8 Apr 2023 15:45:14.921,101.333,7.873,1999.986912
8 Apr 2023 17:17:02.461,283.270,7.916,1999.995118
8 Apr 2023 17:18:02.000,277.328,13.149,1649.584535
8 Apr 2023 17:19:02.000,267.733,19.748,1330.134813
8 Apr 2023 17:20:02.000,251.349,27.478,1076.662616
8 Apr 2023 17:21:02.000,224.739,33.174,945.128665
8 Apr 2023 17:22:02.000,194.245,31.176,986.103651
8 Apr 2023 17:23:02.000,172.488,23.797,1181.600079
8 Apr 2023 17:24:02.000,159.728,16.439,1470.654457
8 Apr 2023 17:25:02.000,152.053,10.483,1808.094830
8 Apr 2023 17:25:34.136,149.148,7.799,1999.997204
9 Apr 2023 08:51:48.850,181.064,7.747,1999.985070
9 Apr 2023 08:52:48.000,170.590,11.114,1763.554855
9 Apr 2023 08:53:48.000,156.903,13.972,1594.657374
9 Apr 2023 08:54:48.000,140.681,15.373,1521.860524
9 Apr 2023 08:55:48.000,124.021,14.679,1559.067766
9 Apr 2023 08:56:48.000,109.359,12.231,1699.015374
9 Apr 2023 08:57:48.000,97.769,8.939,1918.959478
9 Apr 2023 08:58:06.727,94.763,7.859,1999.982827
9 Apr 2023 10:30:37.174,238.560,7.806,1999.987057
9 Apr 2023 10:31:37.000,237.983,13.733,1610.483569
9 Apr 2023 10:32:37.000,236.888,22.267,1232.448668
9 Apr 2023 10:33:37.000,234.332,36.354,885.718675
9 Apr 2023 10:34:37.000,223.811,62.493,627.032372
9 Apr 2023 10:35:37.000,90.985,72.156,588.563746
9 Apr 2023 10:36:37.000,70.319,42.021,802.692571
9 Apr 2023 10:37:37.000,66.883,25.463,1133.868177
9 Apr 2023 10:38:37.000,65.564,15.834,1505.942545
9 Apr 2023 10:39:37.000,64.917,9.356,1893.946341
9 Apr 2023 10:39:53.184,64.801,7.922,1999.977119
9 Apr 2023 12:11:54.922,278.717,7.887,1999.982420
9 Apr 2023 12:12:54.000,284.462,13.122,1650.475219
9 Apr 2023 12:13:54.000,293.662,19.874,1325.734819
9 Apr 2023 12:14:54.000,309.472,28.128,1061.367020
9 Apr 2023 12:15:54.000,336.359,35.002,912.785082
9 Apr 2023 12:16:54.000,9.192,33.710,937.350330
9 Apr 2023 12:17:54.000,32.885,25.873,1123.639701
9 Apr 2023 12:18:54.000,46.487,17.949,1408.340093
9 Apr 2023 12:19:54.000,54.567,11.633,1743.080035
9 Apr 2023 12:20:37.098,58.526,7.939,1999.991004
9 Apr 2023 13:53:24.438,299.983,7.932,1999.977818
9 Apr 2023 13:54:24.000,306.430,13.055,1656.989800
9 Apr 2023 13:55:24.000,316.493,19.419,1345.954985
9 Apr 2023 13:56:24.000,333.037,26.690,1100.865357
9 Apr 2023 13:57:24.000,358.848,31.920,974.110866
9 Apr 2023 13:58:24.000,28.150,30.214,1011.736564
9 Apr 2023 13:59:24.000,49.798,23.445,1198.257004
9 Apr 2023 14:00:24.000,63.021,16.432,1477.832109
9 Apr 2023 14:01:24.000,71.226,10.625,1807.013784
9 Apr 2023 14:01:56.972,74.471,7.919,1999.982101
9 Apr 2023 15:34:11.857,298.314,7.936,1999.975279
9 Apr 2023 15:35:11.000,299.687,13.759,1616.793650
9 Apr 2023 15:36:11.000,301.963,22.177,1241.006426
9 Apr 2023 15:37:11.000,306.691,35.879,897.128936
9 Apr 2023 15:38:11.000,323.533,60.184,641.241364
9 Apr 2023 15:39:11.000,69.693,68.808,600.630586
9 Apr 2023 15:40:11.000,100.292,41.590,808.583782
9 Apr 2023 15:41:11.000,106.594,25.375,1135.464079
9 Apr 2023 15:42:11.000,109.303,15.802,1504.918696
9 Apr 2023 15:43:11.000,110.852,9.331,1891.188701
9 Apr 2023 15:43:27.663,111.176,7.856,1999.982828
9 Apr 2023 17:15:26.692,275.546,7.903,1999.982644
9 Apr 2023 17:16:26.000,267.234,12.376,1694.068669
9 Apr 2023 17:17:26.000,254.976,17.243,1436.483058
9 Apr 2023 17:18:26.000,237.551,21.416,1264.481196
9 Apr 2023 17:19:26.000,216.016,22.780,1215.649005
9 Apr 2023 17:20:26.000,195.329,20.315,1304.007129
9 Apr 2023 17:21:26.000,179.498,15.723,1505.233227
9 Apr 2023 17:22:26.000,168.533,10.888,1780.797790
9 Apr 2023 17:23:07.744,162.997,7.789,1999.992401
10 Apr 2023 08:49:03.139,197.364,7.749,1999.975283
10 Apr 2023 08:50:03.000,189.000,12.291,1690.278510
10 Apr 2023 08:51:03.000,176.756,17.219,1431.460769
10 Apr 2023 08:52:03.000,159.297,21.493,1257.953082
10 Apr 2023 08:53:03.000,137.625,22.957,1207.959736
10 Apr 2023 08:54:03.000,116.770,20.525,1296.110619
10 Apr 2023 08:55:03.000,100.847,15.916,1497.981609
10 Apr 2023 08:56:03.000,89.869,11.059,1774.609929
10 Apr 2023 08:56:45.719,84.239,7.878,1999.984554
10 Apr 2023 10:28:44.211,249.063,7.822,1999.973316
10 Apr 2023 10:29:44.000,250.467,13.718,1612.371757
10 Apr 2023 10:30:44.000,252.809,22.171,1236.638210
10 Apr 2023 10:31:44.000,257.725,35.943,893.355779
10 Apr 2023 10:32:44.000,275.354,60.268,639.469647
10 Apr 2023 10:33:44.000,20.155,68.124,602.656811
10 Apr 2023 10:34:44.000,50.451,41.274,813.001006
10 Apr 2023 10:35:44.000,56.884,25.248,1140.605736
10 Apr 2023 10:36:44.000,59.680,15.756,1510.178726
10 Apr 2023 10:37:44.000,61.297,9.327,1896.322175
10 Apr 2023 10:37:59.887,61.624,7.926,1999.983578
10 Apr 2023 12:10:15.050,285.676,7.898,1999.984767
10 Apr 2023 12:11:15.000,292.179,13.058,1654.831399
10 Apr 2023 12:12:15.000,302.285,19.427,1344.232522
10 Apr 2023 12:13:15.000,318.895,26.686,1100.051824
10 Apr 2023 12:14:15.000,344.746,31.864,974.752569
10 Apr 2023 12:15:15.000,13.968,30.110,1013.886954
10 Apr 2023 12:16:15.000,35.516,23.354,1201.337000
10 Apr 2023 12:17:15.000,48.689,16.370,1481.286359
10 Apr 2023 12:18:15.000,56.876,10.587,1810.529277
10 Apr 2023 12:18:47.386,60.067,7.936,1999.973774
10 Apr 2023 13:51:34.647,301.494,7.933,1999.998242
10 Apr 2023 13:52:34.000,307.265,13.194,1648.936686
10 Apr 2023 13:53:34.000,316.466,19.958,1324.185495
10 Apr 2023 13:54:34.000,332.291,28.235,1059.689415
10 Apr 2023 13:55:34.000,359.253,35.129,910.996204
10 Apr 2023 13:56:34.000,32.187,33.798,935.726053
10 Apr 2023 13:57:34.000,55.894,25.900,1122.428361
10 Apr 2023 13:58:34.000,69.470,17.941,1407.586578
10 Apr 2023 13:59:34.000,77.519,11.609,1742.771886
10 Apr 2023 14:00:17.095,81.456,7.907,1999.982102
10 Apr 2023 15:32:18.552,295.112,7.931,1999.984843
10 Apr 2023 15:33:18.000,294.525,13.813,1613.243072
10 Apr 2023 15:34:18.000,293.374,22.321,1235.444519
10 Apr 2023 15:35:18.000,290.663,36.334,888.813168
10 Apr 2023 15:36:18.000,279.587,62.228,629.659315
10 Apr 2023 15:37:18.000,149.807,72.036,589.363688
10 Apr 2023 15:38:18.000,127.741,42.060,801.780496
10 Apr 2023 15:39:18.000,124.025,25.457,1132.193993
10 Apr 2023 15:40:18.000,122.574,15.799,1503.972140
10 Apr 2023 15:41:18.000,121.835,9.303,1891.895749
10 Apr 2023 15:41:34.497,121.696,7.838,1999.983922
10 Apr 2023 17:14:06.129,264.926,7.884,1999.992560
10 Apr 2023 17:15:06.000,254.259,11.241,1763.060846
10 Apr 2023 17:16:06.000,240.510,14.003,1597.941226
10 Apr 2023 17:17:06.000,224.314,15.273,1529.464644
10 Apr 2023 17:18:06.000,207.789,14.468,1570.499722
10 Apr 2023 17:19:06.000,193.300,11.966,1712.958196
10 Apr 2023 17:20:06.000,181.842,8.666,1934.002045
10 Apr 2023 17:20:21.316,179.387,7.785,1999.989101
11 Apr 2023 08:46:36.836,211.164,7.757,1999.987697
11 Apr 2023 08:47:36.000,205.298,12.963,1650.992514
11 Apr 2023 08:48:36.000,195.803,19.589,1330.014514
11 Apr 2023 08:49:36.000,179.558,27.424,1074.078422
11 Apr 2023 08:50:36.000,152.939,33.355,939.367724
11 Apr 2023 08:51:36.000,122.092,31.518,977.952573
11 Apr 2023 08:52:36.000,100.060,24.103,1172.760286
11 Apr 2023 08:53:36.000,87.220,16.682,1462.108839
11 Apr 2023 08:54:36.000,79.552,10.685,1800.180511
11 Apr 2023 08:55:09.375,76.569,7.890,1999.997520
11 Apr 2023 10:26:56.731,258.886,7.838,1999.982426
11 Apr 2023 10:27:56.000,261.952,13.541,1623.332075
11 Apr 2023 10:28:56.000,267.110,21.557,1259.274581
11 Apr 2023 10:29:56.000,277.465,33.698,935.110424
11 Apr 2023 10:30:56.000,305.013,50.564,709.806535
11 Apr 2023 10:31:56.000,4.856,53.029,689.395921
11 Apr 2023 10:32:56.000,37.986,36.362,888.108377
11 Apr 2023 10:33:56.000,49.953,23.324,1201.205880
11 Apr 2023 10:34:56.000,55.683,14.782,1560.478558
11 Apr 2023 10:35:56.000,59.051,8.734,1939.426647
11 Apr 2023 10:36:05.433,59.461,7.927,1999.986456
11 Apr 2023 12:08:33.920,291.475,7.907,1999.982745
11 Apr 2023 12:09:33.000,298.204,12.891,1665.084885
11 Apr 2023 12:10:33.000,308.660,19.012,1361.653322
11 Apr 2023 12:11:33.000,325.419,25.746,1126.860513
11 Apr 2023 12:12:33.000,350.475,30.236,1010.866985
11 Apr 2023 12:13:33.000,18.086,28.448,1054.096595
11 Apr 2023 12:14:33.000,38.785,22.218,1239.852030
11 Apr 2023 12:15:33.000,51.820,15.659,1516.087934
11 Apr 2023 12:16:33.000,60.096,10.119,1841.749109
11 Apr 2023 12:17:00.365,62.892,7.930,1999.997306
11 Apr 2023 13:49:42.290,301.800,7.933,1999.978038
11 Apr 2023 13:50:42.000,306.647,13.427,1635.458597
11 Apr 2023 13:51:42.000,314.522,20.732,1293.956580
11 Apr 2023 13:52:42.000,328.947,30.498,1004.933200
11 Apr 2023 13:53:42.000,357.325,40.341,827.091110
11 Apr 2023 13:54:42.000,37.060,39.734,835.605113
11 Apr 2023 13:55:42.000,63.974,29.567,1025.861672
11 Apr 2023 13:56:42.000,77.608,19.994,1321.088617
11 Apr 2023 13:57:42.000,85.122,12.865,1665.625817
11 Apr 2023 13:58:36.612,89.453,7.892,1999.981404
11 Apr 2023 15:30:27.526,290.844,7.923,1999.970643
11 Apr 2023 15:31:27.000,288.051,13.673,1620.443129
11 Apr 2023 15:32:27.000,283.146,21.750,1254.996271
11 Apr 2023 15:33:27.000,272.921,34.015,930.130427
11 Apr 2023 15:34:27.000,244.924,50.958,706.395945
11 Apr 2023 15:35:27.000,184.874,52.691,691.374434
11 Apr 2023 15:36:27.000,152.901,35.813,895.665922
11 Apr 2023 15:37:27.000,141.532,22.873,1212.586221
11 Apr 2023 15:38:27.000,136.209,14.406,1574.741151
11 Apr 2023 15:39:27.000,133.188,8.401,1956.163918
11 Apr 2023 15:39:33.786,132.927,7.821,1999.977720
11 Apr 2023 17:13:24.828,246.897,7.852,1999.992490
11 Apr 2023 17:14:24.000,234.634,9.249,1895.255216
11 Apr 2023 17:15:24.000,221.280,9.526,1874.432229
11 Apr 2023 17:16:24.000,208.283,8.567,1942.268430
11 Apr 2023 17:16:51.137,202.839,7.794,1999.994427
12 Apr 2023 07:08:05.572,143.577,7.760,1999.999482
12 Apr 2023 07:09:05.000,131.098,8.039,1980.096841
12 Apr 2023 07:09:33.522,125.144,7.788,1999.999311
12 Apr 2023 08:44:23.499,223.569,7.769,1999.990972
12 Apr 2023 08:45:23.000,220.049,13.437,1624.604432
12 Apr 2023 08:46:23.000,214.005,21.268,1266.142099
12 Apr 2023 08:47:23.000,201.919,32.657,952.988557
12 Apr 2023 08:48:23.000,172.942,46.582,746.525305
12 Apr 2023 08:49:23.000,122.700,46.987,742.858381
12 Apr 2023 08:50:23.000,92.831,33.194,944.363138
12 Apr 2023 08:51:23.000,80.427,21.686,1255.354217
12 Apr 2023 08:52:23.000,74.284,13.773,1612.896084
12 Apr 2023 08:53:23.000,70.719,8.015,1991.070137
12 Apr 2023 08:53:24.394,70.655,7.899,1999.999881
12 Apr 2023 10:25:13.159,267.982,7.853,1999.993668
12 Apr 2023 10:26:13.000,272.473,13.427,1630.757599
12 Apr 2023 10:27:13.000,279.827,20.915,1283.714983
12 Apr 2023 10:28:13.000,293.608,31.223,986.621358
12 Apr 2023 10:29:13.000,322.331,42.327,798.967082
12 Apr 2023 10:30:13.000,5.132,42.089,802.416357
12 Apr 2023 10:31:13.000,33.246,30.906,994.907671
12 Apr 2023 10:32:13.000,46.743,20.707,1294.139203
12 Apr 2023 10:33:13.000,53.988,13.303,1641.942820
12 Apr 2023 10:34:11.041,58.330,7.928,1999.989981
12 Apr 2023 12:06:50.415,296.006,7.913,1999.986374
12 Apr 2023 12:07:50.000,302.851,12.930,1663.123666
12 Apr 2023 12:08:50.000,313.401,19.028,1361.179779
12 Apr 2023 12:09:50.000,330.256,25.690,1128.561907
12 Apr 2023 12:10:50.000,355.282,30.046,1015.244759
12 Apr 2023 12:11:50.000,22.663,28.187,1060.634629
12 Apr 2023 12:12:50.000,43.166,21.998,1247.380503
12 Apr 2023 12:13:50.000,56.118,15.499,1523.846430
12 Apr 2023 12:14:50.000,64.365,9.999,1849.449954
12 Apr 2023 12:15:16.059,67.033,7.923,1999.991131
12 Apr 2023 13:47:48.153,300.987,7.930,1999.983136
12 Apr 2023 13:48:48.000,304.562,13.640,1623.194267
12 Apr 2023 13:49:48.000,310.483,21.520,1264.397151
12 Apr 2023 13:50:48.000,322.130,33.129,948.555111
12 Apr 2023 13:51:48.000,350.700,47.987,735.343166
12 Apr 2023 13:52:48.000,43.966,49.204,723.256823
12 Apr 2023 13:53:48.000,75.406,34.548,920.340491
12 Apr 2023 13:54:48.000,88.035,22.458,1229.369165
12 Apr 2023 13:55:48.000,94.303,14.271,1585.431745
12 Apr 2023 13:56:48.000,98.028,8.376,1962.137140
12 Apr 2023 13:56:53.925,98.316,7.876,1999.973223
12 Apr 2023 15:28:40.686,285.350,7.913,1999.985420
12 Apr 2023 15:29:40.000,280.211,13.293,1641.179096
12 Apr 2023 15:30:40.000,271.690,20.339,1306.847896
12 Apr 2023 15:31:40.000,256.319,29.268,1031.463809
12 Apr 2023 15:32:40.000,228.419,37.105,874.143595
12 Apr 2023 15:33:40.000,193.256,35.568,899.765368
12 Apr 2023 15:34:40.000,169.079,26.707,1095.446632
12 Apr 2023 15:35:40.000,156.021,18.201,1390.604220
12 Apr 2023 15:36:40.000,148.591,11.633,1734.339248
12 Apr 2023 15:37:23.613,145.022,7.805,1999.982394
13 Apr 2023 07:03:53.772,174.843,7.733,1999.985096
13 Apr 2023 07:04:53.000,163.709,10.621,1794.708004
13 Apr 2023 07:05:53.000,149.864,12.743,1663.558553
13 Apr 2023 07:06:53.000,134.404,13.363,1629.028745
13 Apr 2023 07:07:53.000,119.293,12.223,1697.254294
13 Apr 2023 07:08:53.000,106.259,9.783,1856.785340
13 Apr 2023 07:09:32.144,99.197,7.835,1999.990350
13 Apr 2023 08:42:19.937,235.031,7.784,1999.991074
13 Apr 2023 08:43:19.000,233.783,13.598,1616.523782
13 Apr 2023 08:44:19.000,231.513,22.009,1240.231856
13 Apr 2023 08:45:19.000,226.464,35.670,896.556026
13 Apr 2023 08:46:19.000,208.006,59.544,642.565792
13 Apr 2023 08:47:19.000,108.333,67.098,605.711951
13 Apr 2023 08:48:19.000,77.093,40.963,816.038183
13 Apr 2023 08:49:19.000,70.439,25.086,1144.008776
13 Apr 2023 08:50:19.000,67.724,15.644,1514.210877
13 Apr 2023 08:51:19.000,66.299,9.238,1901.118858
13 Apr 2023 08:51:34.124,66.046,7.905,1999.995152
13 Apr 2023 10:23:31.891,276.249,7.867,1999.990083
13 Apr 2023 10:24:31.000,281.725,13.162,1646.721199
13 Apr 2023 10:25:31.000,290.554,20.072,1316.706997
13 Apr 2023 10:26:31.000,306.011,28.747,1044.777904
13 Apr 2023 10:27:31.000,333.344,36.393,887.460156
13 Apr 2023 10:28:31.000,7.900,35.288,907.109575
13 Apr 2023 10:29:31.000,32.492,26.894,1094.118982
13 Apr 2023 10:30:31.000,46.179,18.542,1381.586362
13 Apr 2023 10:31:31.000,54.147,12.005,1719.028636
13 Apr 2023 10:32:17.764,58.293,7.927,1999.983321
13 Apr 2023 12:05:03.897,299.222,7.917,1999.980203
13 Apr 2023 12:06:03.000,305.752,12.957,1661.694630
13 Apr 2023 12:07:03.000,315.958,19.215,1353.482696
13 Apr 2023 12:08:03.000,332.562,26.262,1112.126293
13 Apr 2023 12:09:03.000,358.029,31.199,989.076893
13 Apr 2023 12:10:03.000,26.634,29.488,1028.242348
13 Apr 2023 12:11:03.000,47.929,22.958,1213.911328
13 Apr 2023 12:12:03.000,61.108,16.132,1491.847068
13 Apr 2023 12:13:03.000,69.361,10.431,1819.483263
13 Apr 2023 12:13:33.992,72.462,7.914,1999.997735
13 Apr 2023 13:45:53.243,299.129,7.926,1999.975545
13 Apr 2023 13:46:53.000,301.098,13.784,1614.754623
13 Apr 2023 13:47:53.000,304.380,22.133,1242.083049
13 Apr 2023 13:48:53.000,311.197,35.496,903.581241
13 Apr 2023 13:49:53.000,333.626,57.605,656.812106
13 Apr 2023 13:50:53.000,59.346,63.367,623.840455
13 Apr 2023 13:51:53.000,92.951,39.987,830.675750
13 Apr 2023 13:52:53.000,101.553,24.739,1154.490735
13 Apr 2023 13:53:53.000,105.356,15.470,1521.592910
13 Apr 2023 13:54:53.000,107.533,9.123,1906.167326
13 Apr 2023 13:55:07.425,107.929,7.858,1999.984060
13 Apr 2023 15:27:00.898,278.277,7.900,1999.995360
13 Apr 2023 15:28:00.000,270.763,12.631,1678.750155
13 Apr 2023 15:29:00.000,259.272,18.100,1398.071237
13 Apr 2023 15:30:00.000,241.922,23.368,1197.044372
13 Apr 2023 15:31:00.000,218.729,25.839,1120.284104
13 Apr 2023 15:32:00.000,195.420,23.465,1192.266422
13 Apr 2023 15:33:00.000,177.861,18.210,1389.773773
13 Apr 2023 15:34:00.000,166.199,12.712,1668.161062
13 Apr 2023 15:35:00.000,158.464,7.884,1992.944627
13 Apr 2023 15:35:01.243,158.333,7.792,1999.999078
14 Apr 2023 07:00:58.136,192.474,7.732,2000.000087
14 Apr 2023 07:01:58.000,183.356,11.958,1709.364749
14 Apr 2023 07:02:58.000,170.484,16.246,1476.157663
14 Apr 2023 07:03:58.000,153.202,19.501,1333.168542
14 Apr 2023 07:04:58.000,133.187,20.087,1310.963184
14 Apr 2023 07:05:58.000,114.603,17.623,1415.393553
14 Apr 2023 07:06:58.000,100.224,13.547,1621.898761
14 Apr 2023 07:07:58.000,89.958,9.243,1896.836604
14 Apr 2023 07:08:18.213,87.228,7.856,1999.977635
14 Apr 2023 08:40:24.059,245.748,7.800,1999.978955
14 Apr 2023 08:41:24.000,246.545,13.734,1609.981344
14 Apr 2023 08:42:24.000,247.836,22.263,1232.159786
14 Apr 2023 08:43:24.000,250.506,36.344,885.501795
14 Apr 2023 08:44:24.000,260.680,62.533,626.498680
14 Apr 2023 08:45:24.000,36.138,72.499,587.206553
14 Apr 2023 08:46:24.000,56.305,42.137,800.704577
14 Apr 2023 08:47:24.000,59.856,25.522,1131.457325
14 Apr 2023 08:48:24.000,61.409,15.874,1503.141746
14 Apr 2023 08:49:24.000,62.336,9.388,1890.751586
14 Apr 2023 08:49:40.686,62.538,7.909,1999.970588
14 Apr 2023 10:21:51.313,283.548,7.878,1999.984330
14 Apr 2023 10:22:51.000,289.839,13.057,1653.554185
14 Apr 2023 10:23:51.000,299.703,19.531,1338.830101
14 Apr 2023 10:24:51.000,316.117,27.060,1088.873792
14 Apr 2023 10:25:51.000,342.271,32.672,957.093339
14 Apr 2023 10:26:51.000,12.417,31.029,992.248375
14 Apr 2023 10:27:51.000,34.527,24.006,1179.356106
14 Apr 2023 10:28:51.000,47.831,16.784,1460.600993
14 Apr 2023 10:29:51.000,56.002,10.863,1791.382559
14 Apr 2023 10:30:26.465,59.435,7.924,1999.979829
14 Apr 2023 12:03:14.250,301.140,7.918,1999.998347
14 Apr 2023 12:04:14.000,307.202,13.160,1649.920977
14 Apr 2023 12:05:14.000,316.757,19.785,1330.254717
14 Apr 2023 12:06:14.000,332.926,27.687,1073.196927
14 Apr 2023 12:07:14.000,359.537,33.900,933.380264
14 Apr 2023 12:08:14.000,31.023,32.366,963.876393
14 Apr 2023 12:09:14.000,53.879,24.910,1151.158975
14 Apr 2023 12:10:14.000,67.302,17.330,1434.597495
14 Apr 2023 12:11:14.000,75.403,11.208,1767.772580
14 Apr 2023 12:11:53.172,79.085,7.902,1999.990866
14 Apr 2023 13:43:58.723,296.258,7.921,1999.981916
14 Apr 2023 13:44:58.000,296.334,13.789,1613.982333
14 Apr 2023 13:45:58.000,296.345,22.309,1235.406556
14 Apr 2023 13:46:58.000,296.172,36.413,887.173719
14 Apr 2023 13:47:58.000,294.993,63.141,624.835530
14 Apr 2023 13:48:58.000,121.441,74.924,581.253566
14 Apr 2023 13:49:58.000,118.540,42.695,793.495488
14 Apr 2023 13:50:58.000,118.226,25.717,1124.574436
14 Apr 2023 13:51:58.000,118.178,15.943,1496.840038
14 Apr 2023 13:52:58.000,118.209,9.401,1885.063300
14 Apr 2023 13:53:15.528,118.225,7.840,1999.984059
14 Apr 2023 15:25:33.420,268.805,7.883,1999.986062
14 Apr 2023 15:26:33.000,258.893,11.654,1737.000175
14 Apr 2023 15:27:33.000,245.470,15.132,1537.947801
14 Apr 2023 15:28:33.000,228.668,17.261,1433.427582
14 Apr 2023 15:29:33.000,210.559,17.001,1444.446343
14 Apr 2023 15:30:33.000,194.299,14.494,1568.443287
14 Apr 2023 15:31:33.000,181.550,10.874,1781.494279
14 Apr 2023 15:32:21.648,173.686,7.784,1999.994348
15 Apr 2023 06:58:25.792,206.894,7.739,1999.974837
15 Apr 2023 06:59:25.000,200.247,12.751,1662.135827
15 Apr 2023 07:00:25.000,189.771,18.875,1358.158717
15 Apr 2023 07:01:25.000,172.840,25.517,1126.099335
15 Apr 2023 07:02:25.000,147.735,29.678,1017.647729
15 Apr 2023 07:03:25.000,120.733,27.550,1071.515532
15 Apr 2023 07:04:25.000,100.892,21.302,1267.034526
15 Apr 2023 07:05:25.000,88.525,14.873,1550.999482
15 Apr 2023 07:06:25.000,80.758,9.453,1883.018909
15 Apr 2023 07:06:44.972,78.819,7.870,1999.990543
15 Apr 2023 08:38:34.171,255.786,7.817,1999.990825
15 Apr 2023 08:39:34.000,258.373,13.631,1616.778382
15 Apr 2023 08:40:34.000,262.714,21.829,1248.253997
15 Apr 2023 08:41:34.000,271.621,34.602,917.002240
15 Apr 2023 08:42:34.000,297.790,53.850,681.842043
15 Apr 2023 08:43:34.000,7.324,57.422,656.906002
15 Apr 2023 08:44:34.000,41.185,37.982,860.666493
15 Apr 2023 08:45:34.000,51.838,23.961,1179.513120
15 Apr 2023 08:46:34.000,56.760,15.096,1542.854899
15 Apr 2023 08:47:34.000,59.623,8.919,1924.643142
15 Apr 2023 08:47:45.660,60.050,7.911,1999.985015
15 Apr 2023 10:20:09.914,289.731,7.888,1999.994613
15 Apr 2023 10:21:09.000,296.383,12.892,1663.703482
15 Apr 2023 10:22:09.000,306.745,19.064,1358.354458
15 Apr 2023 10:23:09.000,323.449,25.916,1121.012693
15 Apr 2023 10:24:09.000,348.664,30.572,1002.367824
15 Apr 2023 10:25:09.000,16.643,28.814,1044.151335
15 Apr 2023 10:26:09.000,37.563,22.477,1229.966585
15 Apr 2023 10:27:09.000,50.654,15.825,1506.906644
15 Apr 2023 10:28:09.000,58.923,10.229,1833.344007
15 Apr 2023 10:28:37.739,61.838,7.919,1999.997365
15 Apr 2023 12:01:21.839,301.825,7.918,1999.999636
15 Apr 2023 12:02:21.000,306.960,13.288,1642.433113
15 Apr 2023 12:03:21.000,315.294,20.391,1306.212915
15 Apr 2023 12:04:21.000,330.217,29.611,1024.926163
15 Apr 2023 12:05:21.000,358.054,38.347,856.178504
15 Apr 2023 12:06:21.000,35.118,37.526,869.022913
15 Apr 2023 12:07:21.000,60.955,28.289,1056.856710
15 Apr 2023 12:08:21.000,74.693,19.315,1347.949772
15 Apr 2023 12:09:21.000,82.465,12.464,1688.981936
15 Apr 2023 12:10:12.241,86.767,7.888,1999.999726
15 Apr 2023 13:42:05.970,292.348,7.913,1999.978450
15 Apr 2023 13:43:05.000,290.310,13.677,1619.654317
15 Apr 2023 13:44:05.000,286.647,21.930,1248.125447
15 Apr 2023 13:45:05.000,278.748,34.934,912.697047
15 Apr 2023 13:46:05.000,253.864,55.244,672.103070
15 Apr 2023 13:47:05.000,179.348,59.383,644.542909
15 Apr 2023 13:48:05.000,145.776,38.529,851.054540
15 Apr 2023 13:49:05.000,136.120,24.069,1173.493635
15 Apr 2023 13:50:05.000,131.881,15.067,1539.890261
15 Apr 2023 13:51:05.000,129.545,8.835,1924.298499
15 Apr 2023 13:51:16.640,129.211,7.822,1999.981628
15 Apr 2023 15:24:32.520,254.359,7.858,1999.999904
15 Apr 2023 15:25:32.000,242.491,10.039,1840.671154
15 Apr 2023 15:26:32.000,228.723,11.197,1762.841730
15 Apr 2023 15:27:32.000,214.425,10.924,1779.372862
15 Apr 2023 15:28:32.000,201.178,9.315,1887.621991
15 Apr 2023 15:29:10.865,193.664,7.786,1999.987650
16 Apr 2023 06:56:07.911,219.674,7.751,1999.986068
16 Apr 2023 06:57:07.000,215.428,13.262,1633.252795
16 Apr 2023 06:58:07.000,208.230,20.748,1284.304695
16 Apr 2023 06:59:07.000,194.493,31.036,986.327932
16 Apr 2023 07:00:07.000,165.704,41.962,800.269065
16 Apr 2023 07:01:07.000,123.467,41.395,808.418247
16 Apr 2023 07:02:07.000,96.120,30.259,1006.052768
16 Apr 2023 07:03:07.000,83.097,20.209,1309.522979
16 Apr 2023 07:04:07.000,76.222,12.907,1661.002174
16 Apr 2023 07:05:01.508,72.409,7.880,1999.990337
16 Apr 2023 08:36:48.698,265.120,7.832,1999.990383
16 Apr 2023 08:37:48.000,269.151,13.411,1630.203831
16 Apr 2023 08:38:48.000,275.843,21.058,1277.091343
16 Apr 2023 08:39:48.000,288.661,31.928,970.429979
16 Apr 2023 08:40:48.000,317.313,44.649,769.692605
16 Apr 2023 08:41:48.000,4.255,45.145,764.371265
16 Apr 2023 08:42:48.000,34.062,32.607,957.676565
16 Apr 2023 08:43:48.000,47.373,21.576,1260.815740
16 Apr 2023 08:44:48.000,54.272,13.809,1612.166439
16 Apr 2023 08:45:48.000,58.453,8.104,1985.296584
16 Apr 2023 08:45:50.320,58.582,7.912,1999.981301
16 Apr 2023 10:18:26.460,294.678,7.895,1999.983898
16 Apr 2023 10:19:26.000,301.534,12.900,1663.577079
16 Apr 2023 10:20:26.000,312.102,18.984,1361.934483
16 Apr 2023 10:21:26.000,328.963,25.618,1129.749961
16 Apr 2023 10:22:26.000,353.951,29.940,1016.906351
16 Apr 2023 10:23:26.000,21.255,28.080,1062.574941
16 Apr 2023 10:24:26.000,41.714,21.919,1249.341172
16 Apr 2023 10:25:26.000,54.657,15.445,1525.710877
16 Apr 2023 10:26:26.000,62.908,9.961,1851.199202
16 Apr 2023 10:26:51.770,65.552,7.912,1999.999364
16 Apr 2023 11:59:27.372,301.366,7.916,1999.982483
16 Apr 2023 12:00:27.000,305.374,13.537,1628.030001
16 Apr 2023 12:01:27.000,311.989,21.223,1274.486549
16 Apr 2023 12:02:27.000,324.698,32.200,966.923009
16 Apr 2023 12:03:27.000,353.447,45.173,764.926145
16 Apr 2023 12:04:27.000,41.174,45.672,759.127117
16 Apr 2023 12:05:27.000,71.132,32.834,953.177297
16 Apr 2023 12:06:27.000,84.327,21.655,1257.273966
16 Apr 2023 12:07:27.000,91.120,13.826,1609.454434
16 Apr 2023 12:08:27.000,95.216,8.090,1983.319620
16 Apr 2023 12:08:29.626,95.359,7.872,1999.972435
16 Apr 2023 13:40:16.712,287.282,7.904,1999.977750
16 Apr 2023 13:41:16.000,282.920,13.421,1633.299203
16 Apr 2023 13:42:16.000,275.530,20.861,1286.484888
16 Apr 2023 13:43:16.000,261.491,30.963,991.947841
16 Apr 2023 13:44:16.000,232.679,41.359,810.556624
16 Apr 2023 13:45:16.000,191.603,40.503,821.822500
16 Apr 2023 13:46:16.000,164.821,29.690,1019.309254
16 Apr 2023 13:47:16.000,151.792,19.864,1321.477744
16 Apr 2023 13:48:16.000,144.815,12.663,1671.670295
16 Apr 2023 13:49:08.975,140.992,7.805,1999.990418
17 Apr 2023 05:16:01.292,167.696,7.724,2000.000005
17 Apr 2023 05:17:01.000,155.872,10.048,1832.513702
17 Apr 2023 05:18:01.000,142.066,11.377,1746.383177
17 Apr 2023 05:19:01.000,127.575,11.259,1755.220797
17 Apr 2023 05:20:01.000,114.051,9.740,1857.735407
17 Apr 2023 05:20:49.649,104.582,7.810,1999.987227
17 Apr 2023 06:54:00.649,231.404,7.766,1999.982436
17 Apr 2023 06:55:00.000,229.437,13.568,1616.859203
17 Apr 2023 06:56:00.000,225.941,21.861,1244.338913
17 Apr 2023 06:57:00.000,218.395,35.009,907.455716
17 Apr 2023 06:58:00.000,194.064,55.933,665.085672
17 Apr 2023 06:59:00.000,116.506,60.382,637.518201
17 Apr 2023 07:00:00.000,83.131,38.823,846.075969
17 Apr 2023 07:01:00.000,73.898,24.198,1170.184444
17 Apr 2023 07:02:00.000,69.900,15.160,1537.626780
17 Apr 2023 07:03:00.000,67.726,8.919,1922.708729
17 Apr 2023 07:03:11.867,67.412,7.887,1999.977735
17 Apr 2023 08:35:06.048,273.665,7.847,1999.981882
17 Apr 2023 08:36:06.000,278.924,13.290,1637.998920
17 Apr 2023 08:37:06.000,287.385,20.395,1302.904915
17 Apr 2023 08:38:06.000,302.522,29.565,1023.893935
17 Apr 2023 08:39:06.000,330.504,38.082,858.966222
17 Apr 2023 08:40:06.000,7.153,37.057,875.803500
17 Apr 2023 08:41:06.000,32.592,27.926,1065.716235
17 Apr 2023 08:42:06.000,46.213,19.091,1357.366567
17 Apr 2023 08:43:06.000,53.971,12.325,1698.316297
17 Apr 2023 08:43:55.774,58.183,7.911,1999.991097
17 Apr 2023 10:16:40.142,298.320,7.899,1999.998575
17 Apr 2023 10:17:40.000,305.065,12.977,1659.318316
17 Apr 2023 10:18:40.000,315.471,19.170,1354.259194
17 Apr 2023 10:19:40.000,332.265,26.040,1117.552325
17 Apr 2023 10:20:40.000,357.607,30.666,1000.158779
17 Apr 2023 10:21:40.000,25.622,28.825,1043.634223
17 Apr 2023 10:22:40.000,46.475,22.436,1230.920475
17 Apr 2023 10:23:40.000,59.496,15.771,1508.868955
17 Apr 2023 10:24:40.000,67.716,10.175,1835.984860
17 Apr 2023 10:25:08.245,70.567,7.903,1999.982366
17 Apr 2023 11:57:31.789,299.842,7.912,1999.972263
17 Apr 2023 11:58:31.000,302.335,13.662,1620.615411
17 Apr 2023 11:59:31.000,306.523,21.846,1251.486157
17 Apr 2023 12:00:31.000,315.088,34.632,918.708621
17 Apr 2023 12:01:31.000,340.504,54.212,680.224306
17 Apr 2023 12:02:31.000,51.773,58.422,651.014847
17 Apr 2023 12:03:31.000,86.228,38.464,852.994753
17 Apr 2023 12:04:31.000,96.731,24.170,1171.728594
17 Apr 2023 12:05:31.000,101.525,15.192,1535.397872
17 Apr 2023 12:06:31.000,104.288,8.959,1917.644915
17 Apr 2023 12:06:43.722,104.734,7.854,1999.969492
17 Apr 2023 13:38:33.412,280.783,7.892,1999.982828
17 Apr 2023 13:39:33.000,273.977,12.905,1662.094005
17 Apr 2023 13:40:33.000,263.316,18.943,1361.621682
17 Apr 2023 13:41:33.000,246.230,25.362,1134.660910
17 Apr 2023 13:42:33.000,221.332,29.173,1031.979390
17 Apr 2023 13:43:33.000,194.950,26.901,1089.644742
17 Apr 2023 13:44:33.000,175.534,20.768,1286.023425
17 Apr 2023 13:45:33.000,163.303,14.472,1569.261644
17 Apr 2023 13:46:33.000,155.535,9.139,1900.042090
17 Apr 2023 13:46:50.156,153.843,7.790,1999.989990
18 Apr 2023 05:12:52.676,187.241,7.720,1999.977518
18 Apr 2023 05:13:52.000,177.490,11.547,1734.006037
18 Apr 2023 05:14:52.000,164.160,15.165,1529.193285
18 Apr 2023 05:15:52.000,147.295,17.494,1418.098213
18 Apr 2023 05:16:52.000,128.908,17.402,1423.389736
18 Apr 2023 05:17:52.000,112.302,14.948,1543.931194
18 Apr 2023 05:18:52.000,99.302,11.299,1755.812645
18 Apr 2023 05:19:45.894,90.583,7.835,1999.980789
18 Apr 2023 06:52:01.668,242.343,7.782,1999.991276
18 Apr 2023 06:53:01.000,242.494,13.652,1613.226499
18 Apr 2023 06:54:01.000,242.666,22.170,1234.251803
18 Apr 2023 06:55:01.000,242.888,36.284,885.629689
18 Apr 2023 06:56:01.000,243.364,63.084,623.056099
18 Apr 2023 06:57:01.000,61.934,74.915,580.017932
18 Apr 2023 06:58:01.000,62.848,42.661,793.168834
18 Apr 2023 06:59:01.000,63.117,25.717,1124.748030
18 Apr 2023 07:00:01.000,63.322,15.968,1497.225861
18 Apr 2023 07:01:01.000,63.510,9.443,1885.499796
18 Apr 2023 07:01:18.462,63.563,7.891,1999.980258
18 Apr 2023 08:33:24.599,281.289,7.859,2000.000010
18 Apr 2023 08:34:24.000,287.335,13.059,1652.079548
18 Apr 2023 08:35:24.000,296.907,19.654,1332.658185
18 Apr 2023 08:36:24.000,313.069,27.501,1076.044677
18 Apr 2023 08:37:24.000,339.565,33.654,936.660755
18 Apr 2023 08:38:24.000,10.863,32.156,967.130874
18 Apr 2023 08:39:24.000,33.661,24.791,1153.939556
18 Apr 2023 08:40:24.000,47.107,17.272,1436.808927
18 Apr 2023 08:41:24.000,55.246,11.183,1769.454260
18 Apr 2023 08:42:02.944,58.932,7.909,1999.976402
18 Apr 2023 10:14:50.684,300.653,7.901,1999.997928
18 Apr 2023 10:15:50.000,306.872,13.046,1655.325463
18 Apr 2023 10:16:50.000,316.669,19.525,1339.700159
18 Apr 2023 10:17:50.000,332.997,27.093,1088.191868
18 Apr 2023 10:18:50.000,359.147,32.806,954.251642
18 Apr 2023 10:19:50.000,29.485,31.223,987.523038
18 Apr 2023 10:20:50.000,51.761,24.154,1173.788929
18 Apr 2023 10:21:50.000,65.126,16.874,1454.936744
18 Apr 2023 10:22:50.000,73.307,10.915,1785.946066
18 Apr 2023 10:23:26.341,76.812,7.892,1999.989878
18 Apr 2023 11:55:36.197,297.302,7.907,1999.979435
18 Apr 2023 11:56:36.000,298.025,13.825,1611.043868
18 Apr 2023 11:57:36.000,299.159,22.351,1233.228995
18 Apr 2023 11:58:36.000,301.452,36.434,886.291979
18 Apr 2023 11:59:36.000,310.128,62.759,626.393561
18 Apr 2023 12:00:36.000,91.785,73.150,585.672919
18 Apr 2023 12:01:36.000,109.511,42.273,798.555003
18 Apr 2023 12:02:36.000,112.538,25.541,1129.296112
18 Apr 2023 12:03:36.000,113.856,15.848,1501.149454
18 Apr 2023 12:04:36.000,114.635,9.340,1889.009112
18 Apr 2023 12:04:52.939,114.805,7.836,1999.969477
18 Apr 2023 13:37:00.250,272.241,7.877,1999.985050
18 Apr 2023 13:38:00.000,263.031,12.032,1713.132044
18 Apr 2023 13:39:00.000,250.068,16.194,1484.446470
18 Apr 2023 13:40:00.000,232.829,19.251,1346.865420
18 Apr 2023 13:41:00.000,213.088,19.659,1329.482081
18 Apr 2023 13:42:00.000,194.867,17.147,1436.645546
18 Apr 2023 13:43:00.000,180.738,13.118,1643.748226
18 Apr 2023 13:44:00.000,170.580,8.879,1917.972655
18 Apr 2023 13:44:16.202,168.379,7.779,1999.985699
19 Apr 2023 05:10:13.420,202.430,7.726,1999.991127
19 Apr 2023 05:11:13.000,194.951,12.537,1673.850747
19 Apr 2023 05:12:13.000,183.559,18.110,1389.954009
19 Apr 2023 05:13:13.000,166.209,23.581,1184.808539
19 Apr 2023 05:14:13.000,142.719,26.283,1104.271792
19 Apr 2023 05:15:13.000,118.939,23.956,1174.640268
19 Apr 2023 05:16:13.000,101.104,18.604,1372.722310
19 Apr 2023 05:17:13.000,89.372,13.011,1652.670251
19 Apr 2023 05:18:13.000,81.663,8.122,1979.248634
19 Apr 2023 05:18:16.628,81.287,7.851,1999.978744
19 Apr 2023 06:50:09.200,252.594,7.799,1999.991033
19 Apr 2023 06:51:09.000,254.629,13.652,1614.329016
19 Apr 2023 06:52:09.000,258.046,21.981,1241.739700
19 Apr 2023 06:53:09.000,265.167,35.279,903.776028
19 Apr 2023 06:54:09.000,288.291,57.039,658.372287
19 Apr 2023 06:55:09.000,11.366,62.438,627.078005
19 Apr 2023 06:56:09.000,45.122,39.661,834.365942
19 Apr 2023 06:57:09.000,54.055,24.615,1158.007555
19 Apr 2023 06:58:09.000,58.040,15.424,1524.814874
19 Apr 2023 06:59:09.000,60.341,9.116,1909.050567
19 Apr 2023 06:59:22.996,60.750,7.894,1999.990013
19 Apr 2023 08:31:42.808,287.847,7.869,1999.977797
19 Apr 2023 08:32:42.000,294.403,12.911,1661.263649
19 Apr 2023 08:33:42.000,304.640,19.157,1353.369502
19 Apr 2023 08:34:42.000,321.275,26.174,1112.650493
19 Apr 2023 08:35:42.000,346.724,31.061,990.534395
19 Apr 2023 08:36:42.000,15.228,29.335,1030.548033
19 Apr 2023 08:37:42.000,36.448,22.839,1216.645425
19 Apr 2023 08:38:42.000,49.602,16.051,1494.684634
19 Apr 2023 08:39:42.000,57.854,10.377,1822.264660
19 Apr 2023 08:40:12.531,60.917,7.904,1999.990096
19 Apr 2023 10:12:58.305,301.730,7.901,1999.983540
19 Apr 2023 10:13:58.000,307.237,13.259,1642.943559
19 Apr 2023 10:14:58.000,316.051,20.204,1312.538981
19 Apr 2023 10:15:58.000,331.531,28.952,1040.061729
19 Apr 2023 10:16:58.000,359.057,36.681,882.450538
19 Apr 2023 10:17:58.000,33.909,35.498,902.757868
19 Apr 2023 10:18:58.000,58.540,26.961,1091.064151
19 Apr 2023 10:19:58.000,72.160,18.538,1379.746040
19 Apr 2023 10:20:58.000,80.059,11.971,1718.179772
19 Apr 2023 10:21:44.793,84.161,7.879,1999.982960
19 Apr 2023 11:53:41.894,293.741,7.900,1999.979413
19 Apr 2023 11:54:41.000,292.413,13.713,1616.710338
19 Apr 2023 11:55:41.000,289.970,22.109,1241.095289
19 Apr 2023 11:56:41.000,284.521,35.698,898.487688
19 Apr 2023 11:57:41.000,264.894,59.113,646.165723
19 Apr 2023 11:58:41.000,169.368,66.021,610.419708
19 Apr 2023 11:59:41.000,137.493,40.613,820.190858
19 Apr 2023 12:00:41.000,130.369,24.899,1147.463576
19 Apr 2023 12:01:41.000,127.414,15.503,1517.231141
19 Apr 2023 12:02:41.000,125.833,9.112,1903.896859
19 Apr 2023 12:02:55.704,125.554,7.817,1999.981079
19 Apr 2023 13:35:46.834,259.992,7.855,1999.998149
19 Apr 2023 13:36:46.000,248.770,10.633,1800.570124
19 Apr 2023 13:37:46.000,234.913,12.599,1676.255945
19 Apr 2023 13:38:46.000,219.599,13.054,1648.553519
19 Apr 2023 13:39:46.000,204.751,11.808,1722.135134
19 Apr 2023 13:40:46.000,191.982,9.341,1884.821380
19 Apr 2023 13:41:17.794,186.269,7.775,1999.987152
20 Apr 2023 05:07:50.594,215.646,7.738,1999.973878
20 Apr 2023 05:08:50.000,210.594,13.143,1639.095097
20 Apr 2023 05:09:50.000,202.234,20.252,1302.398582
20 Apr 2023 05:10:50.000,187.056,29.384,1023.470711
20 Apr 2023 05:11:50.000,158.987,37.651,861.979647
20 Apr 2023 05:12:50.000,122.942,36.268,885.465999
20 Apr 2023 05:13:50.000,98.334,27.169,1081.898929
20 Apr 2023 05:14:50.000,85.264,18.490,1378.732906
20 Apr 2023 05:15:50.000,77.918,11.840,1724.072058
20 Apr 2023 05:16:35.098,74.322,7.862,1999.978521
20 Apr 2023 06:48:21.650,262.159,7.815,1999.997025
20 Apr 2023 06:49:21.000,265.747,13.458,1626.259899
20 Apr 2023 06:50:21.000,271.742,21.286,1267.573939
20 Apr 2023 06:51:21.000,283.499,32.769,952.153566
20 Apr 2023 06:52:21.000,311.950,47.344,739.510177
20 Apr 2023 06:53:21.000,4.223,48.611,727.220662
20 Apr 2023 06:54:21.000,35.621,34.317,923.287832
20 Apr 2023 06:55:21.000,48.434,22.377,1231.393300
20 Apr 2023 06:56:21.000,54.835,14.250,1586.748209
20 Apr 2023 06:57:21.000,58.656,8.385,1962.853417
20 Apr 2023 06:57:26.825,58.948,7.895,1999.992075
20 Apr 2023 08:29:59.317,293.204,7.877,2000.000047
20 Apr 2023 08:30:59.000,300.066,12.898,1662.497634
20 Apr 2023 08:31:59.000,310.628,18.990,1360.560598
20 Apr 2023 08:32:59.000,327.501,25.642,1128.083874
20 Apr 2023 08:33:59.000,352.535,29.981,1015.102840
20 Apr 2023 08:34:59.000,19.895,28.110,1060.945058
20 Apr 2023 08:35:59.000,40.372,21.929,1248.074420
20 Apr 2023 08:36:59.000,53.309,15.443,1524.797562
20 Apr 2023 08:37:59.000,61.551,9.955,1850.566241
20 Apr 2023 08:38:24.861,64.200,7.898,1999.997008
20 Apr 2023 10:11:03.608,301.634,7.900,1999.972202
20 Apr 2023 10:12:03.000,306.039,13.428,1633.099478
20 Apr 2023 10:13:03.000,313.278,20.916,1285.027286
20 Apr 2023 10:14:03.000,326.861,31.276,985.931689
20 Apr 2023 10:15:03.000,355.456,42.625,795.001115
20 Apr 2023 10:16:03.000,38.860,42.583,795.356925
20 Apr 2023 10:17:03.000,67.367,31.206,986.834134
20 Apr 2023 10:18:03.000,80.901,20.848,1286.291134
20 Apr 2023 10:19:03.000,88.109,13.365,1634.676227
20 Apr 2023 10:20:02.092,92.468,7.863,1999.989955
20 Apr 2023 11:51:50.461,289.075,7.891,1999.990743
20 Apr 2023 11:52:50.000,285.464,13.548,1625.258151
20 Apr 2023 11:53:50.000,279.244,21.333,1268.271507
20 Apr 2023 11:54:50.000,266.847,32.552,957.573430
20 Apr 2023 11:55:50.000,237.731,45.924,754.618720
20 Apr 2023 11:56:50.000,188.929,46.013,753.222824
20 Apr 2023 11:57:50.000,159.555,32.639,954.250113
20 Apr 2023 11:58:50.000,147.040,21.362,1264.041593
20 Apr 2023 11:59:50.000,140.754,13.542,1620.562929
20 Apr 2023 12:00:50.000,137.064,7.826,1997.942844
20 Apr 2023 12:00:50.320,137.049,7.799,1999.985294
20 Apr 2023 13:36:06.396,229.505,7.807,1999.999340
20 Apr 2023 13:36:24.228,225.781,7.851,1996.285006
20 Apr 2023 13:36:42.060,222.056,7.798,1999.999276
21 Apr 2023 03:28:15.153,158.880,7.723,1999.995565
21 Apr 2023 03:29:15.000,146.535,9.306,1884.025503
21 Apr 2023 03:30:15.000,133.077,9.763,1853.337537
21 Apr 2023 03:31:15.000,119.840,8.943,1912.683023
