aer_data/MS_AER.csv

Time (UTCG),Azimuth (deg),Elevation (deg),Range (km)
1 Mar 2024 16:56:41,290.359,7.862,1999.998569
1 Mar 2024 16:57:40,297.038,12.849,1664.14231
1 Mar 2024 16:58:40,307.435,18.992,1359.238579
1 Mar 2024 16:59:40,324.163,25.789,1122.563568
1 Mar 2024 17:00:40,349.328,30.374,1004.716976
1 Mar 2024 17:01:40,17.177,28.597,1047.083214
1 Mar 2024 17:02:40,38.015,22.299,1233.112365
1 Mar 2024 17:03:40,51.084,15.687,1510.08306
1 Mar 2024 17:04:40,59.354,10.117,1836.518461
1 Mar 2024 17:05:08,62.222,7.857,1999.990314
1 Mar 2024 18:37:47,301.817,7.869,1999.981528
1 Mar 2024 18:38:47,306.905,13.322,1636.785856
1 Mar 2024 18:39:47,315.119,20.498,1298.601891
1 Mar 2024 18:40:47,329.964,29.908,1014.784835
1 Mar 2024 18:41:47,358.148,38.969,843.785426
1 Mar 2024 18:42:47,36.1,38.093,856.886542
1 Mar 2024 18:43:47,62.169,28.518,1047.208788
1 Mar 2024 18:44:47,75.8,19.37,1340.841384
1 Mar 2024 18:45:47,83.45,12.453,1683.830177
1 Mar 2024 18:46:39,87.712,7.804,1999.983862
1 Mar 2024 20:18:27,291.856,7.844,1999.999919
1 Mar 2024 20:19:27,289.533,13.667,1615.119546
1 Mar 2024 20:20:27,285.42,21.885,1245.162465
1 Mar 2024 20:21:27,276.617,34.713,912.940213
1 Mar 2024 20:22:27,250.01,53.95,678.628026
1 Mar 2024 20:23:27,180.765,56.746,658.132497
1 Mar 2024 20:24:27,148.089,37.272,866.822732
1 Mar 2024 20:25:27,137.897,23.414,1189.12793
1 Mar 2024 20:26:27,133.311,14.649,1555.145613
1 Mar 2024 20:27:27,130.753,8.528,1939.278866
1 Mar 2024 20:27:36,130.455,7.723,1999.980867
1 Mar 2024 22:00:58,252.273,7.763,1999.999957
1 Mar 2024 22:01:57,240.243,9.714,1855.80557
1 Mar 2024 22:02:57,226.559,10.6,1794.440526
1 Mar 2024 22:03:57,212.631,10.106,1826.22177
1 Mar 2024 22:04:57,199.903,8.398,1946.373219
1 Mar 2024 22:05:16,196.309,7.686,1999.98967
2 Mar 2024 13:31:43,220.642,7.762,1999.979665
2 Mar 2024 13:32:42,216.563,13.326,1630.247836
2 Mar 2024 13:33:42,209.637,20.906,1278.798679
2 Mar 2024 13:34:42,196.253,31.477,976.930158
2 Mar 2024 13:35:42,167.287,43.093,785.899454
2 Mar 2024 13:36:42,123.279,42.687,791.472295
2 Mar 2024 13:37:42,95.346,30.943,990.334645
2 Mar 2024 13:38:42,82.449,20.547,1295.871272
2 Mar 2024 13:39:42,75.744,13.096,1649.023432
2 Mar 2024 13:40:38,71.96,7.861,1999.990971
2 Mar 2024 15:12:21,265.798,7.829,1999.979311
2 Mar 2024 15:13:21,269.952,13.419,1629.299141
2 Mar 2024 15:14:21,276.814,21.032,1277.535189
2 Mar 2024 15:15:21,289.901,31.773,973.108137
2 Mar 2024 15:16:21,318.668,44.083,775.69107
2 Mar 2024 15:17:21,4.569,44.323,773.043822
2 Mar 2024 15:18:21,33.897,32.111,966.718388
2 Mar 2024 15:19:21,47.236,21.295,1269.303143
2 Mar 2024 15:20:21,54.212,13.626,1620.073815
2 Mar 2024 15:21:21,58.457,7.967,1992.751178
2 Mar 2024 15:21:22,58.522,7.873,1999.978101
2 Mar 2024 16:53:55,294.978,7.87,1999.983212
2 Mar 2024 16:54:54,301.795,12.846,1664.731851
2 Mar 2024 16:55:54,312.339,18.919,1362.577106
2 Mar 2024 16:56:54,329.171,25.551,1129.669773
2 Mar 2024 16:57:54,354.147,29.891,1015.962758
2 Mar 2024 16:58:54,21.488,28.049,1060.960667
2 Mar 2024 16:59:54,41.992,21.889,1247.466419
2 Mar 2024 17:00:54,54.96,15.409,1523.857988
2 Mar 2024 17:01:54,63.223,9.922,1849.493066
2 Mar 2024 17:02:20,65.895,7.852,1999.977881
2 Mar 2024 18:34:51,301.284,7.869,1999.982774
2 Mar 2024 18:35:50,305.185,13.48,1627.735983
2 Mar 2024 18:36:50,311.644,21.187,1272.535733
2 Mar 2024 18:37:50,324.115,32.276,962.455129
2 Mar 2024 18:38:50,352.814,45.642,757.126634
2 Mar 2024 18:39:50,41.658,46.317,749.391938
2 Mar 2024 18:40:50,71.997,33.109,944.200588
2 Mar 2024 18:41:50,85.106,21.739,1249.741298
2 Mar 2024 18:42:50,91.8,13.84,1603.159931
2 Mar 2024 18:43:50,95.821,8.077,1978.011011
2 Mar 2024 18:43:53,96.005,7.789,1999.974238
2 Mar 2024 20:15:36,286.907,7.837,1999.993166
2 Mar 2024 20:16:35,282.414,13.285,1636.11617
2 Mar 2024 20:17:35,274.807,20.621,1291.01621
2 Mar 2024 20:18:35,260.507,30.46,999.260831
2 Mar 2024 20:19:35,231.894,40.309,821.502462
2 Mar 2024 20:20:35,192.117,39.337,834.854466
2 Mar 2024 20:21:35,165.81,28.975,1031.855943
2 Mar 2024 20:22:35,152.714,19.437,1332.889972
2 Mar 2024 20:23:35,145.615,12.373,1682.17932
2 Mar 2024 20:24:26,141.799,7.709,1999.99049
3 Mar 2024 11:50:36,168.642,7.738,1999.986295
3 Mar 2024 11:51:35,156.952,10.131,1827.858234
3 Mar 2024 11:52:35,143.133,11.565,1735.338834
3 Mar 2024 11:53:35,128.509,11.539,1738.096664
3 Mar 2024 11:54:35,114.778,10.065,1835.791944
3 Mar 2024 11:55:31,103.84,7.815,1999.987121
3 Mar 2024 13:28:34,231.816,7.777,1999.991137
3 Mar 2024 13:29:34,229.921,13.613,1615.062318
3 Mar 2024 13:30:34,226.555,21.937,1242.123573
3 Mar 2024 13:31:34,219.252,35.185,904.560133
3 Mar 2024 13:32:34,195.282,56.499,661.308374
3 Mar 2024 13:33:34,115.52,61.056,633.754056
3 Mar 2024 13:34:34,82.42,38.992,843.377641
3 Mar 2024 13:35:34,73.488,24.243,1168.338336
3 Mar 2024 13:36:34,69.64,15.17,1536.310346
3 Mar 2024 13:37:34,67.555,8.916,1921.73632
3 Mar 2024 13:37:46,67.251,7.869,1999.999849
3 Mar 2024 15:09:36,273.93,7.844,1999.992464
3 Mar 2024 15:10:36,279.197,13.254,1639.673782
3 Mar 2024 15:11:36,287.687,20.33,1304.896591
3 Mar 2024 15:12:36,302.84,29.439,1026.288161
3 Mar 2024 15:13:36,330.73,37.867,861.672301
3 Mar 2024 15:14:36,7.164,36.85,878.345274
3 Mar 2024 15:15:36,32.547,27.799,1067.749172
3 Mar 2024 15:16:36,46.193,19.01,1358.953929
3 Mar 2024 15:17:36,53.981,12.265,1699.611424
3 Mar 2024 15:18:26,58.2,7.874,1999.999712
3 Mar 2024 16:51:06,298.398,7.875,1999.985811
3 Mar 2024 16:52:05,305.041,12.887,1662.623747
3 Mar 2024 16:53:05,315.381,19.068,1356.543491
3 Mar 2024 16:54:05,332.082,25.948,1118.245439
3 Mar 2024 16:55:05,357.373,30.642,998.705826
3 Mar 2024 16:56:05,25.486,28.871,1040.213409
3 Mar 2024 16:57:05,46.47,22.485,1226.409641
3 Mar 2024 16:58:05,59.565,15.798,1503.977401
3 Mar 2024 16:59:05,67.821,10.185,1831.061146
3 Mar 2024 16:59:34,70.758,7.844,1999.980675
3 Mar 2024 18:31:53,299.78,7.868,1999.980107
3 Mar 2024 18:32:52,302.224,13.603,1620.599677
3 Mar 2024 18:33:52,306.333,21.781,1250.711729
3 Mar 2024 18:34:52,314.747,34.592,916.79021
3 Mar 2024 18:35:52,339.93,54.386,676.709339
3 Mar 2024 18:36:52,52.252,58.761,646.657318
3 Mar 2024 18:37:52,86.763,38.501,849.380689
3 Mar 2024 18:38:52,97.131,24.123,1169.061269
3 Mar 2024 18:39:52,101.846,15.129,1533.470944
3 Mar 2024 18:40:52,104.562,8.894,1916.300953
3 Mar 2024 18:41:05,105.006,7.773,1999.990598
3 Mar 2024 20:12:50,280.624,7.827,1999.986592
3 Mar 2024 20:13:50,273.767,12.809,1662.831804
3 Mar 2024 20:14:50,263.041,18.794,1363.262659
3 Mar 2024 20:15:50,245.918,25.116,1137.683028
3 Mar 2024 20:16:50,221.123,28.81,1036.645192
3 Mar 2024 20:17:50,194.966,26.521,1095.516786
3 Mar 2024 20:18:50,175.689,20.461,1292.386741
3 Mar 2024 20:19:50,163.499,14.236,1575.740248
3 Mar 2024 20:20:50,155.733,8.951,1906.537536
3 Mar 2024 20:21:06,154.142,7.697,1999.991351
4 Mar 2024 11:46:29,187.188,7.738,1999.986533
4 Mar 2024 11:47:29,177.301,11.605,1731.573431
4 Mar 2024 11:48:29,163.924,15.21,1527.966287
4 Mar 2024 11:49:29,147.031,17.508,1418.409038
4 Mar 2024 11:50:29,128.661,17.377,1425.306461
4 Mar 2024 11:51:29,112.107,14.898,1547.158949
4 Mar 2024 11:52:29,99.161,11.242,1759.916023
4 Mar 2024 11:53:22,90.61,7.838,1999.993404
4 Mar 2024 13:25:34,242.274,7.794,1999.975135
4 Mar 2024 13:26:33,242.412,13.669,1612.995465
4 Mar 2024 13:27:33,242.561,22.192,1234.050125
4 Mar 2024 13:28:33,242.732,36.312,885.475266
4 Mar 2024 13:29:33,243.006,63.125,623.009911
4 Mar 2024 13:30:33,62.539,74.878,580.160329
4 Mar 2024 13:31:33,62.986,42.634,793.427209
4 Mar 2024 13:32:33,63.186,25.695,1125.055393
4 Mar 2024 13:33:33,63.363,15.948,1497.567835
4 Mar 2024 13:34:33,63.535,9.422,1885.87661
4 Mar 2024 13:34:50,63.586,7.876,1999.978458
4 Mar 2024 15:06:52,281.215,7.857,1999.982905
4 Mar 2024 15:07:52,287.307,13.098,1649.480557
4 Mar 2024 15:08:52,296.903,19.705,1330.123586
4 Mar 2024 15:09:52,313.123,27.564,1073.795313
4 Mar 2024 15:10:52,339.715,33.696,935.150083
4 Mar 2024 15:11:52,11.042,32.13,966.762415
4 Mar 2024 15:12:52,33.784,24.728,1154.598313
4 Mar 2024 15:13:52,47.179,17.204,1438.159196
4 Mar 2024 15:14:52,55.287,11.119,1771.255854
4 Mar 2024 15:15:31,58.932,7.874,1999.989617
4 Mar 2024 16:48:14,300.621,7.879,1999.982196
4 Mar 2024 16:49:14,306.933,13.081,1651.479357
4 Mar 2024 16:50:14,316.792,19.564,1336.280627
4 Mar 2024 16:51:14,333.227,27.118,1085.709488
4 Mar 2024 16:52:14,359.485,32.753,953.493371
4 Mar 2024 16:53:14,29.765,31.066,988.892298
4 Mar 2024 16:54:14,51.906,23.976,1176.795383
4 Mar 2024 16:55:14,65.185,16.719,1458.930668
4 Mar 2024 16:56:14,73.323,10.783,1790.536583
4 Mar 2024 16:56:50,76.743,7.835,1999.982073
4 Mar 2024 18:28:55,297.347,7.865,1999.971477
4 Mar 2024 18:29:55,298.1,13.769,1611.025719
4 Mar 2024 18:30:55,299.286,22.276,1232.897188
4 Mar 2024 18:31:55,301.693,36.333,885.537752
4 Mar 2024 18:32:55,310.805,62.623,625.127431
4 Mar 2024 18:33:55,90.631,72.917,584.358538
4 Mar 2024 18:34:55,109.098,42.115,797.819169
4 Mar 2024 18:35:55,112.273,25.415,1129.084747
4 Mar 2024 18:36:55,113.654,15.744,1501.338456
4 Mar 2024 18:37:55,114.467,9.251,1889.530082
4 Mar 2024 18:38:12,114.643,7.757,1999.981422
4 Mar 2024 20:10:14,272.457,7.813,1999.984202
4 Mar 2024 20:11:14,263.291,11.981,1711.401187
4 Mar 2024 20:12:14,250.358,16.174,1480.646493
4 Mar 2024 20:13:14,233.09,19.283,1340.830346
4 Mar 2024 20:14:14,213.235,19.731,1321.657527
4 Mar 2024 20:15:14,194.876,17.218,1427.98829
4 Mar 2024 20:16:14,180.653,13.164,1635.100268
4 Mar 2024 20:17:14,170.451,8.899,1909.773765
4 Mar 2024 20:17:32,168.041,7.69,1999.986807
5 Mar 2024 11:42:49,201.78,7.745,1999.986584
5 Mar 2024 11:43:49,194.14,12.549,1674.400494
5 Mar 2024 11:44:49,182.604,18.045,1393.920409
5 Mar 2024 11:45:49,165.19,23.35,1193.288743
5 Mar 2024 11:46:49,141.917,25.849,1117.4113
5 Mar 2024 11:47:49,118.567,23.478,1190.745715
5 Mar 2024 11:48:49,101.027,18.224,1389.684798
5 Mar 2024 11:49:49,89.414,12.734,1669.36382
5 Mar 2024 11:50:49,81.738,7.914,1995.319205
5 Mar 2024 11:50:50,81.652,7.854,1999.989141
5 Mar 2024 13:22:39,252.101,7.811,1999.993345
5 Mar 2024 13:23:38,254.025,13.603,1617.805265
5 Mar 2024 13:24:38,257.276,21.919,1244.501916
5 Mar 2024 13:25:38,264.043,35.223,905.149617
5 Mar 2024 13:26:38,286.21,57.284,656.943649
5 Mar 2024 13:27:38,11.567,63.443,622.122515
5 Mar 2024 13:28:38,45.674,40.092,828.100488
5 Mar 2024 13:29:38,54.38,24.812,1151.719338
5 Mar 2024 13:30:38,58.232,15.533,1518.741999
5 Mar 2024 13:31:38,60.45,9.184,1903.210539
5 Mar 2024 13:31:53,60.868,7.88,1999.990226
5 Mar 2024 15:04:08,287.524,7.867,1999.990046
5 Mar 2024 15:05:07,294.068,12.92,1660.465067
5 Mar 2024 15:06:07,304.285,19.178,1352.043898
5 Mar 2024 15:07:07,320.916,26.225,1110.653403
5 Mar 2024 15:08:07,346.424,31.149,987.910016
5 Mar 2024 15:09:07,15.037,29.415,1027.719749
5 Mar 2024 15:10:07,36.309,22.878,1214.050339
5 Mar 2024 15:11:07,49.467,16.061,1492.46397
5 Mar 2024 15:12:07,57.711,10.371,1820.402882
5 Mar 2024 15:12:38,60.794,7.872,1999.989846
5 Mar 2024 16:45:20,301.692,7.881,1999.976614
5 Mar 2024 16:46:19,307.226,13.202,1644.562017
5 Mar 2024 16:47:19,316.093,20.105,1314.719258
5 Mar 2024 16:48:19,331.615,28.765,1043.049936
5 Mar 2024 16:49:19,359.035,36.358,886.312711
5 Mar 2024 16:50:19,33.582,35.162,906.939213
5 Mar 2024 16:51:19,58.091,26.734,1094.929394
5 Mar 2024 16:52:19,71.72,18.387,1383.182207
5 Mar 2024 16:53:19,79.652,11.859,1721.294533
5 Mar 2024 16:54:05,83.741,7.823,1999.978242
5 Mar 2024 18:25:59,293.98,7.861,1999.968532
5 Mar 2024 18:26:58,292.775,13.689,1615.06408
5 Mar 2024 18:27:58,290.546,22.101,1238.612236
5 Mar 2024 18:28:58,285.537,35.779,894.697311
5 Mar 2024 18:29:58,267.037,59.734,640.563391
5 Mar 2024 18:30:58,166.619,67.005,604.356966
5 Mar 2024 18:31:58,135.864,40.736,815.764902
5 Mar 2024 18:32:58,129.295,24.872,1144.490292
5 Mar 2024 18:33:58,126.594,15.447,1515.229749
5 Mar 2024 18:34:58,125.155,9.052,1902.58573
5 Mar 2024 18:35:13,124.899,7.742,1999.98132
5 Mar 2024 20:07:56,260.98,7.791,1999.989883
5 Mar 2024 20:08:55,249.837,10.678,1792.722733
5 Mar 2024 20:09:55,235.977,12.784,1660.342229
5 Mar 2024 20:10:55,220.479,13.376,1624.889066
5 Mar 2024 20:11:55,205.321,12.201,1692.505565
5 Mar 2024 20:12:55,192.245,9.728,1851.60504
5 Mar 2024 20:13:36,184.928,7.69,1999.991285
6 Mar 2024 11:39:24,214.521,7.756,1999.979695
6 Mar 2024 11:40:24,209.241,13.135,1640.903516
6 Mar 2024 11:41:24,200.57,20.135,1308.108654
6 Mar 2024 11:42:24,185.053,28.944,1035.042737
6 Mar 2024 11:43:24,157.275,36.553,880.719143
6 Mar 2024 11:44:24,122.683,34.996,908.540514
6 Mar 2024 11:45:24,98.793,26.359,1104.773282
6 Mar 2024 11:46:24,85.775,18.019,1399.790168
6 Mar 2024 11:47:24,78.338,11.539,1743.350389
6 Mar 2024 11:48:06,74.871,7.865,1999.984955
6 Mar 2024 13:19:49,261.302,7.827,1999.971173
6 Mar 2024 13:20:48,264.767,13.504,1624.473527
6 Mar 2024 13:21:48,270.558,21.39,1264.370121
6 Mar 2024 13:22:48,281.993,33.06,946.707522
6 Mar 2024 13:23:48,310.362,48.21,731.029723
6 Mar 2024 13:24:48,4.443,49.681,717.198083
6 Mar 2024 13:25:48,36.227,34.796,914.39819
6 Mar 2024 13:26:48,48.824,22.584,1224.051303
6 Mar 2024 13:27:48,55.052,14.355,1580.581827
6 Mar 2024 13:28:48,58.755,8.445,1957.540899
6 Mar 2024 13:28:55,59.077,7.883,1999.996844
6 Mar 2024 15:01:22,292.74,7.876,1999.983015
6 Mar 2024 15:02:21,299.526,12.855,1664.763655
6 Mar 2024 15:03:21,310.039,18.944,1362.096938
6 Mar 2024 15:04:21,326.847,25.612,1128.467636
6 Mar 2024 15:05:21,351.856,30.004,1013.928885
6 Mar 2024 15:06:21,19.296,28.179,1058.334517
6 Mar 2024 15:07:21,39.869,21.992,1244.641203
6 Mar 2024 15:08:21,52.86,15.485,1521.044015
6 Mar 2024 15:09:21,61.127,9.979,1846.743939
6 Mar 2024 15:09:48,63.843,7.868,1999.982432
6 Mar 2024 16:42:23,301.686,7.882,1999.972027
6 Mar 2024 16:43:22,306.189,13.362,1635.360812
6 Mar 2024 16:44:22,313.593,20.778,1288.697179
6 Mar 2024 16:45:22,327.384,30.946,991.755753
6 Mar 2024 16:46:22,355.86,41.862,803.52409
6 Mar 2024 16:47:22,38.173,41.707,805.214055
6 Mar 2024 16:48:22,66.305,30.704,995.907126
6 Mar 2024 16:49:22,79.92,20.568,1294.147324
6 Mar 2024 16:50:22,87.239,13.183,1641.585104
6 Mar 2024 16:51:20,91.622,7.81,1999.982841
6 Mar 2024 18:23:05,289.61,7.854,1999.977847
6 Mar 2024 18:24:04,286.257,13.504,1624.943154
6 Mar 2024 18:25:04,280.431,21.356,1264.755058
6 Mar 2024 18:26:04,268.665,32.867,948.840568
6 Mar 2024 18:27:04,239.788,47.254,738.419617
6 Mar 2024 18:28:04,188.064,47.826,732.041339
6 Mar 2024 18:29:04,157.783,33.515,933.905017
6 Mar 2024 18:30:04,145.497,21.752,1246.115844
6 Mar 2024 18:31:04,139.456,13.74,1604.701982
6 Mar 2024 18:32:04,135.947,7.94,1983.665359
6 Mar 2024 18:32:07,135.831,7.726,1999.999879
6 Mar 2024 20:06:36,238.158,7.75,1999.994477
6 Mar 2024 20:07:35,225.742,8.294,1957.216083
6 Mar 2024 20:08:35,213.109,7.735,1998.204036
6 Mar 2024 20:08:36,212.847,7.712,1999.99477
7 Mar 2024 9:59:09,154.517,7.747,1999.993493
7 Mar 2024 10:00:08,142.182,8.95,1911.357982
7 Mar 2024 10:01:08,128.993,9.03,1906.873824
7 Mar 2024 10:02:08,116.366,7.939,1989.111754
7 Mar 2024 10:02:13,115.339,7.799,1999.99839
7 Mar 2024 11:36:11,226.132,7.77,1999.983696
7 Mar 2024 11:37:10,223.132,13.472,1622.568001
7 Mar 2024 11:38:10,217.911,21.472,1258.52778
7 Mar 2024 11:39:10,207.188,33.494,936.088177
7 Mar 2024 11:40:10,178.93,49.631,715.980386
7 Mar 2024 11:41:10,121.833,51.113,703.154349
7 Mar 2024 11:42:10,90.223,35.163,906.489686
7 Mar 2024 11:43:10,78.486,22.609,1221.979919
7 Mar 2024 11:44:10,72.928,14.288,1583.138698
7 Mar 2024 11:45:10,69.773,8.349,1963.933015
7 Mar 2024 11:45:16,69.548,7.874,1999.982443
7 Mar 2024 13:17:01,269.82,7.842,1999.979134
7 Mar 2024 13:18:01,274.541,13.342,1634.633893
7 Mar 2024 13:19:01,282.255,20.693,1291.099095
7 Mar 2024 13:20:01,296.488,30.607,999.316893
7 Mar 2024 13:21:01,324.953,40.808,818.290559
7 Mar 2024 13:22:01,5.521,40.328,825.224291
7 Mar 2024 13:23:01,32.797,29.905,1016.201733
7 Mar 2024 13:24:01,46.419,20.171,1312.687397
7 Mar 2024 13:25:01,53.877,12.974,1658.215046
7 Mar 2024 13:25:57,58.238,7.885,1999.990303
7 Mar 2024 14:58:33,296.78,7.882,1999.999671
7 Mar 2024 14:59:33,303.592,12.898,1662.578404
7 Mar 2024 15:00:33,314.104,19.008,1359.651432
7 Mar 2024 15:01:33,330.94,25.709,1125.771701
7 Mar 2024 15:02:33,356.036,30.122,1011.212315
7 Mar 2024 15:03:33,23.568,28.268,1056.019473
7 Mar 2024 15:04:33,44.16,22.035,1242.943238
7 Mar 2024 15:05:33,57.133,15.502,1519.907691
7 Mar 2024 15:06:33,65.377,9.983,1846.051233
7 Mar 2024 15:07:00,68.093,7.861,1999.990772
7 Mar 2024 16:39:25,300.677,7.881,1999.980259
7 Mar 2024 16:40:24,303.907,13.557,1624.145443
7 Mar 2024 16:41:24,309.306,21.509,1261.418009
7 Mar 2024 16:42:24,320.059,33.456,939.213786
7 Mar 2024 16:43:24,347.932,49.677,716.625408
7 Mar 2024 16:44:24,45.617,51.76,697.855488
7 Mar 2024 16:45:24,78.31,35.717,895.924523
7 Mar 2024 16:46:24,90.519,22.956,1208.085822
7 Mar 2024 16:47:24,96.417,14.518,1566.824355
7 Mar 2024 16:48:24,99.884,8.516,1945.592859
7 Mar 2024 16:48:32,100.263,7.794,1999.99018
7 Mar 2024 18:20:15,284.064,7.846,1999.976205
7 Mar 2024 18:21:15,278.362,13.172,1643.129355
7 Mar 2024 18:22:15,269.113,19.94,1317.838266
7 Mar 2024 18:23:15,252.979,28.105,1056.266931
7 Mar 2024 18:24:15,225.749,34.489,916.108514
7 Mar 2024 18:25:15,193.67,32.55,953.084113
7 Mar 2024 18:26:15,171.15,24.656,1150.078472
7 Mar 2024 18:27:15,158.319,16.921,1442.380751
7 Mar 2024 18:28:15,150.747,10.77,1782.871595
7 Mar 2024 18:28:51,147.606,7.714,1999.981776
8 Mar 2024 9:54:31,178.348,7.734,1999.984524
8 Mar 2024 9:55:30,167.606,10.886,1777.360196
8 Mar 2024 9:56:30,153.832,13.419,1624.50811
8 Mar 2024 9:57:30,137.932,14.463,1568.187546
8 Mar 2024 9:58:30,121.964,13.56,1618.823962
8 Mar 2024 9:59:30,108.041,11.117,1767.151959
8 Mar 2024 10:00:30,96.997,7.947,1991.035171
8 Mar 2024 10:00:32,96.659,7.831,1999.981425
8 Mar 2024 11:33:05,236.937,7.786,1999.991058
8 Mar 2024 11:34:05,236.047,13.674,1612.286366
8 Mar 2024 11:35:05,234.407,22.162,1234.794874
8 Mar 2024 11:36:05,230.678,36.091,889.09757
8 Mar 2024 11:37:05,216.088,61.348,632.16083
8 Mar 2024 11:38:05,100.052,69.982,594.641521
8 Mar 2024 11:39:05,73.465,41.535,807.793354
8 Mar 2024 11:40:05,68.514,25.256,1138.068121
8 Mar 2024 11:41:05,66.549,15.71,1509.650997
8 Mar 2024 11:42:05,65.543,9.265,1897.413312
8 Mar 2024 11:42:21,65.363,7.881,1999.97176
8 Mar 2024 13:14:16,277.554,7.856,1999.982187
8 Mar 2024 13:15:16,283.274,13.199,1643.686189
8 Mar 2024 13:16:16,292.369,20.043,1316.862486
8 Mar 2024 13:17:16,308.154,28.501,1049.92274
8 Mar 2024 13:18:16,335.438,35.652,899.26719
8 Mar 2024 13:19:16,9.023,34.29,924.226607
8 Mar 2024 13:20:16,32.949,26.16,1112.927256
8 Mar 2024 13:21:16,46.482,18.065,1400.124352
8 Mar 2024 13:22:16,54.455,11.674,1736.823519
8 Mar 2024 13:23:00,58.414,7.886,1999.977877
8 Mar 2024 14:55:42,299.618,7.887,1999.983017
8 Mar 2024 14:56:42,306.159,12.999,1656.901099
8 Mar 2024 14:57:42,316.327,19.31,1347.305321
8 Mar 2024 14:58:42,332.961,26.461,1104.381676
8 Mar 2024 14:59:42,358.67,31.504,980.279143
8 Mar 2024 15:00:42,27.612,29.739,1019.874673
8 Mar 2024 15:01:42,49.022,23.074,1207.062758
8 Mar 2024 15:02:42,62.176,16.165,1486.597889
8 Mar 2024 15:03:42,70.379,10.425,1815.553041
8 Mar 2024 15:04:14,73.505,7.853,1999.989827
8 Mar 2024 16:36:26,298.724,7.879,1999.991827
8 Mar 2024 16:37:26,300.409,13.765,1612.244753
8 Mar 2024 16:38:26,303.2,22.168,1237.634377
8 Mar 2024 16:39:26,309.025,35.767,896.094918
8 Mar 2024 16:40:26,329.186,59.152,644.987054
8 Mar 2024 16:41:26,64.638,65.837,610.252025
8 Mar 2024 16:42:26,96.683,40.529,820.025311
8 Mar 2024 16:43:26,104.117,24.86,1146.749388
8 Mar 2024 16:44:26,107.362,15.483,1515.843172
8 Mar 2024 16:45:26,109.22,9.101,1901.82661
8 Mar 2024 16:45:41,109.572,7.779,1999.97386
8 Mar 2024 18:17:33,276.976,7.834,1999.992639
8 Mar 2024 18:18:32,269.021,12.456,1684.204077
8 Mar 2024 18:19:32,257.112,17.623,1414.480604
8 Mar 2024 18:20:32,239.656,22.326,1227.691626
8 Mar 2024 18:21:32,217.254,24.193,1165.224206
8 Mar 2024 18:22:32,195.297,21.746,1246.089008
8 Mar 2024 18:23:32,178.641,16.837,1446.115148
8 Mar 2024 18:24:32,167.34,11.692,1723.649946
8 Mar 2024 18:25:24,160.593,7.705,1999.97727
9 Mar 2024 9:50:39,194.518,7.737,1999.978531
9 Mar 2024 9:51:38,185.832,12.044,1704.391679
9 Mar 2024 9:52:38,173.253,16.6,1459.410949
9 Mar 2024 9:53:38,155.925,20.284,1302.326024
9 Mar 2024 9:54:38,135.246,21.245,1267.042779
9 Mar 2024 9:55:38,115.724,18.821,1363.258699
9 Mar 2024 9:56:38,100.671,14.55,1566.677579
9 Mar 2024 9:57:38,90.063,10.027,1841.533317
9 Mar 2024 9:58:09,85.953,7.85,1999.999879
9 Mar 2024 11:30:07,247.08,7.802,1999.97009
9 Mar 2024 11:31:06,248.108,13.642,1615.137511
9 Mar 2024 11:32:06,249.814,22.102,1237.717274
9 Mar 2024 11:33:06,253.37,35.986,891.504688
9 Mar 2024 11:34:06,266.536,61.372,632.433572
9 Mar 2024 11:35:06,27.77,71.264,590.738682
9 Mar 2024 11:36:06,53.791,42.066,801.17663
9 Mar 2024 11:37:06,58.605,25.536,1130.254924
9 Mar 2024 11:38:06,60.682,15.891,1501.063447
9 Mar 2024 11:39:06,61.897,9.401,1888.159938
9 Mar 2024 11:39:23,62.162,7.886,1999.993893
9 Mar 2024 13:11:31,284.381,7.867,1999.980103
9 Mar 2024 13:12:31,290.775,13.046,1653.197237
9 Mar 2024 13:13:31,300.748,19.476,1340.052991
9 Mar 2024 13:14:31,317.265,26.891,1092.424154
9 Mar 2024 13:15:31,343.328,32.31,963.460518
9 Mar 2024 13:16:31,13.098,30.596,1000.643977
9 Mar 2024 13:17:31,34.957,23.674,1188.333664
9 Mar 2024 13:18:31,48.191,16.552,1469.407704
9 Mar 2024 13:19:31,56.36,10.693,1799.840612
9 Mar 2024 13:20:05,59.681,7.884,1999.982416
9 Mar 2024 14:52:48,301.278,7.89,1999.972889
9 Mar 2024 14:53:48,307.25,13.147,1648.410294
9 Mar 2024 14:54:48,316.688,19.82,1326.680841
9 Mar 2024 14:55:48,332.762,27.855,1066.779196
9 Mar 2024 14:56:48,359.551,34.295,923.873378
9 Mar 2024 14:57:48,31.568,32.798,952.801712
9 Mar 2024 14:58:48,54.702,25.173,1140.507609
9 Mar 2024 14:59:48,68.16,17.463,1425.0948
9 Mar 2024 15:00:48,76.23,11.274,1759.40987
9 Mar 2024 15:01:28,79.989,7.842,1999.989613
9 Mar 2024 16:33:28,295.846,7.875,1999.981157
9 Mar 2024 16:34:27,295.682,13.707,1615.131031
9 Mar 2024 16:35:27,295.269,22.198,1236.204393
9 Mar 2024 16:36:27,294.171,36.242,887.528036
9 Mar 2024 16:37:27,289.294,62.787,624.598666
9 Mar 2024 16:38:27,133.144,74.404,580.579929
9 Mar 2024 16:39:27,121.958,42.517,792.980766
9 Mar 2024 16:40:27,120.364,25.589,1124.401798
9 Mar 2024 16:41:27,119.796,15.84,1497.009182
9 Mar 2024 16:42:27,119.543,9.313,1885.558097
9 Mar 2024 16:42:44,119.499,7.763,1999.978012
9 Mar 2024 18:15:02,267.508,7.817,1999.993643
9 Mar 2024 18:16:02,257.32,11.441,1745.305124
9 Mar 2024 18:17:02,243.758,14.662,1557.527577
9 Mar 2024 18:18:02,227.141,16.472,1465.339138
9 Mar 2024 18:19:02,209.588,16.001,1486.912722
9 Mar 2024 18:20:02,193.969,13.495,1617.540376
9 Mar 2024 18:21:02,181.687,10.001,1833.551473
9 Mar 2024 18:21:40,175.633,7.701,1999.997802
10 Mar 2024 9:47:06,208.076,7.745,1999.985258
10 Mar 2024 9:48:06,201.565,12.869,1655.644742
10 Mar 2024 9:49:06,191.299,19.146,1347.238865
10 Mar 2024 9:50:06,174.442,26.109,1109.312884
10 Mar 2024 9:51:06,148.83,30.667,995.065705
10 Mar 2024 9:52:06,120.886,28.534,1046.353094
10 Mar 2024 9:53:06,100.559,21.976,1242.724566
10 Mar 2024 9:54:06,88.109,15.299,1528.729974
10 Mar 2024 9:55:06,80.389,9.736,1862.735828
10 Mar 2024 9:55:29,78.18,7.863,1999.982931
10 Mar 2024 11:27:13,256.603,7.818,1999.990827
10 Mar 2024 11:28:13,259.312,13.588,1619.234437
10 Mar 2024 11:29:13,263.869,21.731,1251.704565
10 Mar 2024 11:30:13,273.163,34.327,922.009844
10 Mar 2024 11:31:13,299.732,52.925,688.921703
10 Mar 2024 11:32:13,6.41,56.241,664.565608
10 Mar 2024 11:33:13,40.246,37.572,866.72826
10 Mar 2024 11:34:13,51.303,23.794,1184.066322
10 Mar 2024 11:35:13,56.455,15.005,1546.416979
10 Mar 2024 11:36:13,59.458,8.857,1927.552626
10 Mar 2024 11:36:24,59.89,7.89,1999.988697
10 Mar 2024 13:08:45,290.174,7.876,1999.987835
10 Mar 2024 13:09:45,296.95,12.941,1659.86046
10 Mar 2024 13:10:45,307.399,19.109,1355.499276
10 Mar 2024 13:11:45,324.221,25.921,1119.837391
10 Mar 2024 13:12:45,349.495,30.467,1003.650221
10 Mar 2024 13:13:45,17.341,28.61,1047.912935
10 Mar 2024 13:14:45,38.09,22.274,1235.343487
10 Mar 2024 13:15:45,51.085,15.657,1513.107997
10 Mar 2024 13:16:45,59.31,10.092,1839.954438
10 Mar 2024 13:17:13,62.107,7.881,1999.997181
10 Mar 2024 14:49:52,301.82,7.891,1999.975468
10 Mar 2024 14:50:51,306.885,13.282,1640.663374
10 Mar 2024 14:51:51,315.11,20.425,1302.889122
10 Mar 2024 14:52:51,329.923,29.765,1019.41038
10 Mar 2024 14:53:51,357.905,38.751,848.205062
10 Mar 2024 14:54:51,35.591,37.968,860.010029
10 Mar 2024 14:55:51,61.684,28.515,1048.672951
10 Mar 2024 14:56:51,75.401,19.406,1341.06629
10 Mar 2024 14:57:51,83.113,12.495,1683.228834
10 Mar 2024 14:58:43,87.423,7.83,1999.97932
10 Mar 2024 16:30:32,292.013,7.869,1999.97548
10 Mar 2024 16:31:31,289.789,13.654,1617.61091
10 Mar 2024 16:32:31,285.825,21.876,1247.070258
10 Mar 2024 16:33:31,277.328,34.744,913.630431
10 Mar 2024 16:34:31,251.328,54.316,676.846882
10 Mar 2024 16:35:31,180.512,57.616,653.363334
10 Mar 2024 16:36:31,147.419,37.715,860.894103
10 Mar 2024 16:37:31,137.359,23.647,1183.074667
10 Mar 2024 16:38:31,132.871,14.796,1549.159396
10 Mar 2024 16:39:31,130.379,8.634,1933.368105
10 Mar 2024 16:39:41,130.062,7.747,1999.983948
10 Mar 2024 18:12:59,252.982,7.79,1999.999938
10 Mar 2024 18:13:59,240.903,9.829,1849.793721
10 Mar 2024 18:14:59,227.179,10.794,1783.55078
10 Mar 2024 18:15:59,213.129,10.36,1810.927141
10 Mar 2024 18:16:59,200.242,8.675,1927.7369
10 Mar 2024 18:17:24,195.414,7.708,1999.998264
11 Mar 2024 9:43:46,220.21,7.757,1999.970843
11 Mar 2024 9:44:46,216.017,13.346,1628.893318
11 Mar 2024 9:45:46,208.938,20.905,1278.810161
11 Mar 2024 9:46:46,195.321,31.374,979.231967
11 Mar 2024 9:47:46,166.277,42.65,791.592782
11 Mar 2024 9:48:46,123.087,42.047,799.917914
11 Mar 2024 9:49:46,95.563,30.557,999.308968
11 Mar 2024 9:50:46,82.675,20.338,1304.410138
11 Mar 2024 9:51:46,75.921,12.97,1657.026919
11 Mar 2024 9:52:41,72.16,7.873,1999.982612
11 Mar 2024 11:24:24,265.48,7.834,1999.977222
11 Mar 2024 11:25:23,269.539,13.372,1632.401987
11 Mar 2024 11:26:23,276.293,20.984,1279.800188
11 Mar 2024 11:27:23,289.186,31.762,973.841889
11 Mar 2024 11:28:23,317.737,44.284,773.779039
11 Mar 2024 11:29:23,4.114,44.781,768.260352
11 Mar 2024 11:30:23,33.834,32.441,960.599474
11 Mar 2024 11:31:23,47.233,21.497,1262.899876
11 Mar 2024 11:32:23,54.202,13.761,1613.695258
11 Mar 2024 11:33:23,58.431,8.069,1986.463557
11 Mar 2024 11:33:25,58.551,7.892,1999.982272
11 Mar 2024 13:05:57,294.83,7.884,1999.981395
11 Mar 2024 13:06:57,301.71,12.904,1662.432276
11 Mar 2024 13:07:57,312.291,18.988,1360.782359
11 Mar 2024 13:08:57,329.179,25.62,1128.698612
11 Mar 2024 13:09:57,354.2,29.926,1016.16627
11 Mar 2024 13:10:57,21.508,28.04,1062.333471
11 Mar 2024 13:11:57,41.947,21.866,1249.586596
11 Mar 2024 13:12:57,54.87,15.391,1526.328822
11 Mar 2024 13:13:57,63.108,9.91,1852.094198
11 Mar 2024 13:14:23,65.731,7.876,1999.98231
11 Mar 2024 14:46:53,301.324,7.89,1999.98348
11 Mar 2024 14:47:53,305.284,13.512,1627.474706
11 Mar 2024 14:48:53,311.826,21.21,1273.097934
11 Mar 2024 14:49:53,324.429,32.245,964.301615
11 Mar 2024 14:50:53,353.185,45.407,760.76042
11 Mar 2024 14:51:53,41.465,45.964,754.242389
11 Mar 2024 14:52:53,71.582,32.938,948.891824
11 Mar 2024 14:53:53,84.723,21.669,1253.843785
11 Mar 2024 14:54:53,91.462,13.809,1606.729411
11 Mar 2024 14:55:53,95.52,8.062,1981.152471
11 Mar 2024 14:55:56,95.679,7.815,1999.983391
11 Mar 2024 16:27:39,287.111,7.862,1999.990679
11 Mar 2024 16:28:38,282.657,13.379,1632.531863
11 Mar 2024 16:29:38,275.142,20.78,1286.590661
11 Mar 2024 16:30:38,260.925,30.771,993.625296
11 Mar 2024 16:31:38,232.093,40.883,814.66503
11 Mar 2024 16:32:38,191.633,39.883,828.074577
11 Mar 2024 16:33:38,165.173,29.263,1026.27342
11 Mar 2024 16:34:38,152.163,19.587,1328.445887
11 Mar 2024 16:35:38,145.152,12.465,1678.525222
11 Mar 2024 16:36:30,141.362,7.734,1999.975489
12 Mar 2024 8:02:41,167.778,7.73,1999.987288
12 Mar 2024 8:03:40,156.035,10.05,1832.804445
12 Mar 2024 8:04:40,142.235,11.396,1745.632395
12 Mar 2024 8:05:40,127.731,11.294,1753.414954
12 Mar 2024 8:06:40,114.18,9.784,1855.025658
12 Mar 2024 8:07:30,104.512,7.814,1999.9978
12 Mar 2024 9:40:36,231.4,7.771,1999.994925
12 Mar 2024 9:41:36,229.407,13.646,1612.902771
12 Mar 2024 9:42:36,225.886,21.976,1240.639249
12 Mar 2024 9:43:36,218.264,35.195,904.36872
12 Mar 2024 9:44:36,193.552,56.175,663.592124
12 Mar 2024 9:45:36,115.817,60.181,638.791296
12 Mar 2024 9:46:36,82.977,38.626,849.159608
12 Mar 2024 9:47:36,73.841,24.078,1173.945432
12 Mar 2024 9:48:36,69.871,15.078,1541.648752
12 Mar 2024 9:49:36,67.709,8.856,1926.844762
12 Mar 2024 9:49:47,67.412,7.88,1999.990692
12 Mar 2024 11:21:37,273.631,7.847,2000.00002
12 Mar 2024 11:22:37,278.889,13.294,1637.792117
12 Mar 2024 11:23:37,287.346,20.402,1302.601584
12 Mar 2024 11:24:37,302.481,29.578,1023.461971
12 Mar 2024 11:25:37,330.481,38.105,858.414619
12 Mar 2024 11:26:37,7.166,37.072,875.251246
12 Mar 2024 11:27:37,32.613,27.924,1065.278931
12 Mar 2024 11:28:37,46.228,19.08,1357.060451
12 Mar 2024 11:29:37,53.981,12.31,1698.123729
12 Mar 2024 11:30:27,58.19,7.892,1999.99108
12 Mar 2024 13:03:07,298.291,7.889,1999.981515
12 Mar 2024 13:04:06,304.957,12.909,1662.399198
12 Mar 2024 13:05:06,315.318,19.088,1356.766624
12 Mar 2024 13:06:06,332.039,25.954,1119.077627
12 Mar 2024 13:07:06,357.313,30.62,1000.211182
12 Mar 2024 13:08:06,25.363,28.837,1042.150947
12 Mar 2024 13:09:06,46.3,22.464,1228.416948
12 Mar 2024 13:10:06,59.38,15.791,1505.863997
12 Mar 2024 13:11:06,67.632,10.185,1832.774942
12 Mar 2024 13:11:35,70.544,7.868,1999.996979
12 Mar 2024 14:43:54,299.857,7.888,1999.975452
12 Mar 2024 14:44:54,302.407,13.718,1615.624838
12 Mar 2024 14:45:54,306.653,21.932,1246.686122
12 Mar 2024 14:46:54,315.365,34.775,914.540043
12 Mar 2024 14:47:54,341.312,54.342,677.942361
12 Mar 2024 14:48:54,52.477,58.003,652.27215
12 Mar 2024 14:49:54,86.286,38.094,856.837871
12 Mar 2024 14:50:54,96.695,23.929,1176.708614
12 Mar 2024 14:51:54,101.47,15.019,1540.925722
12 Mar 2024 14:52:54,104.23,8.823,1923.500705
12 Mar 2024 14:53:06,104.645,7.8,1999.980926
12 Mar 2024 16:24:51,280.893,7.851,2000.000072
12 Mar 2024 16:25:50,274.193,12.817,1664.164027
12 Mar 2024 16:26:50,263.613,18.86,1362.148946
12 Mar 2024 16:27:50,246.61,25.325,1132.986173
12 Mar 2024 16:28:50,221.686,29.235,1027.719713
12 Mar 2024 16:29:50,195.117,27.016,1083.454419
12 Mar 2024 16:30:50,175.543,20.855,1279.085194
12 Mar 2024 16:31:50,163.24,14.521,1562.307669
12 Mar 2024 16:32:50,155.447,9.162,1893.356053
12 Mar 2024 16:33:08,153.647,7.722,1999.989968
13 Mar 2024 7:58:31,186.555,7.725,1999.985925
13 Mar 2024 7:59:30,176.744,11.495,1737.698682
13 Mar 2024 8:00:30,163.371,15.03,1536.61675
13 Mar 2024 8:01:30,146.575,17.252,1429.55259
13 Mar 2024 8:02:30,128.388,17.088,1438.194025
13 Mar 2024 8:03:30,112.01,14.637,1560.668589
13 Mar 2024 8:04:30,99.17,11.034,1773.206487
13 Mar 2024 8:05:20,91.031,7.838,1999.992984
13 Mar 2024 9:37:33,241.87,7.787,1999.987392
13 Mar 2024 9:38:33,241.932,13.708,1610.481906
13 Mar 2024 9:39:33,241.947,22.255,1231.646731
13 Mar 2024 9:40:33,241.824,36.431,883.394892
13 Mar 2024 9:41:33,240.894,63.353,621.901085
13 Mar 2024 9:42:33,65.982,74.583,580.983268
13 Mar 2024 9:43:33,63.786,42.485,795.510788
13 Mar 2024 9:44:33,63.585,25.62,1127.571452
13 Mar 2024 9:45:33,63.599,15.905,1500.239635
13 Mar 2024 9:46:33,63.682,9.394,1888.610543
13 Mar 2024 9:46:50,63.713,7.886,1999.974334
13 Mar 2024 11:18:51,280.943,7.86,1999.991113
13 Mar 2024 11:19:51,287.011,13.112,1648.992284
13 Mar 2024 11:20:51,296.575,19.74,1329.167758
13 Mar 2024 11:21:51,312.768,27.644,1072.173688
13 Mar 2024 11:22:51,339.411,33.845,932.777815
13 Mar 2024 11:23:51,10.883,32.293,963.964658
13 Mar 2024 11:24:51,33.703,24.844,1151.824732
13 Mar 2024 11:25:51,47.109,17.282,1435.576383
13 Mar 2024 11:26:51,55.209,11.176,1768.85994
13 Mar 2024 11:27:30,58.879,7.891,1999.982225
13 Mar 2024 13:00:13,300.557,7.892,1999.999454
13 Mar 2024 13:01:13,306.857,13.066,1653.409575
13 Mar 2024 13:02:13,316.724,19.532,1338.602624
13 Mar 2024 13:03:13,333.141,27.053,1088.432235
13 Mar 2024 13:04:13,359.307,32.658,956.371629
13 Mar 2024 13:05:13,29.476,31,991.385368
13 Mar 2024 13:06:13,51.595,23.958,1178.593093
13 Mar 2024 13:07:13,64.894,16.726,1460.090529
13 Mar 2024 13:08:13,73.055,10.799,1791.20365
13 Mar 2024 13:08:48,76.48,7.858,1999.997311
13 Mar 2024 14:40:55,297.462,7.885,1999.982765
13 Mar 2024 14:41:54,298.283,13.747,1613.684771
13 Mar 2024 14:42:54,299.593,22.232,1235.761055
13 Mar 2024 14:43:54,302.263,36.219,888.570227
13 Mar 2024 14:44:54,312.286,62.241,627.925804
13 Mar 2024 14:45:54,87.346,72.766,585.600731
13 Mar 2024 14:46:54,108.034,42.237,797.333977
13 Mar 2024 14:47:54,111.606,25.513,1127.681096
13 Mar 2024 14:48:54,113.148,15.819,1499.432842
13 Mar 2024 14:49:54,114.049,9.31,1887.302259
13 Mar 2024 14:50:11,114.247,7.784,1999.979415
13 Mar 2024 16:22:12,272.825,7.837,1999.995506
13 Mar 2024 16:23:12,263.793,12.031,1710.219494
13 Mar 2024 16:24:12,250.944,16.305,1476.039012
13 Mar 2024 16:25:12,233.661,19.539,1332.107155
13 Mar 2024 16:26:12,213.62,20.093,1309.081675
13 Mar 2024 16:27:12,195,17.59,1412.8935
13 Mar 2024 16:28:12,180.588,13.481,1618.914349
13 Mar 2024 16:29:12,170.286,9.155,1893.366513
13 Mar 2024 16:29:33,167.452,7.715,1999.988688
14 Mar 2024 7:54:48,201.23,7.73,1999.993615
14 Mar 2024 7:55:48,193.556,12.47,1678.165053
14 Mar 2024 7:56:48,181.954,17.892,1399.880114
14 Mar 2024 7:57:48,164.562,23.071,1201.930035
14 Mar 2024 7:58:48,141.515,25.454,1128.428405
14 Mar 2024 7:59:48,118.48,23.102,1202.762958
14 Mar 2024 8:00:48,101.115,17.95,1401.414277
14 Mar 2024 8:01:48,89.549,12.547,1680.303703
14 Mar 2024 8:02:47,81.969,7.853,1999.995207
14 Mar 2024 9:34:36,251.71,7.802,1999.988918
14 Mar 2024 9:35:36,253.579,13.639,1615.352417
14 Mar 2024 9:36:36,256.724,21.99,1241.75945
14 Mar 2024 9:37:36,263.289,35.391,902.035673
14 Mar 2024 9:38:36,285.127,57.795,653.609041
14 Mar 2024 9:39:36,12.744,63.963,619.658257
14 Mar 2024 9:40:36,46.312,40.175,827.066727
14 Mar 2024 9:41:36,54.711,24.827,1151.572956
14 Mar 2024 9:42:36,58.422,15.535,1519.086828
14 Mar 2024 9:43:36,60.56,9.185,1903.848607
14 Mar 2024 9:43:51,60.961,7.889,1999.990275
14 Mar 2024 11:16:05,287.286,7.87,1999.99012
14 Mar 2024 11:17:04,293.781,12.905,1661.642031
14 Mar 2024 11:18:04,303.957,19.172,1352.711475
14 Mar 2024 11:19:04,320.539,26.246,1110.506601
14 Mar 2024 11:20:04,346.041,31.23,986.650353
14 Mar 2024 11:21:04,14.743,29.536,1025.440411
14 Mar 2024 11:22:04,36.101,22.986,1211.203152
14 Mar 2024 11:23:04,49.299,16.144,1489.390734
14 Mar 2024 11:24:04,57.557,10.436,1817.253554
14 Mar 2024 11:24:35,60.691,7.889,1999.98985
14 Mar 2024 12:57:17,301.672,7.893,1999.976992
14 Mar 2024 12:58:17,307.284,13.248,1642.894366
14 Mar 2024 12:59:17,316.229,20.147,1314.063879
14 Mar 2024 13:00:17,331.855,28.764,1043.979241
14 Mar 2024 13:01:17,359.296,36.227,889.399748
14 Mar 2024 13:02:17,33.593,34.944,911.822778
14 Mar 2024 13:03:17,57.904,26.575,1100.450256
14 Mar 2024 13:04:17,71.476,18.293,1388.658073
14 Mar 2024 13:05:17,79.4,11.802,1726.526492
14 Mar 2024 13:06:02,83.431,7.847,1999.981639
14 Mar 2024 14:37:56,294.137,7.88,1999.982367
14 Mar 2024 14:38:56,293.006,13.767,1612.148459
14 Mar 2024 14:39:56,290.913,22.222,1235.657367
14 Mar 2024 14:40:56,286.179,36.013,891.70648
14 Mar 2024 14:41:56,268.335,60.356,637.812615
14 Mar 2024 14:42:56,164.298,67.592,602.830567
14 Mar 2024 14:43:56,134.727,40.83,815.562755
14 Mar 2024 14:44:56,128.565,24.906,1144.933887
14 Mar 2024 14:45:56,126.041,15.468,1515.951856
14 Mar 2024 14:46:56,124.701,9.067,1903.423224
14 Mar 2024 14:47:11,124.466,7.768,1999.981073
14 Mar 2024 16:19:51,261.549,7.817,1999.998316
14 Mar 2024 16:20:51,250.368,10.792,1787.087569
14 Mar 2024 16:21:51,236.497,12.98,1650.739308
14 Mar 2024 16:22:51,220.891,13.647,1611.463337
14 Mar 2024 16:23:51,205.56,12.505,1676.153043
14 Mar 2024 16:24:51,192.317,10.02,1833.518221
14 Mar 2024 16:25:36,184.145,7.715,1999.993716
15 Mar 2024 7:51:22,214.012,7.739,1999.980967
15 Mar 2024 7:52:21,208.653,13.081,1642.916106
15 Mar 2024 7:53:21,199.86,20.021,1311.706715
15 Mar 2024 7:54:21,184.233,28.678,1040.968464
15 Mar 2024 7:55:21,156.643,36.022,889.317542
15 Mar 2024 7:56:21,122.664,34.435,918.481209
15 Mar 2024 7:57:21,99.046,26.01,1114.286877
15 Mar 2024 7:58:21,86.03,17.819,1408.354287
15 Mar 2024 7:59:21,78.544,11.415,1751.064794
15 Mar 2024 8:00:02,75.124,7.864,1999.996124
15 Mar 2024 9:31:44,260.926,7.818,1999.983891
15 Mar 2024 9:32:44,264.35,13.531,1622.465224
15 Mar 2024 9:33:44,270.059,21.452,1261.819836
15 Mar 2024 9:34:44,281.377,33.219,943.383315
15 Mar 2024 9:35:44,309.781,48.628,726.878655
15 Mar 2024 9:36:44,4.708,50.123,713.171806
15 Mar 2024 9:37:44,36.562,34.965,911.432295
15 Mar 2024 9:38:44,49.025,22.652,1221.994441
15 Mar 2024 9:39:44,55.163,14.39,1579.120349
15 Mar 2024 9:40:44,58.809,8.467,1956.471408
15 Mar 2024 9:40:51,59.133,7.892,1999.996245
15 Mar 2024 11:13:17,292.542,7.878,1999.997816
15 Mar 2024 11:14:17,299.382,12.899,1662.436122
15 Mar 2024 11:15:17,309.923,19.002,1360.053596
15 Mar 2024 11:16:17,326.781,25.678,1126.966692
15 Mar 2024 11:17:17,351.847,30.051,1013.321055
15 Mar 2024 11:18:17,19.285,28.186,1058.749309
15 Mar 2024 11:19:17,39.812,21.98,1245.816776
15 Mar 2024 11:20:17,52.765,15.472,1522.653617
15 Mar 2024 11:21:17,61.008,9.97,1848.577634
15 Mar 2024 11:21:43,63.686,7.884,1999.982434
15 Mar 2024 12:54:19,301.709,7.893,1999.973719
15 Mar 2024 12:55:18,306.264,13.374,1635.614657
15 Mar 2024 12:56:18,313.744,20.773,1289.801184
15 Mar 2024 12:57:18,327.637,30.876,994.144253
15 Mar 2024 12:58:18,356.091,41.615,807.561245
15 Mar 2024 12:59:18,37.959,41.393,810.237162
15 Mar 2024 13:00:18,65.899,30.537,1000.695943
15 Mar 2024 13:01:18,79.529,20.494,1298.325988
15 Mar 2024 13:02:18,86.886,13.148,1645.211753
15 Mar 2024 13:03:16,91.268,7.833,1999.984749
15 Mar 2024 14:35:00,289.816,7.873,1999.969266
15 Mar 2024 14:36:00,286.535,13.574,1622.359728
15 Mar 2024 14:37:00,280.841,21.482,1261.431634
15 Mar 2024 14:38:00,269.268,33.147,944.336002
15 Mar 2024 14:39:00,240.345,47.935,732.443855
15 Mar 2024 14:40:00,187.387,48.561,725.742722
15 Mar 2024 14:41:00,156.942,33.847,928.694362
15 Mar 2024 14:42:00,144.828,21.912,1241.952933
15 Mar 2024 14:43:00,138.913,13.835,1601.22876
15 Mar 2024 14:44:00,135.488,8.006,1980.63037
15 Mar 2024 14:44:03,135.354,7.753,1999.973267
15 Mar 2024 16:18:23,240.018,7.778,1999.993695
15 Mar 2024 16:19:23,227.446,8.499,1944.037908
15 Mar 2024 16:20:23,214.65,8.088,1973.411101
15 Mar 2024 16:20:42,210.777,7.735,1999.998818
16 Mar 2024 6:11:11,152.952,7.729,1999.992539
16 Mar 2024 6:12:10,140.549,8.802,1920.888137
16 Mar 2024 6:13:10,127.467,8.746,1926.375021
16 Mar 2024 6:14:02,116.694,7.782,1999.999996
16 Mar 2024 7:48:06,225.647,7.752,1999.96899
16 Mar 2024 7:49:05,222.554,13.438,1623.332475
16 Mar 2024 7:50:05,217.18,21.402,1260.169853
16 Mar 2024 7:51:05,206.199,33.301,939.223532
16 Mar 2024 7:52:05,177.788,49.013,721.338269
16 Mar 2024 7:53:05,122.11,50.303,709.938287
16 Mar 2024 7:54:05,90.776,34.795,912.822735
16 Mar 2024 7:55:05,78.877,22.439,1227.488288
16 Mar 2024 7:56:05,73.195,14.193,1588.021233
16 Mar 2024 7:57:05,69.957,8.288,1968.377783
16 Mar 2024 7:57:10,69.755,7.873,1999.97138
16 Mar 2024 9:28:55,269.463,7.832,1999.994449
16 Mar 2024 9:29:55,274.147,13.353,1633.438852
16 Mar 2024 9:30:55,281.797,20.733,1289.217819
16 Mar 2024 9:31:55,295.957,30.726,996.447269
16 Mar 2024 9:32:55,324.498,41.093,814.290812
16 Mar 2024 9:33:55,5.477,40.642,820.807947
16 Mar 2024 9:34:55,32.893,30.077,1012.281105
16 Mar 2024 9:35:55,46.485,20.261,1309.41221
16 Mar 2024 9:36:55,53.899,13.029,1655.444137
16 Mar 2024 9:37:51,58.253,7.893,1999.990254
16 Mar 2024 11:10:27,296.629,7.883,1999.999631
16 Mar 2024 11:11:27,303.456,12.905,1662.392499
16 Mar 2024 11:12:27,313.981,19.014,1359.723137
16 Mar 2024 11:13:27,330.827,25.707,1126.204744
16 Mar 2024 11:14:27,355.914,30.105,1012.056787
16 Mar 2024 11:15:27,23.41,28.245,1057.14657
16 Mar 2024 11:16:27,43.975,22.022,1244.142182
16 Mar 2024 11:17:27,56.939,15.498,1521.057691
16 Mar 2024 11:18:27,65.18,9.984,1847.11173
16 Mar 2024 11:18:53,67.88,7.877,1999.990687
16 Mar 2024 12:51:19,300.742,7.891,1999.979936
16 Mar 2024 12:52:18,304.017,13.537,1626.182925
16 Mar 2024 12:53:18,309.504,21.459,1264.100508
16 Mar 2024 12:54:18,320.39,33.311,942.820448
16 Mar 2024 12:55:18,348.254,49.253,721.252676
16 Mar 2024 12:56:18,44.95,51.309,702.400639
16 Mar 2024 12:57:18,77.591,35.583,899.219616
16 Mar 2024 12:58:18,89.959,22.928,1210.278202
16 Mar 2024 12:59:18,95.959,14.52,1568.266959
16 Mar 2024 13:00:18,99.489,8.527,1946.511945
16 Mar 2024 13:00:26,99.87,7.817,1999.994597
16 Mar 2024 14:32:09,284.333,7.864,1999.974305
16 Mar 2024 14:33:08,278.811,13.149,1645.882823
16 Mar 2024 14:34:08,269.753,19.962,1318.297432
16 Mar 2024 14:35:08,253.85,28.279,1053.045052
16 Mar 2024 14:36:08,226.577,34.996,907.920949
16 Mar 2024 14:37:08,193.869,33.219,940.847912
16 Mar 2024 14:38:08,170.909,25.16,1136.307968
16 Mar 2024 14:39:08,157.955,17.259,1428.506474
16 Mar 2024 14:40:08,150.372,11.008,1769.308106
16 Mar 2024 14:40:46,147.075,7.74,1999.981752
17 Mar 2024 6:06:27,177.536,7.712,1999.990114
17 Mar 2024 6:07:26,166.712,10.799,1781.454027
17 Mar 2024 6:08:26,152.918,13.237,1633.481115
17 Mar 2024 6:09:26,137.117,14.181,1582.129391
17 Mar 2024 6:10:26,121.351,13.223,1636.814264
17 Mar 2024 6:11:26,107.639,10.784,1787.720415
17 Mar 2024 6:12:23,97.241,7.817,1999.982055
17 Mar 2024 7:44:58,236.469,7.766,1999.991039
17 Mar 2024 7:45:58,235.488,13.652,1612.249494
17 Mar 2024 7:46:58,233.689,22.129,1234.970993
17 Mar 2024 7:47:58,229.62,36.015,889.716704
17 Mar 2024 7:48:58,213.922,60.996,633.639717
17 Mar 2024 7:49:58,102.138,69.227,596.938847
17 Mar 2024 7:50:58,74.344,41.336,810.072399
17 Mar 2024 7:51:58,68.979,25.173,1140.135405
17 Mar 2024 7:52:58,66.832,15.665,1511.568339
17 Mar 2024 7:53:58,65.725,9.236,1899.23686
17 Mar 2024 7:54:13,65.528,7.878,1999.978832
17 Mar 2024 9:26:08,277.224,7.845,1999.989841
17 Mar 2024 9:27:08,282.897,13.189,1643.655286
17 Mar 2024 9:28:08,291.936,20.053,1316.064815
17 Mar 2024 9:29:08,307.66,28.568,1047.999411
17 Mar 2024 9:30:08,334.987,35.833,895.97602
17 Mar 2024 9:31:08,8.807,34.512,920.03864
17 Mar 2024 9:32:08,32.87,26.313,1108.658028
17 Mar 2024 9:33:08,46.425,18.161,1396.120927
17 Mar 2024 9:34:08,54.389,11.739,1733.117974
17 Mar 2024 9:34:53,58.383,7.892,1999.990758
17 Mar 2024 11:07:35,299.517,7.887,1999.985254
17 Mar 2024 11:08:34,306.035,12.967,1658.971332
17 Mar 2024 11:09:34,316.2,19.261,1349.600094
17 Mar 2024 11:10:34,332.806,26.385,1106.846655
17 Mar 2024 11:11:34,358.43,31.414,982.644011
17 Mar 2024 11:12:34,27.292,29.683,1021.714192
17 Mar 2024 11:13:34,48.696,23.06,1208.215553
17 Mar 2024 11:14:34,61.874,16.171,1487.177137
17 Mar 2024 11:15:34,70.099,10.439,1815.708767
17 Mar 2024 11:16:06,73.235,7.868,1999.993937
17 Mar 2024 12:48:19,298.832,7.888,1999.99982
17 Mar 2024 12:49:18,300.576,13.716,1615.798434
17 Mar 2024 12:50:18,303.484,22.079,1241.523135
17 Mar 2024 12:51:18,309.533,35.565,900.357246
17 Mar 2024 12:52:18,330.082,58.548,649.251952
17 Mar 2024 12:53:18,62.548,65.372,612.892922
17 Mar 2024 12:54:18,95.585,40.554,820.507486
17 Mar 2024 12:55:18,103.401,24.925,1145.967144
17 Mar 2024 12:56:18,106.813,15.541,1514.352436
17 Mar 2024 12:57:18,108.763,9.152,1899.887371
17 Mar 2024 12:57:33,109.139,7.801,1999.978825
17 Mar 2024 14:29:24,277.333,7.852,1999.99493
17 Mar 2024 14:30:24,269.403,12.554,1679.742915
17 Mar 2024 14:31:24,257.557,17.807,1407.617572
17 Mar 2024 14:32:24,240.063,22.647,1217.957974
17 Mar 2024 14:33:24,217.416,24.63,1153.015548
17 Mar 2024 14:34:24,195.142,22.161,1232.839789
17 Mar 2024 14:35:24,178.308,17.152,1433.121838
17 Mar 2024 14:36:24,166.954,11.919,1711.427838
17 Mar 2024 14:37:18,159.981,7.73,1999.984086
18 Mar 2024 6:02:32,193.856,7.712,1999.999736
18 Mar 2024 6:03:32,184.926,12.036,1703.197592
18 Mar 2024 6:04:32,172.205,16.502,1462.621567
18 Mar 2024 6:05:32,154.841,20.026,1311.104382
18 Mar 2024 6:06:32,134.366,20.828,1281.387058
18 Mar 2024 6:07:32,115.188,18.365,1381.53539
18 Mar 2024 6:08:32,100.406,14.154,1586.881666
18 Mar 2024 6:09:32,89.946,9.71,1862.361119
18 Mar 2024 6:09:59,86.362,7.836,1999.980928
18 Mar 2024 7:41:58,246.627,7.782,1999.977661
18 Mar 2024 7:42:57,247.573,13.626,1614.71725
18 Mar 2024 7:43:57,249.136,22.094,1236.971292
18 Mar 2024 7:44:57,252.384,36.015,890.266151
18 Mar 2024 7:45:57,264.497,61.643,630.498284
18 Mar 2024 7:46:57,30.19,71.834,588.564382
18 Mar 2024 7:47:57,54.616,42.156,799.568518
18 Mar 2024 7:48:57,59.02,25.558,1129.156146
18 Mar 2024 7:49:57,60.924,15.899,1500.297566
18 Mar 2024 7:50:57,62.042,9.404,1887.621652
18 Mar 2024 7:51:14,62.289,7.883,1999.973562
18 Mar 2024 9:23:21,284.087,7.856,1999.990922
18 Mar 2024 9:24:21,290.411,13.01,1654.672085
18 Mar 2024 9:25:21,300.326,19.449,1340.714842
18 Mar 2024 9:26:21,316.772,26.903,1091.835862
18 Mar 2024 9:27:21,342.83,32.41,961.227519
18 Mar 2024 9:28:21,12.747,30.755,997.00796
18 Mar 2024 9:29:21,34.738,23.808,1184.041902
18 Mar 2024 9:30:21,48.024,16.65,1464.959641
18 Mar 2024 9:31:21,56.209,10.765,1795.425038
18 Mar 2024 9:31:56,59.597,7.89,1999.999182
18 Mar 2024 11:04:39,301.226,7.889,2000.000136
18 Mar 2024 11:05:38,307.146,13.073,1652.808384
18 Mar 2024 11:06:38,316.573,19.711,1331.279444
18 Mar 2024 11:07:38,332.58,27.69,1071.378904
18 Mar 2024 11:08:38,359.184,34.104,927.844513
18 Mar 2024 11:09:38,31.042,32.697,955.305527
18 Mar 2024 11:10:38,54.207,25.162,1141.43103
18 Mar 2024 11:11:38,67.736,17.486,1424.864335
18 Mar 2024 11:12:38,75.861,11.306,1758.411393
18 Mar 2024 11:13:19,79.666,7.857,1999.990503
18 Mar 2024 12:45:19,296,7.884,1999.979865
18 Mar 2024 12:46:18,295.924,13.753,1613.301815
18 Mar 2024 12:47:18,295.667,22.267,1234.507724
18 Mar 2024 12:48:18,294.908,36.365,886.074638
18 Mar 2024 12:49:18,291.36,63.065,623.736271
18 Mar 2024 12:50:18,128.783,74.517,580.837416
18 Mar 2024 12:51:18,120.685,42.502,793.949917
18 Mar 2024 12:52:18,119.57,25.587,1125.571034
18 Mar 2024 12:53:18,119.196,15.845,1498.200948
18 Mar 2024 12:54:18,119.049,9.32,1886.710856
18 Mar 2024 12:54:35,119.028,7.785,1999.985416
18 Mar 2024 14:26:51,268.015,7.835,1999.986705
18 Mar 2024 14:27:51,257.923,11.519,1741.837207
18 Mar 2024 14:28:51,244.409,14.838,1549.711477
18 Mar 2024 14:29:51,227.715,16.767,1452.823066
18 Mar 2024 14:30:51,209.949,16.373,1470.425706
18 Mar 2024 14:31:51,194.089,13.865,1598.592462
18 Mar 2024 14:32:51,181.632,10.323,1813.530499
18 Mar 2024 14:33:33,174.879,7.725,1999.998648
19 Mar 2024 5:58:57,207.48,7.719,1999.976727
19 Mar 2024 5:59:57,200.833,12.83,1656.12491
19 Mar 2024 6:00:57,190.418,19.036,1350.262068
19 Mar 2024 6:01:57,173.453,25.831,1115.98162
19 Mar 2024 6:02:57,148.037,30.144,1005.868881
19 Mar 2024 6:03:57,120.605,27.959,1059.863144
19 Mar 2024 6:04:57,100.598,21.55,1256.85692
19 Mar 2024 6:05:57,88.239,15.011,1542.468645
19 Mar 2024 6:06:57,80.522,9.533,1875.850371
19 Mar 2024 6:07:18,78.499,7.849,1999.990059
19 Mar 2024 7:39:02,256.166,7.797,1999.991024
19 Mar 2024 7:40:02,258.801,13.57,1618.842578
19 Mar 2024 7:41:02,263.236,21.732,1250.604474
19 Mar 2024 7:42:02,272.305,34.404,919.783162
19 Mar 2024 7:43:02,298.586,53.344,685.05327
19 Mar 2024 7:44:02,6.736,56.885,659.734581
19 Mar 2024 7:45:02,40.704,37.807,862.47593
19 Mar 2024 7:46:02,51.573,23.886,1180.604196
19 Mar 2024 7:47:02,56.611,15.052,1543.535056
19 Mar 2024 7:48:02,59.542,8.886,1925.082891
19 Mar 2024 7:48:14,59.977,7.885,1999.990009
19 Mar 2024 9:20:34,289.922,7.865,1999.990561
19 Mar 2024 9:21:33,296.597,12.873,1663.161657
19 Mar 2024 9:22:33,306.978,19.038,1357.958411
19 Mar 2024 9:23:33,323.705,25.873,1120.906697
19 Mar 2024 9:24:33,348.923,30.499,1002.725873
19 Mar 2024 9:25:33,16.862,28.722,1045.010807
19 Mar 2024 9:26:33,37.742,22.394,1231.184948
19 Mar 2024 9:27:33,50.814,15.756,1508.342208
19 Mar 2024 9:28:33,59.077,10.171,1834.9212
19 Mar 2024 9:29:01,61.964,7.886,1999.989927
19 Mar 2024 11:01:41,301.818,7.889,1999.990297
19 Mar 2024 11:02:40,306.925,13.268,1641.499609
19 Mar 2024 11:03:40,315.213,20.387,1304.522944
19 Mar 2024 11:04:40,330.093,29.656,1022.207228
19 Mar 2024 11:05:40,358.001,38.498,852.367599
19 Mar 2024 11:06:40,35.336,37.687,864.851219
19 Mar 2024 11:07:40,61.277,28.356,1053.197774
19 Mar 2024 11:08:40,75.003,19.328,1344.992422
19 Mar 2024 11:09:40,82.747,12.454,1686.62475
19 Mar 2024 11:10:32,87.049,7.845,1999.973458
19 Mar 2024 12:42:20,292.217,7.877,1999.979347
19 Mar 2024 12:43:20,290.088,13.691,1616.258699
19 Mar 2024 12:44:20,286.29,21.95,1245.134316
19 Mar 2024 12:45:20,278.104,34.94,910.68504
19 Mar 2024 12:46:20,252.524,54.994,672.38277
19 Mar 2024 12:47:20,179.396,58.533,648.155934
19 Mar 2024 12:48:20,146.325,38.048,856.44611
19 Mar 2024 12:49:20,136.57,23.795,1179.431362
19 Mar 2024 12:50:20,132.252,14.883,1546.031184
19 Mar 2024 12:51:20,129.862,8.694,1930.557122
19 Mar 2024 12:51:31,129.546,7.769,1999.97813
19 Mar 2024 14:24:44,253.888,7.809,1999.985431
19 Mar 2024 14:25:44,241.918,9.944,1843.474267
19 Mar 2024 14:26:44,228.16,11.03,1769.813925
19 Mar 2024 14:27:44,213.946,10.696,1790.322006
19 Mar 2024 14:28:44,200.828,9.058,1901.776982
19 Mar 2024 14:29:18,194.269,7.73,1999.986607
20 Mar 2024 5:55:35,219.651,7.73,1999.998664
20 Mar 2024 5:56:34,215.4,13.237,1633.25909
20 Mar 2024 5:57:34,208.196,20.718,1284.260615
20 Mar 2024 5:58:34,194.449,30.996,986.254381
20 Mar 2024 5:59:34,165.659,41.905,800.223546
20 Mar 2024 6:00:34,123.459,41.331,808.48279
20 Mar 2024 6:01:34,96.129,30.208,1006.244665
20 Mar 2024 6:02:34,83.106,20.17,1309.817276
20 Mar 2024 6:03:34,76.228,12.876,1661.380077
20 Mar 2024 6:04:28,72.418,7.858,1999.981216
20 Mar 2024 7:36:11,265.064,7.812,2000.000073
20 Mar 2024 7:37:11,269.136,13.454,1626.355758
20 Mar 2024 7:38:11,275.853,21.128,1273.311583
20 Mar 2024 7:39:11,288.75,32.045,967.019959
20 Mar 2024 7:40:11,317.641,44.773,767.455403
20 Mar 2024 7:41:11,4.696,45.08,764.276576
20 Mar 2024 7:42:11,34.293,32.473,959.380275
20 Mar 2024 7:43:11,47.494,21.465,1263.502692
20 Mar 2024 7:44:11,54.342,13.722,1615.38646
20 Mar 2024 7:45:11,58.497,8.032,1988.840132
20 Mar 2024 7:45:13,58.595,7.886,1999.982641
20 Mar 2024 9:17:44,294.628,7.872,1999.999904
20 Mar 2024 9:18:44,301.508,12.892,1662.447144
20 Mar 2024 9:19:44,312.088,18.976,1360.77837
20 Mar 2024 9:20:44,328.975,25.608,1128.684222
20 Mar 2024 9:21:44,353.994,29.917,1016.153303
20 Mar 2024 9:22:44,21.301,28.035,1062.331698
20 Mar 2024 9:23:44,41.74,21.865,1249.596108
20 Mar 2024 9:24:44,54.664,15.393,1526.343492
20 Mar 2024 9:25:44,62.903,9.913,1852.107161
20 Mar 2024 9:26:10,65.527,7.88,1999.991441
20 Mar 2024 10:58:41,301.371,7.888,1999.983995
20 Mar 2024 10:59:40,305.362,13.461,1630.308795
20 Mar 2024 11:00:40,311.977,21.119,1276.575923
20 Mar 2024 11:01:40,324.663,32.045,968.654965
20 Mar 2024 11:02:40,353.28,44.972,765.912687
20 Mar 2024 11:03:40,40.845,45.56,759.00903
20 Mar 2024 11:04:40,70.891,32.792,952.284503
20 Mar 2024 11:05:40,84.156,21.626,1256.063397
20 Mar 2024 11:06:40,90.986,13.799,1608.151384
20 Mar 2024 11:07:40,95.104,8.065,1982.022578
20 Mar 2024 11:07:43,95.259,7.83,1999.989595
20 Mar 2024 12:39:25,287.377,7.869,1999.990379
20 Mar 2024 12:40:25,283.025,13.419,1630.901508
20 Mar 2024 12:41:25,275.668,20.88,1283.474455
20 Mar 2024 12:42:25,261.649,31.045,988.18634
20 Mar 2024 12:43:25,232.694,41.55,806.258765
20 Mar 2024 12:44:25,191.288,40.643,818.024415
20 Mar 2024 12:45:25,164.478,29.702,1016.716462
20 Mar 2024 12:46:25,151.514,19.83,1319.927041
20 Mar 2024 12:47:25,144.588,12.618,1670.869319
20 Mar 2024 12:48:18,140.794,7.754,1999.975871
21 Mar 2024 4:14:32,166.652,7.701,1999.989677
21 Mar 2024 4:15:31,154.822,9.929,1839.043941
21 Mar 2024 4:16:31,141.048,11.156,1758.954843
21 Mar 2024 4:17:31,126.7,10.953,1773.397918
21 Mar 2024 4:18:31,113.381,9.397,1880.238261
21 Mar 2024 4:19:12,105.389,7.787,1999.997097
21 Mar 2024 5:52:22,230.865,7.743,1999.991313
21 Mar 2024 5:53:22,228.785,13.556,1616.051292
21 Mar 2024 5:54:22,225.102,21.831,1244.180037
21 Mar 2024 5:55:22,217.182,34.898,908.540473
21 Mar 2024 5:56:22,192.121,55.359,668.444756
21 Mar 2024 5:57:22,117.122,59.311,643.083546
21 Mar 2024 5:58:22,83.901,38.386,851.909216
21 Mar 2024 5:59:22,74.374,23.989,1175.642369
21 Mar 2024 6:00:22,70.208,15.034,1542.759772
21 Mar 2024 6:01:22,67.931,8.829,1927.621759
21 Mar 2024 6:01:33,67.621,7.865,1999.99013
21 Mar 2024 7:33:22,273.242,7.825,1999.98261
21 Mar 2024 7:34:22,278.422,13.252,1638.70028
21 Mar 2024 7:35:22,286.79,20.375,1302.422865
21 Mar 2024 7:36:22,301.807,29.618,1021.613637
21 Mar 2024 7:37:22,329.807,38.32,854.349466
21 Mar 2024 7:38:22,6.857,37.384,869.51404
21 Mar 2024 7:39:22,32.536,28.135,1059.197339
21 Mar 2024 7:40:22,46.19,19.204,1351.266421
21 Mar 2024 7:41:22,53.932,12.39,1692.719183
21 Mar 2024 7:42:13,58.185,7.886,1999.983982
21 Mar 2024 9:14:52,298.144,7.876,2000.000043
21 Mar 2024 9:15:52,304.907,12.949,1659.294338
21 Mar 2024 9:16:52,315.333,19.13,1354.453688
21 Mar 2024 9:17:52,332.144,25.975,1118.106442
21 Mar 2024 9:18:52,357.466,30.565,1001.1877
21 Mar 2024 9:19:52,25.418,28.712,1045.065545
21 Mar 2024 9:20:52,46.227,22.342,1232.556421
21 Mar 2024 9:21:52,59.234,15.698,1510.58434
21 Mar 2024 9:22:52,67.452,10.115,1837.736495
21 Mar 2024 9:23:20,70.276,7.872,1999.997394
21 Mar 2024 10:55:40,299.952,7.885,1999.98108
21 Mar 2024 10:56:39,302.545,13.635,1620.211026
21 Mar 2024 10:57:39,306.893,21.793,1251.674485
21 Mar 2024 10:58:39,315.765,34.488,919.980222
21 Mar 2024 10:59:39,341.679,53.652,683.372766
21 Mar 2024 11:00:39,50.985,57.48,655.865677
21 Mar 2024 11:01:39,85.211,38.047,857.949969
21 Mar 2024 11:02:39,95.951,23.961,1176.289495
21 Mar 2024 11:03:39,100.888,15.059,1539.635437
21 Mar 2024 11:04:39,103.742,8.862,1921.666297
21 Mar 2024 11:04:51,104.181,7.813,1999.98101
21 Mar 2024 12:36:36,281.24,7.858,2000.000075
21 Mar 2024 12:37:35,274.627,12.877,1661.245914
21 Mar 2024 12:38:35,264.168,19.005,1356.755302
21 Mar 2024 12:39:35,247.214,25.645,1124.269221
21 Mar 2024 12:40:35,222.033,29.774,1015.62
21 Mar 2024 12:41:35,194.97,27.567,1069.617742
21 Mar 2024 12:42:35,175.123,21.252,1265.38395
21 Mar 2024 12:43:35,162.758,14.787,1549.479271
21 Mar 2024 12:44:35,154.979,9.349,1881.449969
21 Mar 2024 12:44:55,153.007,7.741,1999.990393
22 Mar 2024 4:10:18,185.746,7.695,1999.980588
22 Mar 2024 4:11:18,175.684,11.451,1738.324902
22 Mar 2024 4:12:18,162.206,14.872,1542.837176
22 Mar 2024 4:13:18,145.452,16.938,1442.174752
22 Mar 2024 4:14:18,127.503,16.655,1456.636006
22 Mar 2024 4:15:18,111.436,14.185,1583.095535
22 Mar 2024 4:16:18,98.838,10.631,1797.719648
22 Mar 2024 4:17:03,91.567,7.812,1999.991661
22 Mar 2024 5:49:18,241.354,7.758,1999.973927
22 Mar 2024 5:50:17,241.317,13.631,1612.795756
22 Mar 2024 5:51:17,241.161,22.149,1233.701688
22 Mar 2024 5:52:17,240.662,36.265,884.994164
22 Mar 2024 5:53:17,238.224,63.058,622.504338
22 Mar 2024 5:54:17,70.474,74.679,579.982855
22 Mar 2024 5:55:17,64.819,42.555,793.682465
22 Mar 2024 5:56:17,64.098,25.65,1125.582759
22 Mar 2024 5:57:17,63.902,15.919,1498.275957
22 Mar 2024 5:58:17,63.871,9.403,1886.722003
22 Mar 2024 5:58:34,63.878,7.87,1999.974566
22 Mar 2024 7:30:35,280.589,7.837,1999.992028
22 Mar 2024 7:31:34,286.561,13.049,1651.170424
22 Mar 2024 7:32:34,296.04,19.684,1330.189205
22 Mar 2024 7:33:34,312.124,27.636,1071.406255
22 Mar 2024 7:34:34,338.745,33.969,929.61644
22 Mar 2024 7:35:34,10.444,32.51,958.761336
22 Mar 2024 7:36:34,33.464,25.022,1145.735715
22 Mar 2024 7:37:34,46.944,17.403,1429.349641
22 Mar 2024 7:38:34,55.064,11.261,1762.758264
22 Mar 2024 7:39:14,58.818,7.884,1999.982246
22 Mar 2024 9:11:57,300.467,7.878,1999.99943
22 Mar 2024 9:12:57,306.823,13.065,1652.634092
22 Mar 2024 9:13:57,316.741,19.518,1338.564147
22 Mar 2024 9:14:57,333.214,26.997,1089.526143
22 Mar 2024 9:15:57,359.359,32.519,958.915592
22 Mar 2024 9:16:57,29.367,30.824,995.083507
22 Mar 2024 9:17:57,51.366,23.825,1182.736277
22 Mar 2024 9:18:57,64.626,16.638,1464.249983
22 Mar 2024 9:19:57,72.781,10.74,1795.237488
22 Mar 2024 9:20:32,76.15,7.861,1999.997283
22 Mar 2024 10:52:39,297.607,7.881,1999.981547
22 Mar 2024 10:53:38,298.523,13.754,1613.171101
22 Mar 2024 10:54:38,299.997,22.238,1235.540092
22 Mar 2024 10:55:38,303.023,36.207,888.857394
22 Mar 2024 10:56:38,314.36,62.036,629.118365
22 Mar 2024 10:57:38,84.031,72.132,587.65291
22 Mar 2024 10:58:38,106.743,42.105,799.353687
22 Mar 2024 10:59:38,110.777,25.471,1129.426679
22 Mar 2024 11:00:38,112.513,15.803,1500.947221
22 Mar 2024 11:01:38,113.522,9.305,1888.633836
22 Mar 2024 11:01:55,113.74,7.797,1999.979826
22 Mar 2024 12:33:55,273.297,7.844,1999.997015
22 Mar 2024 12:34:54,264.455,12.058,1709.155638
22 Mar 2024 12:35:54,251.725,16.436,1470.427512
22 Mar 2024 12:36:54,234.435,19.836,1321.002186
22 Mar 2024 12:37:54,214.154,20.536,1292.794992
22 Mar 2024 12:38:54,195.186,18.057,1393.212955
22 Mar 2024 12:39:54,180.516,13.881,1597.786094
22 Mar 2024 12:40:54,170.078,9.476,1871.976863
22 Mar 2024 12:41:19,166.698,7.733,1999.989189
23 Mar 2024 4:06:33,200.531,7.698,1999.995772
23 Mar 2024 4:07:33,192.675,12.43,1678.360051
23 Mar 2024 4:08:33,180.92,17.761,1403.720291
23 Mar 2024 4:09:33,163.463,22.759,1210.644529
23 Mar 2024 4:10:33,140.645,24.933,1142.252732
23 Mar 2024 4:11:33,118.053,22.541,1220.026276
23 Mar 2024 4:12:33,100.999,17.495,1419.946927
23 Mar 2024 4:13:33,89.568,12.207,1698.868484
23 Mar 2024 4:14:29,82.37,7.828,1999.990537
23 Mar 2024 5:46:19,251.211,7.773,1999.982376
23 Mar 2024 5:47:18,252.978,13.57,1617.245186
23 Mar 2024 5:48:18,255.962,21.911,1242.872228
23 Mar 2024 5:49:18,262.189,35.333,901.801774
23 Mar 2024 5:50:18,283.114,58.065,650.978427
23 Mar 2024 5:51:18,13.377,64.875,614.588567
23 Mar 2024 5:52:18,46.966,40.486,821.673247
23 Mar 2024 5:53:18,55.075,24.95,1146.641381
23 Mar 2024 5:54:18,58.635,15.598,1514.610611
23 Mar 2024 5:55:18,60.684,9.223,1899.739527
23 Mar 2024 5:55:33,61.083,7.872,1999.990421
23 Mar 2024 7:27:47,286.976,7.847,1999.990745
23 Mar 2024 7:28:46,293.479,12.907,1659.980159
23 Mar 2024 7:29:46,303.647,19.191,1350.657108
23 Mar 2024 7:30:46,320.242,26.297,1108.048788
23 Mar 2024 7:31:46,345.819,31.313,983.998163
23 Mar 2024 7:32:46,14.617,29.603,1023.055499
23 Mar 2024 7:33:46,36.003,23.018,1209.368313
23 Mar 2024 7:34:46,49.19,16.156,1488.078599
23 Mar 2024 7:35:46,57.431,10.439,1816.346642
23 Mar 2024 7:36:17,60.569,7.88,1999.989832
23 Mar 2024 9:08:59,301.639,7.879,1999.97581
23 Mar 2024 9:09:59,307.274,13.206,1644.435183
23 Mar 2024 9:10:59,316.265,20.074,1316.267164
23 Mar 2024 9:11:59,331.922,28.62,1047.097565
23 Mar 2024 9:12:59,359.254,35.974,893.453872
23 Mar 2024 9:13:59,33.278,34.696,916.146641
23 Mar 2024 9:14:59,57.483,26.431,1104.3216
23 Mar 2024 9:15:59,71.068,18.216,1391.934219
23 Mar 2024 9:16:59,79.023,11.758,1729.308459
23 Mar 2024 9:17:44,83.043,7.849,1999.999162
23 Mar 2024 10:49:38,294.336,7.875,1999.978342
23 Mar 2024 10:50:38,293.314,13.76,1612.322028
23 Mar 2024 10:51:38,291.41,22.226,1235.434243
23 Mar 2024 10:52:38,287.076,36.071,890.742815
23 Mar 2024 10:53:38,270.464,60.783,635.501703
23 Mar 2024 10:54:38,161.928,68.549,599.313049
23 Mar 2024 10:55:38,133.373,41.1,812.135887
23 Mar 2024 10:56:38,127.671,25.023,1141.876432
23 Mar 2024 10:57:38,125.355,15.537,1513.155468
23 Mar 2024 10:58:38,124.133,9.116,1900.79107
23 Mar 2024 10:58:53,123.914,7.78,1999.980892
23 Mar 2024 12:31:30,262.267,7.824,1999.981874
23 Mar 2024 12:32:30,251.268,10.863,1783.132897
23 Mar 2024 12:33:30,237.429,13.177,1640.160728
23 Mar 2024 12:34:30,221.702,13.975,1594.166044
23 Mar 2024 12:35:30,206.122,12.909,1653.342891
23 Mar 2024 12:36:30,192.616,10.428,1807.086902
23 Mar 2024 12:37:22,183.154,7.73,1999.998725
24 Mar 2024 4:03:04,213.369,7.708,1999.982178
24 Mar 2024 4:04:03,207.916,12.996,1645.598587
24 Mar 2024 4:05:03,198.973,19.855,1316.309966
