aer_data/TP_AER.csv

Time (UTCG),Azimuth (deg),Elevation (deg),Range (km)
1 Mar 2024 16:54:17.659,283.259,7.827,1999.985075
1 Mar 2024 16:55:17.000,290.122,12.795,1664.936159
1 Mar 2024 16:56:17.000,300.723,18.838,1363.760349
1 Mar 2024 16:57:17.000,317.596,25.400,1132.381173
1 Mar 2024 16:58:17.000,342.489,29.638,1020.524889
1 Mar 2024 16:59:17.000,9.609,27.775,1066.873913
1 Mar 2024 17:00:17.000,29.963,21.681,1253.819286
1 Mar 2024 17:01:17.000,42.882,15.269,1530.110721
1 Mar 2024 17:02:17.000,51.139,9.826,1855.452743
1 Mar 2024 17:02:42.052,53.721,7.845,1999.990416
1 Mar 2024 18:35:51.469,304.895,7.849,1999.983460
1 Mar 2024 18:36:51.000,312.439,12.629,1675.805870
1 Mar 2024 18:37:51.000,323.787,18.202,1391.444903
1 Mar 2024 18:38:51.000,340.994,23.784,1182.109036
1 Mar 2024 18:39:51.000,4.552,26.787,1092.817920
1 Mar 2024 18:40:51.000,28.944,24.723,1152.204446
1 Mar 2024 18:41:51.000,47.568,19.385,1340.490039
1 Mar 2024 18:42:51.000,59.945,13.694,1612.619371
1 Mar 2024 18:43:51.000,68.159,8.708,1932.732183
1 Mar 2024 18:44:02.919,69.453,7.811,1999.999840
1 Mar 2024 20:16:32.430,302.453,7.836,1999.978084
1 Mar 2024 20:17:32.000,305.008,13.605,1618.146528
1 Mar 2024 20:18:32.000,309.286,21.773,1248.942522
1 Mar 2024 20:19:32.000,318.041,34.526,916.348636
1 Mar 2024 20:20:32.000,343.903,53.929,678.843139
1 Mar 2024 20:21:32.000,54.305,57.735,651.802318
1 Mar 2024 20:22:32.000,88.370,37.997,855.568758
1 Mar 2024 20:23:32.000,98.922,23.862,1175.244551
1 Mar 2024 20:24:32.000,103.760,14.965,1539.493712
1 Mar 2024 20:25:32.000,106.553,8.777,1922.182659
1 Mar 2024 20:25:44.011,106.979,7.738,1999.976099
1 Mar 2024 21:57:34.259,279.787,7.791,1999.991106
1 Mar 2024 21:58:34.000,272.317,12.607,1672.164397
1 Mar 2024 21:59:34.000,260.925,18.169,1387.599807
1 Mar 2024 22:00:34.000,243.534,23.619,1181.991224
1 Mar 2024 22:01:34.000,219.970,26.269,1101.399845
1 Mar 2024 22:02:34.000,196.146,23.869,1172.149317
1 Mar 2024 22:03:34.000,178.307,18.467,1370.713372
1 Mar 2024 22:04:34.000,166.571,12.853,1650.961741
1 Mar 2024 22:05:34.000,158.844,7.958,1977.590719
1 Mar 2024 22:05:37.918,158.436,7.666,1999.978163
2 Mar 2024 13:30:04.958,200.676,7.720,1999.978320
2 Mar 2024 13:31:04.000,193.140,12.436,1679.272636
2 Mar 2024 13:32:04.000,181.647,17.899,1398.564910
2 Mar 2024 13:33:04.000,164.324,23.179,1197.253571
2 Mar 2024 13:34:04.000,141.163,25.701,1120.045673
2 Mar 2024 13:35:04.000,117.847,23.396,1191.688833
2 Mar 2024 13:36:04.000,100.262,18.191,1389.168080
2 Mar 2024 13:37:04.000,88.590,12.723,1667.827659
2 Mar 2024 13:38:04.000,80.867,7.913,1993.113328
2 Mar 2024 13:38:05.210,80.740,7.823,1999.995208
2 Mar 2024 15:09:56.317,252.395,7.783,1999.993163
2 Mar 2024 15:10:56.000,254.813,13.587,1616.707716
2 Mar 2024 15:11:56.000,258.884,21.809,1246.645315
2 Mar 2024 15:12:56.000,267.284,34.717,912.901797
2 Mar 2024 15:13:56.000,292.676,54.679,673.974109
2 Mar 2024 15:14:56.000,5.615,58.792,646.565272
2 Mar 2024 15:15:56.000,39.692,38.432,851.370496
2 Mar 2024 15:16:56.000,49.915,24.104,1171.875873
2 Mar 2024 15:17:56.000,54.584,15.144,1536.491720
2 Mar 2024 15:18:56.000,57.291,8.930,1919.227970
2 Mar 2024 15:19:08.472,57.721,7.850,1999.990835
2 Mar 2024 16:51:36.946,290.152,7.838,1999.983517
2 Mar 2024 16:52:36.000,297.589,12.593,1677.607809
2 Mar 2024 16:53:36.000,308.865,18.190,1391.993503
2 Mar 2024 16:54:36.000,326.010,23.830,1180.950984
2 Mar 2024 16:55:36.000,349.594,26.924,1089.670720
2 Mar 2024 16:56:36.000,14.125,24.911,1147.424487
2 Mar 2024 16:57:36.000,32.875,19.559,1334.797463
2 Mar 2024 16:58:36.000,45.320,13.837,1606.499490
2 Mar 2024 16:59:36.000,53.569,8.827,1926.377692
2 Mar 2024 16:59:49.043,54.985,7.844,1999.992596
2 Mar 2024 18:32:58.637,306.236,7.851,1999.984386
2 Mar 2024 18:33:58.000,313.159,12.800,1665.799536
2 Mar 2024 18:34:58.000,323.820,18.800,1365.844768
2 Mar 2024 18:35:58.000,340.723,25.278,1135.932479
2 Mar 2024 18:36:58.000,5.518,29.410,1025.491544
2 Mar 2024 18:37:58.000,32.429,27.522,1072.576739
2 Mar 2024 18:38:58.000,52.655,21.480,1259.534898
2 Mar 2024 18:39:58.000,65.536,15.118,1535.605522
2 Mar 2024 18:40:58.000,73.785,9.705,1860.787811
2 Mar 2024 18:41:22.143,76.279,7.801,1999.989558
2 Mar 2024 20:13:34.725,299.274,7.832,1999.984175
2 Mar 2024 20:14:34.000,299.929,13.674,1613.933444
2 Mar 2024 20:15:34.000,300.953,22.149,1235.278506
2 Mar 2024 20:16:34.000,303.005,36.153,886.959074
2 Mar 2024 20:17:34.000,310.702,62.487,624.584162
2 Mar 2024 20:18:34.000,95.786,73.635,581.183123
2 Mar 2024 20:19:34.000,112.331,42.313,793.713887
2 Mar 2024 20:20:34.000,115.077,25.484,1125.018367
2 Mar 2024 20:21:34.000,116.273,15.773,1497.473592
2 Mar 2024 20:22:34.000,116.980,9.265,1885.874793
2 Mar 2024 20:22:51.398,117.139,7.722,1999.993063
2 Mar 2024 21:55:03.448,270.408,7.775,1999.988427
2 Mar 2024 21:56:03.000,260.657,11.615,1731.342666
2 Mar 2024 21:57:03.000,247.322,15.232,1525.020009
2 Mar 2024 21:58:03.000,230.405,17.550,1412.655072
2 Mar 2024 21:59:03.000,211.933,17.426,1417.153007
2 Mar 2024 22:00:03.000,195.248,14.926,1537.384841
2 Mar 2024 22:01:03.000,182.193,11.236,1749.170802
2 Mar 2024 22:01:58.281,173.241,7.660,1999.989461
3 Mar 2024 13:26:40.273,213.710,7.731,1999.975499
3 Mar 2024 13:27:40.000,208.476,13.138,1638.848490
3 Mar 2024 13:28:40.000,199.887,20.176,1304.821784
3 Mar 2024 13:29:40.000,184.444,29.091,1029.977658
3 Mar 2024 13:30:40.000,156.515,36.896,873.687016
3 Mar 2024 13:31:40.000,121.455,35.356,900.688621
3 Mar 2024 13:32:40.000,97.369,26.562,1097.485055
3 Mar 2024 13:33:40.000,84.352,18.121,1393.397108
3 Mar 2024 13:34:40.000,76.953,11.594,1737.716537
3 Mar 2024 13:35:23.008,73.452,7.835,1999.999148
3 Mar 2024 15:07:08.447,262.026,7.799,1999.983246
3 Mar 2024 15:08:08.000,266.082,13.397,1628.524323
3 Mar 2024 15:09:08.000,272.800,21.043,1275.400912
3 Mar 2024 15:10:08.000,285.682,31.906,968.927103
3 Mar 2024 15:11:08.000,314.449,44.571,768.865851
3 Mar 2024 15:12:08.000,1.298,44.948,764.770334
3 Mar 2024 15:13:08.000,30.947,32.422,959.098799
3 Mar 2024 15:14:08.000,44.211,21.435,1262.823269
3 Mar 2024 15:15:08.000,51.095,13.699,1614.527400
3 Mar 2024 15:16:08.000,55.270,8.012,1987.905441
3 Mar 2024 15:16:09.908,55.376,7.854,1999.989542
3 Mar 2024 16:48:54.644,295.930,7.847,1999.983496
3 Mar 2024 16:49:54.000,303.756,12.512,1682.974364
3 Mar 2024 16:50:54.000,315.416,17.851,1407.260184
3 Mar 2024 16:51:54.000,332.687,22.984,1208.938170
3 Mar 2024 16:52:54.000,355.561,25.488,1130.403304
3 Mar 2024 16:53:54.000,18.771,23.378,1195.781781
3 Mar 2024 16:54:54.000,36.634,18.365,1384.618033
3 Mar 2024 16:55:54.000,48.747,12.988,1654.611864
3 Mar 2024 16:56:54.000,56.929,8.210,1971.915837
3 Mar 2024 16:56:59.039,57.490,7.841,1999.997649
3 Mar 2024 18:30:02.923,306.424,7.852,1999.982682
3 Mar 2024 18:31:02.000,312.434,13.005,1653.777689
3 Mar 2024 18:32:02.000,321.980,19.575,1333.822196
3 Mar 2024 18:33:02.000,338.093,27.401,1076.249447
3 Mar 2024 18:34:02.000,4.548,33.566,935.516171
3 Mar 2024 18:35:02.000,35.893,32.093,964.845826
3 Mar 2024 18:36:02.000,58.759,24.719,1151.273352
3 Mar 2024 18:37:02.000,72.232,17.185,1434.330428
3 Mar 2024 18:38:02.000,80.371,11.087,1767.442952
3 Mar 2024 18:38:41.216,84.072,7.788,1999.991227
3 Mar 2024 20:10:38.775,295.179,7.827,1999.978556
3 Mar 2024 20:11:38.000,293.712,13.631,1615.910704
3 Mar 2024 20:12:38.000,291.034,21.989,1240.429651
3 Mar 2024 20:13:38.000,285.097,35.477,898.319124
3 Mar 2024 20:14:38.000,264.174,58.399,647.310588
3 Mar 2024 20:15:38.000,173.094,64.614,613.453458
3 Mar 2024 20:16:38.000,140.722,40.028,824.083751
3 Mar 2024 20:17:38.000,133.095,24.569,1151.615868
3 Mar 2024 20:18:38.000,129.894,15.274,1521.556589
3 Mar 2024 20:19:38.000,128.166,8.933,1908.403841
3 Mar 2024 20:19:52.007,127.874,7.706,1999.975465
3 Mar 2024 21:52:56.531,256.622,7.750,1999.987347
3 Mar 2024 21:53:56.000,244.900,10.098,1828.444319
3 Mar 2024 21:54:56.000,231.076,11.471,1737.190897
3 Mar 2024 21:55:56.000,216.476,11.386,1741.290516
3 Mar 2024 21:56:56.000,202.788,9.871,1839.986600
3 Mar 2024 21:57:50.562,192.120,7.664,1999.991303
4 Mar 2024 11:46:39.308,150.707,7.727,1999.993207
4 Mar 2024 11:47:39.000,138.185,8.651,1931.648048
4 Mar 2024 11:48:39.000,125.233,8.438,1948.586777
4 Mar 2024 11:49:15.248,117.735,7.769,1999.993163
4 Mar 2024 13:23:27.081,225.601,7.745,1999.982692
4 Mar 2024 13:24:27.000,222.740,13.533,1617.367864
4 Mar 2024 13:25:27.000,217.782,21.616,1251.723988
4 Mar 2024 13:26:27.000,207.483,33.906,926.801631
4 Mar 2024 13:27:27.000,179.304,50.881,703.648679
4 Mar 2024 13:28:27.000,119.242,52.495,690.456189
4 Mar 2024 13:29:27.000,87.460,35.643,896.580356
4 Mar 2024 13:30:27.000,76.154,22.775,1214.585251
4 Mar 2024 13:31:27.000,70.871,14.357,1577.397180
4 Mar 2024 13:32:27.000,67.890,8.381,1959.280500
4 Mar 2024 13:32:33.297,67.652,7.845,1999.977827
4 Mar 2024 15:04:24.264,271.036,7.815,1999.976980
4 Mar 2024 15:05:24.000,276.463,13.190,1641.359476
4 Mar 2024 15:06:24.000,285.181,20.173,1309.348161
4 Mar 2024 15:07:24.000,300.582,29.025,1034.921732
4 Mar 2024 15:08:24.000,328.244,36.945,875.462233
4 Mar 2024 15:09:24.000,3.531,35.792,895.295790
4 Mar 2024 15:10:24.000,28.342,27.120,1084.508775
4 Mar 2024 15:11:24.000,41.955,18.614,1374.292115
4 Mar 2024 15:12:24.000,49.821,12.014,1713.548036
4 Mar 2024 15:13:11.478,53.952,7.856,1999.989602
4 Mar 2024 16:46:09.607,300.472,7.854,1999.998652
4 Mar 2024 16:47:09.000,308.381,12.493,1684.459261
4 Mar 2024 16:48:09.000,320.122,17.772,1411.024978
4 Mar 2024 16:49:09.000,337.409,22.792,1215.548321
4 Mar 2024 16:50:09.000,0.120,25.173,1139.770966
4 Mar 2024 16:51:09.000,23.049,23.046,1206.749734
4 Mar 2024 16:52:09.000,40.724,18.103,1395.875667
4 Mar 2024 16:53:09.000,52.764,12.798,1665.497407
4 Mar 2024 16:54:09.000,60.928,8.069,1982.257125
4 Mar 2024 16:54:12.193,61.285,7.836,1999.999819
4 Mar 2024 18:27:05.128,305.565,7.851,1999.999825
4 Mar 2024 18:28:05.000,310.493,13.334,1634.757958
4 Mar 2024 18:29:05.000,318.474,20.589,1293.845234
4 Mar 2024 18:30:05.000,333.048,30.239,1005.975669
4 Mar 2024 18:31:05.000,1.429,39.829,830.048927
4 Mar 2024 18:32:05.000,40.639,39.092,840.474504
4 Mar 2024 18:33:05.000,67.252,29.092,1031.647432
4 Mar 2024 18:34:05.000,80.854,19.665,1327.187357
4 Mar 2024 18:35:05.000,88.389,12.619,1671.892808
4 Mar 2024 18:35:58.582,92.673,7.774,1999.971713
4 Mar 2024 20:07:46.102,290.066,7.820,1999.977490
4 Mar 2024 20:08:46.000,286.246,13.476,1624.018427
4 Mar 2024 20:09:46.000,279.723,21.183,1268.897233
4 Mar 2024 20:10:46.000,266.843,32.157,961.525498
4 Mar 2024 20:11:46.000,237.533,44.780,763.809920
4 Mar 2024 20:12:46.000,190.680,44.466,766.835166
4 Mar 2024 20:13:46.000,162.056,31.712,968.693597
4 Mar 2024 20:14:46.000,149.446,20.822,1277.882054
4 Mar 2024 20:15:46.000,143.007,13.180,1633.741059
4 Mar 2024 20:16:44.333,139.279,7.692,1999.989932
5 Mar 2024 11:41:51.524,176.582,7.714,1999.984063
5 Mar 2024 11:42:51.000,165.629,10.797,1781.530582
5 Mar 2024 11:43:51.000,151.808,13.188,1636.042210
5 Mar 2024 11:44:51.000,136.038,14.080,1587.243371
5 Mar 2024 11:45:51.000,120.354,13.087,1644.059648
5 Mar 2024 11:46:51.000,106.735,10.640,1796.386272
5 Mar 2024 11:47:45.695,96.767,7.804,1999.984272
5 Mar 2024 13:20:22.849,236.707,7.761,1999.991757
5 Mar 2024 13:21:22.000,236.121,13.600,1614.613542
5 Mar 2024 13:22:22.000,235.008,22.079,1236.083980
5 Mar 2024 13:23:22.000,232.431,36.057,888.408994
5 Mar 2024 13:24:22.000,221.978,62.016,627.632950
5 Mar 2024 13:25:22.000,90.285,72.406,585.966511
5 Mar 2024 13:26:22.000,68.679,42.142,798.565444
5 Mar 2024 13:27:22.000,65.136,25.492,1129.496944
5 Mar 2024 13:28:22.000,63.778,15.831,1501.659192
5 Mar 2024 13:29:22.000,63.109,9.341,1889.835069
5 Mar 2024 13:29:38.803,62.985,7.852,1999.981814
5 Mar 2024 15:01:42.280,279.315,7.829,2000.000010
5 Mar 2024 15:02:42.000,285.800,12.953,1655.976447
5 Mar 2024 15:03:42.000,295.908,19.294,1345.181748
5 Mar 2024 15:04:42.000,312.509,26.514,1100.864864
5 Mar 2024 15:05:42.000,338.308,31.657,975.508332
5 Mar 2024 15:06:42.000,7.455,29.912,1014.662747
5 Mar 2024 15:07:42.000,28.973,23.195,1202.190226
5 Mar 2024 15:08:42.000,42.146,16.245,1482.252083
5 Mar 2024 15:09:42.000,50.342,10.485,1811.622536
5 Mar 2024 15:10:14.195,53.521,7.858,1999.997808
5 Mar 2024 16:43:21.169,303.722,7.859,1999.984899
5 Mar 2024 16:44:21.000,311.514,12.600,1678.360494
5 Mar 2024 16:45:21.000,323.099,18.025,1399.960565
5 Mar 2024 16:46:21.000,340.394,23.308,1198.359146
5 Mar 2024 16:47:21.000,3.538,25.954,1116.905096
5 Mar 2024 16:48:21.000,27.137,23.828,1181.058304
5 Mar 2024 16:49:21.000,45.223,18.691,1370.334414
5 Mar 2024 16:50:21.000,57.397,13.205,1641.473621
5 Mar 2024 16:51:21.000,65.570,8.357,1960.022127
5 Mar 2024 16:51:28.135,66.356,7.829,1999.978585
5 Mar 2024 18:24:06.216,303.748,7.850,1999.990731
5 Mar 2024 18:25:06.000,307.191,13.551,1622.239985
5 Mar 2024 18:26:06.000,312.909,21.452,1261.464728
5 Mar 2024 18:27:06.000,324.227,33.196,942.634779
5 Mar 2024 18:28:06.000,352.646,48.596,725.478357
5 Mar 2024 18:29:06.000,47.654,50.053,711.406559
5 Mar 2024 18:30:06.000,79.494,34.834,909.999993
5 Mar 2024 18:31:06.000,91.922,22.507,1221.144808
5 Mar 2024 18:32:06.000,98.026,14.246,1578.903397
5 Mar 2024 18:33:06.000,101.635,8.326,1956.926107
5 Mar 2024 18:33:12.722,101.951,7.758,1999.990026
5 Mar 2024 20:04:58.804,283.703,7.810,1999.984317
5 Mar 2024 20:05:58.000,277.550,12.930,1654.551395
5 Mar 2024 20:06:58.000,267.657,19.342,1339.542300
5 Mar 2024 20:07:58.000,251.072,26.663,1092.451078
5 Mar 2024 20:08:58.000,224.983,31.780,968.007469
5 Mar 2024 20:09:58.000,195.750,29.727,1012.937306
5 Mar 2024 20:10:58.000,174.643,22.774,1208.300562
5 Mar 2024 20:11:58.000,161.975,15.761,1495.676739
5 Mar 2024 20:12:58.000,154.229,10.005,1831.399842
5 Mar 2024 20:13:26.396,151.584,7.680,1999.977565
6 Mar 2024 11:37:57.541,193.261,7.716,1999.983097
6 Mar 2024 11:38:57.000,184.457,12.014,1704.588498
6 Mar 2024 11:39:57.000,171.805,16.512,1462.085565
6 Mar 2024 11:40:57.000,154.472,20.100,1308.008076
6 Mar 2024 11:41:57.000,133.924,20.974,1275.583268
6 Mar 2024 11:42:57.000,114.600,18.537,1373.654959
6 Mar 2024 11:43:57.000,99.691,14.308,1577.820081
6 Mar 2024 11:44:57.000,89.154,9.835,1852.755345
6 Mar 2024 11:45:25.544,85.319,7.823,1999.998706
6 Mar 2024 13:17:25.851,247.193,7.778,1999.972077
6 Mar 2024 13:18:25.000,248.633,13.588,1616.398169
6 Mar 2024 13:19:25.000,251.060,21.982,1240.403988
6 Mar 2024 13:20:25.000,256.144,35.622,896.598443
6 Mar 2024 13:21:25.000,274.085,59.617,641.387136
6 Mar 2024 13:22:25.000,15.992,67.796,602.082123
6 Mar 2024 13:23:25.000,47.543,41.253,810.771730
6 Mar 2024 13:24:25.000,54.311,25.226,1137.836844
6 Mar 2024 13:25:25.000,57.243,15.728,1507.280620
6 Mar 2024 13:26:25.000,58.933,9.297,1893.441340
6 Mar 2024 13:26:41.325,59.282,7.858,1999.984000
6 Mar 2024 14:59:00.954,286.720,7.841,1999.987883
6 Mar 2024 15:00:00.000,293.873,12.686,1672.397101
6 Mar 2024 15:01:00.000,304.834,18.492,1379.333246
6 Mar 2024 15:02:00.000,321.858,24.556,1158.575248
6 Mar 2024 15:03:00.000,346.033,28.166,1057.443264
6 Mar 2024 15:04:00.000,11.716,26.229,1109.504686
6 Mar 2024 15:05:00.000,31.207,20.559,1296.232746
6 Mar 2024 15:06:00.000,43.894,14.529,1569.725021
6 Mar 2024 15:07:00.000,52.167,9.320,1891.922062
6 Mar 2024 15:07:18.956,54.179,7.857,1999.997823
6 Mar 2024 16:40:29.185,305.696,7.862,1999.984497
6 Mar 2024 16:41:29.000,313.028,12.750,1669.570824
6 Mar 2024 16:42:29.000,324.120,18.515,1378.760371
6 Mar 2024 16:43:29.000,341.260,24.472,1161.125722
6 Mar 2024 16:44:29.000,5.381,27.907,1063.659847
6 Mar 2024 16:45:29.000,30.780,25.878,1118.648641
6 Mar 2024 16:46:29.000,50.024,20.248,1306.845761
6 Mar 2024 16:47:29.000,62.590,14.284,1580.861697
6 Mar 2024 16:48:29.000,70.811,9.124,1903.224766
6 Mar 2024 16:48:45.987,72.616,7.820,1999.990121
6 Mar 2024 18:21:07.232,301.030,7.847,1999.978927
6 Mar 2024 18:22:07.000,302.708,13.707,1613.195467
6 Mar 2024 18:23:07.000,305.495,22.090,1238.341324
6 Mar 2024 18:24:07.000,311.311,35.657,896.399174
6 Mar 2024 18:25:07.000,331.399,59.011,644.573586
6 Mar 2024 18:26:07.000,66.670,65.834,609.044807
6 Mar 2024 18:27:07.000,98.896,40.513,818.646291
6 Mar 2024 18:28:07.000,106.356,24.833,1145.489573
6 Mar 2024 18:29:07.000,109.606,15.455,1514.737877
6 Mar 2024 18:30:07.000,111.462,9.076,1900.868989
6 Mar 2024 18:30:22.186,111.816,7.742,1999.979757
6 Mar 2024 20:02:20.273,275.605,7.797,1999.983388
6 Mar 2024 20:03:20.000,266.994,12.198,1697.058680
6 Mar 2024 20:04:20.000,254.502,16.861,1446.865428
6 Mar 2024 20:05:20.000,237.069,20.702,1284.125294
6 Mar 2024 20:06:20.000,216.004,21.759,1244.283964
6 Mar 2024 20:07:20.000,196.030,19.266,1338.433293
6 Mar 2024 20:08:20.000,180.696,14.849,1541.843762
6 Mar 2024 20:09:20.000,169.961,10.203,1817.508498
6 Mar 2024 20:09:55.038,165.280,7.672,1999.987774
7 Mar 2024 11:34:24.462,207.141,7.724,1999.991590
7 Mar 2024 11:35:24.000,200.682,12.825,1656.622701
7 Mar 2024 11:36:24.000,190.464,19.106,1347.422652
7 Mar 2024 11:37:24.000,173.662,26.100,1108.260160
7 Mar 2024 11:38:24.000,148.038,30.729,992.435755
7 Mar 2024 11:39:24.000,119.963,28.636,1042.446779
7 Mar 2024 11:40:24.000,99.524,22.059,1238.246713
7 Mar 2024 11:41:24.000,87.024,15.354,1524.126199
7 Mar 2024 11:42:24.000,79.284,9.773,1858.174118
7 Mar 2024 11:42:48.035,77.005,7.837,1999.974484
7 Mar 2024 13:14:34.643,257.114,7.794,1999.982437
7 Mar 2024 13:15:34.000,260.341,13.480,1623.562639
7 Mar 2024 13:16:34.000,265.761,21.436,1260.842393
7 Mar 2024 13:17:34.000,276.578,33.375,939.004797
7 Mar 2024 13:18:34.000,304.537,49.516,717.362117
7 Mar 2024 13:19:34.000,1.850,51.525,699.757991
7 Mar 2024 13:20:34.000,34.411,35.625,898.251957
7 Mar 2024 13:21:34.000,46.654,22.946,1210.305795
7 Mar 2024 13:22:34.000,52.594,14.546,1568.739393
7 Mar 2024 13:23:34.000,56.102,8.563,1947.098241
7 Mar 2024 13:23:42.249,56.477,7.862,1999.979558
7 Mar 2024 14:56:18.761,293.089,7.851,1999.984770
7 Mar 2024 14:57:18.000,300.753,12.557,1680.647307
7 Mar 2024 14:58:18.000,312.255,18.008,1400.769032
7 Mar 2024 14:59:18.000,329.480,23.355,1197.119625
7 Mar 2024 15:00:18.000,352.653,26.100,1113.272222
7 Mar 2024 15:01:18.000,16.403,24.029,1175.449197
7 Mar 2024 15:02:18.000,34.632,18.877,1363.603781
7 Mar 2024 15:03:18.000,46.885,13.359,1634.228091
7 Mar 2024 15:04:18.000,55.098,8.484,1952.534266
7 Mar 2024 15:04:26.470,56.031,7.856,1999.983691
7 Mar 2024 16:37:33.997,306.466,7.863,1999.998377
7 Mar 2024 16:38:33.000,312.954,12.888,1661.511300
7 Mar 2024 16:39:33.000,323.118,19.145,1352.190816
7 Mar 2024 16:40:33.000,339.690,26.218,1109.389816
7 Mar 2024 16:41:33.000,5.212,31.210,984.890353
7 Mar 2024 16:42:33.000,33.969,29.508,1023.388403
7 Mar 2024 16:43:33.000,55.355,22.936,1209.340438
7 Mar 2024 16:44:33.000,68.550,16.079,1487.974693
7 Mar 2024 16:45:33.000,76.792,10.365,1816.382045
7 Mar 2024 16:46:04.449,79.925,7.808,1999.997222
7 Mar 2024 18:18:09.333,297.417,7.843,1999.974635
7 Mar 2024 18:19:09.000,297.071,13.737,1611.136986
7 Mar 2024 18:20:09.000,296.345,22.248,1232.386029
7 Mar 2024 18:21:09.000,294.558,36.335,884.295064
7 Mar 2024 18:22:09.000,286.917,62.827,623.152248
7 Mar 2024 18:23:09.000,142.080,73.219,582.582675
7 Mar 2024 18:24:09.000,126.198,42.069,797.167076
7 Mar 2024 18:25:09.000,123.724,25.348,1129.352108
7 Mar 2024 18:26:09.000,122.786,15.684,1502.279094
7 Mar 2024 18:27:09.000,122.327,9.197,1891.007094
7 Mar 2024 18:27:25.604,122.242,7.726,1999.981156
7 Mar 2024 19:59:57.536,264.583,7.777,1999.993726
7 Mar 2024 20:00:57.000,253.829,10.984,1771.674315
7 Mar 2024 20:01:57.000,240.046,13.560,1614.792463
7 Mar 2024 20:02:57.000,224.036,14.639,1554.744310
7 Mar 2024 20:03:57.000,207.888,13.734,1602.590592
7 Mar 2024 20:04:57.000,193.787,11.252,1749.237502
7 Mar 2024 20:05:57.000,182.608,8.035,1972.195136
7 Mar 2024 20:06:03.518,181.564,7.671,1999.979017
8 Mar 2024 11:31:04.865,219.554,7.736,1999.985689
8 Mar 2024 11:32:04.000,215.530,13.284,1630.909858
8 Mar 2024 11:33:04.000,208.679,20.870,1278.711938
8 Mar 2024 11:34:04.000,195.421,31.488,975.573056
8 Mar 2024 11:35:04.000,166.515,43.284,782.637645
8 Mar 2024 11:36:04.000,122.072,43.004,786.648044
8 Mar 2024 11:37:04.000,93.901,31.132,985.205456
8 Mar 2024 11:38:04.000,80.989,20.647,1290.974273
8 Mar 2024 11:39:04.000,74.303,13.156,1644.405006
8 Mar 2024 11:40:00.906,70.500,7.847,1999.970218
8 Mar 2024 13:11:47.850,266.450,7.810,1999.988564
8 Mar 2024 13:12:47.000,271.154,13.254,1637.451623
8 Mar 2024 13:13:47.000,278.881,20.568,1293.998593
8 Mar 2024 13:14:47.000,293.103,30.411,1002.278100
8 Mar 2024 13:15:47.000,321.411,40.524,821.035436
8 Mar 2024 13:16:47.000,1.706,40.110,827.158374
8 Mar 2024 13:17:47.000,28.981,29.808,1017.183248
8 Mar 2024 13:18:47.000,42.670,20.125,1313.021847
8 Mar 2024 13:19:47.000,50.176,12.949,1658.160817
8 Mar 2024 13:20:42.748,54.571,7.865,1999.990244
8 Mar 2024 14:53:34.379,298.280,7.859,1999.982672
8 Mar 2024 14:54:34.000,306.218,12.522,1683.189977
8 Mar 2024 14:55:34.000,317.970,17.810,1409.836218
8 Mar 2024 14:56:34.000,335.279,22.837,1214.553194
8 Mar 2024 14:57:34.000,358.016,25.215,1139.113913
8 Mar 2024 14:58:34.000,20.955,23.074,1206.493457
8 Mar 2024 14:59:34.000,38.621,18.120,1395.944137
8 Mar 2024 15:00:34.000,50.649,12.810,1665.769123
8 Mar 2024 15:01:34.000,58.804,8.079,1982.635071
8 Mar 2024 15:01:37.124,59.153,7.852,1999.997769
8 Mar 2024 16:34:36.297,306.136,7.863,1999.982678
8 Mar 2024 16:35:36.000,311.695,13.201,1643.284564
8 Mar 2024 16:36:36.000,320.580,20.103,1313.514822
8 Mar 2024 16:37:36.000,336.136,28.757,1042.067460
8 Mar 2024 16:38:36.000,3.599,36.320,885.849965
8 Mar 2024 16:39:36.000,38.119,35.080,907.241057
8 Mar 2024 16:40:36.000,62.565,26.648,1095.878833
8 Mar 2024 16:41:36.000,76.157,18.315,1384.555342
8 Mar 2024 16:42:36.000,84.067,11.800,1722.957978
8 Mar 2024 16:43:22.012,88.122,7.795,1999.981874
8 Mar 2024 18:15:13.870,292.853,7.837,1999.985340
8 Mar 2024 18:16:13.000,290.301,13.552,1620.971741
8 Mar 2024 18:17:13.000,285.780,21.656,1252.836387
8 Mar 2024 18:18:13.000,276.263,34.122,923.507445
8 Mar 2024 18:19:13.000,249.077,52.101,692.949128
8 Mar 2024 18:20:13.000,185.120,54.574,673.058017
8 Mar 2024 18:21:13.000,152.392,36.545,878.326180
8 Mar 2024 18:22:13.000,141.435,23.136,1197.612924
8 Mar 2024 18:23:13.000,136.409,14.511,1561.686256
8 Mar 2024 18:24:13.000,133.580,8.445,1944.548683
8 Mar 2024 18:24:21.557,133.275,7.711,1999.987785
8 Mar 2024 19:58:17.024,245.620,7.743,1999.995228
8 Mar 2024 19:59:17.000,233.113,8.964,1907.370310
8 Mar 2024 20:00:17.000,219.887,9.034,1900.912377
8 Mar 2024 20:01:17.000,207.202,7.929,1981.431925
8 Mar 2024 20:01:25.777,205.459,7.685,1999.997255
9 Mar 2024 09:50:06.059,165.513,7.713,1999.998563
9 Mar 2024 09:51:06.000,153.528,9.907,1841.309568
9 Mar 2024 09:52:06.000,139.761,11.062,1765.613718
9 Mar 2024 09:53:06.000,125.498,10.796,1784.140175
9 Mar 2024 09:54:06.000,112.309,9.206,1894.159300
9 Mar 2024 09:54:42.549,105.254,7.790,1999.996604
9 Mar 2024 11:27:55.374,231.030,7.751,1999.991124
9 Mar 2024 11:28:55.000,229.291,13.597,1614.169584
9 Mar 2024 11:29:55.000,226.195,21.950,1240.185361
9 Mar 2024 11:30:55.000,219.440,35.332,900.812420
9 Mar 2024 11:31:55.000,196.582,57.377,654.661382
9 Mar 2024 11:32:55.000,112.282,62.532,625.210994
9 Mar 2024 11:33:55.000,79.448,39.446,835.759737
9 Mar 2024 11:34:55.000,71.062,24.415,1161.962948
9 Mar 2024 11:35:55.000,67.495,15.255,1530.783424
9 Mar 2024 11:36:55.000,65.574,8.969,1916.766327
9 Mar 2024 11:37:07.758,65.279,7.855,1999.999820
9 Mar 2024 13:09:04.038,275.119,7.825,1999.984744
9 Mar 2024 13:10:04.000,281.121,13.102,1647.166859
9 Mar 2024 13:11:04.000,290.594,19.773,1325.752413
9 Mar 2024 13:12:04.000,306.725,27.787,1066.680527
9 Mar 2024 13:13:04.000,333.525,34.163,925.196770
9 Mar 2024 13:14:04.000,5.403,32.628,955.575005
9 Mar 2024 13:15:04.000,28.414,25.048,1144.055460
9 Mar 2024 13:16:04.000,41.830,17.391,1428.831820
9 Mar 2024 13:17:04.000,49.895,11.237,1763.031061
9 Mar 2024 13:17:43.875,53.613,7.867,1999.984268
9 Mar 2024 14:50:46.876,302.200,7.864,1999.993145
9 Mar 2024 14:51:46.000,310.010,12.502,1684.669388
9 Mar 2024 14:52:46.000,321.673,17.825,1409.371246
9 Mar 2024 14:53:46.000,338.920,22.933,1211.404454
9 Mar 2024 14:54:46.000,1.735,25.422,1132.980685
9 Mar 2024 14:55:46.000,24.885,23.325,1198.119735
9 Mar 2024 14:56:46.000,42.726,18.332,1386.536965
9 Mar 2024 14:57:46.000,54.841,12.970,1656.138710
9 Mar 2024 14:58:46.000,63.029,8.198,1973.149578
9 Mar 2024 14:58:50.822,63.566,7.845,1999.998648
9 Mar 2024 16:31:36.965,304.807,7.862,1999.990454
9 Mar 2024 16:32:36.000,308.987,13.373,1633.282474
9 Mar 2024 16:33:36.000,315.912,20.919,1282.031512
9 Mar 2024 16:34:36.000,329.037,31.522,977.982267
9 Mar 2024 16:35:36.000,357.585,43.611,780.344035
9 Mar 2024 16:36:36.000,42.888,43.920,776.235180
9 Mar 2024 16:37:36.000,72.212,31.915,968.200203
9 Mar 2024 16:38:36.000,85.671,21.172,1269.795414
9 Mar 2024 16:39:36.000,92.717,13.524,1620.174365
9 Mar 2024 16:40:36.000,96.993,7.873,1992.830647
9 Mar 2024 16:40:37.129,97.058,7.780,1999.972641
9 Mar 2024 18:12:22.593,287.180,7.828,1999.979739
9 Mar 2024 18:13:22.000,282.251,13.244,1637.772351
9 Mar 2024 18:14:22.000,274.035,20.391,1299.227035
9 Mar 2024 18:15:22.000,258.985,29.641,1017.674776
9 Mar 2024 18:16:22.000,230.731,38.145,853.125945
9 Mar 2024 18:17:22.000,194.013,36.743,874.998889
9 Mar 2024 18:18:22.000,169.132,27.377,1071.837921
9 Mar 2024 18:19:22.000,156.058,18.534,1369.627316
9 Mar 2024 18:20:22.000,148.740,11.808,1715.752963
9 Mar 2024 18:21:08.369,145.067,7.698,1999.989881
10 Mar 2024 09:45:52.654,185.104,7.708,1999.977481
10 Mar 2024 09:46:52.000,175.168,11.434,1740.223159
10 Mar 2024 09:47:52.000,161.734,14.875,1543.400967
10 Mar 2024 09:48:52.000,144.998,16.976,1440.982197
10 Mar 2024 09:49:52.000,127.017,16.729,1453.580185
10 Mar 2024 09:50:52.000,110.881,14.276,1578.482875
10 Mar 2024 09:51:52.000,98.217,10.721,1792.018428
10 Mar 2024 09:52:38.389,90.720,7.815,1999.983872
10 Mar 2024 11:24:53.942,241.818,7.766,1999.991216
10 Mar 2024 11:25:53.000,242.234,13.599,1615.080129
10 Mar 2024 11:26:53.000,242.877,22.089,1236.130093
10 Mar 2024 11:27:53.000,244.135,36.131,887.429428
10 Mar 2024 11:28:53.000,248.772,62.695,624.374023
10 Mar 2024 11:29:53.000,47.433,74.657,580.023390
10 Mar 2024 11:30:53.000,57.956,42.673,792.087258
10 Mar 2024 11:31:53.000,59.673,25.724,1123.186021
10 Mar 2024 11:32:53.000,60.463,15.969,1495.429304
10 Mar 2024 11:33:53.000,60.969,9.439,1883.562210
10 Mar 2024 11:34:10.762,61.091,7.861,1999.981078
10 Mar 2024 13:06:21.684,282.993,7.838,1999.997115
10 Mar 2024 13:07:21.000,289.825,12.815,1664.699657
10 Mar 2024 13:08:21.000,300.391,18.879,1362.933241
10 Mar 2024 13:09:21.000,317.240,25.486,1130.717466
10 Mar 2024 13:10:21.000,342.182,29.787,1017.915102
10 Mar 2024 13:11:21.000,9.425,27.938,1063.625046
10 Mar 2024 13:12:21.000,29.859,21.810,1250.396272
10 Mar 2024 13:13:21.000,42.802,15.363,1526.750695
10 Mar 2024 13:14:21.000,51.061,9.897,1852.211181
10 Mar 2024 13:14:46.600,53.693,7.867,1999.997987
10 Mar 2024 14:47:55.838,304.828,7.868,2000.000034
10 Mar 2024 14:48:55.000,312.332,12.614,1678.162062
10 Mar 2024 14:49:55.000,323.668,18.175,1394.032361
10 Mar 2024 14:50:55.000,340.836,23.741,1184.796636
10 Mar 2024 14:51:55.000,4.325,26.745,1095.267999
10 Mar 2024 14:52:55.000,28.669,24.709,1154.027517
10 Mar 2024 14:53:55.000,47.292,19.397,1341.568074
10 Mar 2024 14:54:55.000,59.688,13.718,1613.060605
10 Mar 2024 14:55:55.000,67.921,8.735,1932.681347
10 Mar 2024 14:56:06.939,69.220,7.837,1999.976484
10 Mar 2024 16:28:37.006,302.553,7.859,1999.991439
10 Mar 2024 16:29:37.000,305.195,13.675,1615.950512
10 Mar 2024 16:30:37.000,309.597,21.853,1247.588082
10 Mar 2024 16:31:37.000,318.605,34.587,916.449295
10 Mar 2024 16:32:37.000,344.969,53.713,681.474196
10 Mar 2024 16:33:37.000,54.089,57.084,656.988670
10 Mar 2024 16:34:37.000,87.778,37.712,861.276029
10 Mar 2024 16:35:37.000,98.440,23.743,1180.593326
10 Mar 2024 16:36:37.000,103.362,14.904,1544.418229
10 Mar 2024 16:37:37.000,106.210,8.741,1926.742464
10 Mar 2024 16:37:48.319,106.620,7.764,1999.986754
10 Mar 2024 18:09:38.075,280.073,7.817,1999.987945
10 Mar 2024 18:10:38.000,272.662,12.680,1669.698153
10 Mar 2024 18:11:38.000,261.347,18.312,1383.129084
10 Mar 2024 18:12:38.000,243.964,23.887,1174.924312
10 Mar 2024 18:13:38.000,220.203,26.666,1091.812125
10 Mar 2024 18:14:38.000,196.068,24.262,1161.229515
10 Mar 2024 18:15:38.000,178.047,18.764,1359.730379
10 Mar 2024 18:16:38.000,166.258,13.063,1640.471618
10 Mar 2024 18:17:38.000,158.530,8.112,1967.687639
10 Mar 2024 18:17:43.639,157.947,7.688,1999.995349
11 Mar 2024 09:42:09.323,200.161,7.712,1999.981974
11 Mar 2024 09:43:09.000,192.440,12.454,1677.783715
11 Mar 2024 09:44:09.000,180.805,17.857,1400.195873
11 Mar 2024 09:45:09.000,163.395,22.999,1203.150543
11 Mar 2024 09:46:09.000,140.385,25.341,1130.588626
11 Mar 2024 09:47:09.000,117.429,22.981,1205.554966
11 Mar 2024 09:48:09.000,100.117,17.849,1404.434409
11 Mar 2024 09:49:09.000,88.572,12.470,1683.317234
11 Mar 2024 09:50:07.527,81.050,7.830,1999.999792
11 Mar 2024 11:21:59.026,252.024,7.783,1999.977617
11 Mar 2024 11:22:59.000,254.389,13.627,1614.558472
11 Mar 2024 11:23:59.000,258.360,21.885,1244.152773
11 Mar 2024 11:24:59.000,266.579,34.895,909.919430
11 Mar 2024 11:25:59.000,291.793,55.189,670.523362
11 Mar 2024 11:26:59.000,6.377,59.338,643.597259
11 Mar 2024 11:27:59.000,40.252,38.579,849.597043
11 Mar 2024 11:28:59.000,50.229,24.157,1170.931511
11 Mar 2024 11:29:59.000,54.773,15.172,1536.027189
11 Mar 2024 11:30:59.000,57.406,8.949,1919.053185
11 Mar 2024 11:31:11.489,57.825,7.866,1999.977826
11 Mar 2024 13:03:39.244,289.916,7.849,1999.983896
11 Mar 2024 13:04:39.000,297.441,12.673,1673.701996
11 Mar 2024 13:05:39.000,308.753,18.294,1388.341995
11 Mar 2024 13:06:39.000,325.970,23.954,1177.885053
11 Mar 2024 13:07:39.000,349.645,27.032,1087.673438
11 Mar 2024 13:08:39.000,14.205,24.968,1146.760924
11 Mar 2024 13:09:39.000,32.919,19.578,1335.257565
11 Mar 2024 13:10:39.000,45.319,13.841,1607.708514
11 Mar 2024 13:11:39.000,53.533,8.827,1928.046910
11 Mar 2024 13:11:51.738,54.911,7.866,1999.999842
11 Mar 2024 14:45:01.375,306.211,7.870,1999.986311
11 Mar 2024 14:46:01.000,313.199,12.838,1664.979376
11 Mar 2024 14:47:01.000,323.913,18.827,1366.047775
11 Mar 2024 14:48:01.000,340.864,25.266,1137.564526
11 Mar 2024 14:49:01.000,5.626,29.324,1028.761229
11 Mar 2024 14:50:01.000,32.394,27.403,1077.022258
11 Mar 2024 14:51:01.000,52.509,21.389,1264.373745
11 Mar 2024 14:52:01.000,65.344,15.059,1540.375772
11 Mar 2024 14:53:01.000,73.581,9.667,1865.330202
11 Mar 2024 14:53:24.382,76.000,7.827,1999.982901
11 Mar 2024 16:25:37.517,299.410,7.856,1999.971628
11 Mar 2024 16:26:37.000,300.143,13.724,1612.823433
11 Mar 2024 16:27:37.000,301.301,22.212,1234.550072
11 Mar 2024 16:28:37.000,303.646,36.230,886.856765
11 Mar 2024 16:29:37.000,312.486,62.466,625.594013
11 Mar 2024 16:30:37.000,92.871,73.160,583.352354
11 Mar 2024 16:31:37.000,111.301,42.225,795.981578
11 Mar 2024 16:32:37.000,114.426,25.467,1127.014981
11 Mar 2024 16:33:37.000,115.779,15.774,1499.208937
11 Mar 2024 16:34:37.000,116.574,9.271,1887.390235
11 Mar 2024 16:34:54.176,116.749,7.747,1999.994973
11 Mar 2024 18:07:04.932,270.807,7.801,1999.995589
11 Mar 2024 18:08:04.000,261.230,11.655,1730.753432
11 Mar 2024 18:09:04.000,247.977,15.358,1520.446494
11 Mar 2024 18:10:04.000,231.034,17.795,1403.449444
11 Mar 2024 18:11:04.000,212.382,17.765,1403.691111
11 Mar 2024 18:12:04.000,195.458,15.277,1521.028611
11 Mar 2024 18:13:04.000,182.219,11.547,1731.351842
11 Mar 2024 18:14:03.011,172.645,7.683,1999.989274
12 Mar 2024 09:38:42.429,213.233,7.722,1999.984635
12 Mar 2024 09:39:42.000,207.924,13.094,1640.837879
12 Mar 2024 09:40:42.000,199.219,20.077,1308.342732
12 Mar 2024 09:41:42.000,183.669,28.847,1035.735680
12 Mar 2024 09:42:42.000,155.921,36.394,881.996529
12 Mar 2024 09:43:42.000,121.462,34.827,910.223766
12 Mar 2024 09:44:42.000,97.633,26.242,1106.519875
12 Mar 2024 09:45:42.000,84.614,17.943,1401.450621
12 Mar 2024 09:46:42.000,77.164,11.486,1744.905717
12 Mar 2024 09:47:23.923,73.703,7.842,1999.981212
12 Mar 2024 11:19:09.235,261.665,7.799,1999.977271
12 Mar 2024 11:20:09.000,265.681,13.429,1626.753475
12 Mar 2024 11:21:09.000,272.322,21.112,1273.023189
12 Mar 2024 11:22:09.000,285.105,32.073,965.662904
12 Mar 2024 11:23:09.000,313.946,44.964,764.601892
12 Mar 2024 11:24:09.000,1.431,45.369,760.351939
12 Mar 2024 11:25:09.000,31.210,32.623,955.483031
12 Mar 2024 11:26:09.000,44.390,21.533,1260.009513
12 Mar 2024 11:27:09.000,51.202,13.756,1612.273218
12 Mar 2024 11:28:09.000,55.327,8.051,1986.029461
12 Mar 2024 11:28:11.202,55.449,7.869,1999.985107
12 Mar 2024 13:00:55.265,295.732,7.857,1999.983890
12 Mar 2024 13:01:55.000,303.609,12.559,1680.970316
12 Mar 2024 13:02:55.000,315.290,17.911,1405.475385
12 Mar 2024 13:03:55.000,332.597,23.052,1207.556262
12 Mar 2024 13:04:55.000,355.510,25.546,1129.644020
12 Mar 2024 13:05:55.000,18.726,23.412,1195.712649
12 Mar 2024 13:06:55.000,36.569,18.383,1385.086846
12 Mar 2024 13:07:55.000,48.659,12.999,1655.416178
12 Mar 2024 13:08:55.000,56.824,8.219,1972.908119
12 Mar 2024 13:08:59.860,57.364,7.863,1999.997346
12 Mar 2024 14:42:04.008,306.440,7.870,1999.982744
12 Mar 2024 14:43:04.000,312.604,13.107,1649.283953
12 Mar 2024 14:44:04.000,322.273,19.679,1330.947301
12 Mar 2024 14:45:04.000,338.560,27.456,1075.979160
12 Mar 2024 14:46:04.000,5.093,33.449,938.909399
12 Mar 2024 14:47:04.000,36.167,31.827,971.627558
12 Mar 2024 14:48:04.000,58.744,24.487,1159.799442
12 Mar 2024 14:49:04.000,72.090,17.025,1443.381693
12 Mar 2024 14:50:04.000,80.184,10.976,1776.510098
12 Mar 2024 14:50:41.728,83.750,7.814,1999.991035
12 Mar 2024 16:22:39.724,295.355,7.850,1999.978272
12 Mar 2024 16:23:39.000,293.973,13.669,1615.476370
12 Mar 2024 16:24:39.000,291.441,22.050,1239.765097
12 Mar 2024 16:25:39.000,285.805,35.610,897.171347
12 Mar 2024 16:26:39.000,265.629,58.883,645.266939
12 Mar 2024 16:27:39.000,171.619,65.428,610.685154
12 Mar 2024 16:28:39.000,139.693,40.295,821.471388
12 Mar 2024 16:29:39.000,132.405,24.695,1149.283794
12 Mar 2024 16:30:39.000,129.365,15.352,1519.392033
12 Mar 2024 16:31:39.000,127.730,8.989,1906.322850
12 Mar 2024 16:31:53.323,127.448,7.732,1999.972897
12 Mar 2024 18:04:54.832,257.294,7.777,1999.989913
12 Mar 2024 18:05:54.000,245.703,10.188,1824.349509
12 Mar 2024 18:06:54.000,231.872,11.661,1727.246150
12 Mar 2024 18:07:54.000,217.152,11.664,1725.728718
12 Mar 2024 18:08:54.000,203.274,10.194,1819.938763
12 Mar 2024 18:09:54.000,191.461,7.740,1995.940921
12 Mar 2024 18:09:55.152,191.257,7.687,1999.989479
13 Mar 2024 07:58:47.193,148.955,7.717,1999.995277
13 Mar 2024 07:59:47.000,136.388,8.492,1942.713566
13 Mar 2024 08:00:47.000,123.574,8.137,1970.700732
13 Mar 2024 08:01:07.757,119.307,7.759,1999.992109
13 Mar 2024 09:35:27.127,225.146,7.734,1999.984011
13 Mar 2024 09:36:27.000,222.194,13.507,1618.184093
13 Mar 2024 09:37:27.000,217.087,21.558,1253.376364
13 Mar 2024 09:38:27.000,206.530,33.733,929.864229
13 Mar 2024 09:39:27.000,178.169,50.285,708.795245
13 Mar 2024 09:40:27.000,119.609,51.715,696.853818
13 Mar 2024 09:41:27.000,88.043,35.315,902.412381
13 Mar 2024 09:42:27.000,76.556,22.633,1219.558075
13 Mar 2024 09:43:27.000,71.147,14.282,1581.733902
13 Mar 2024 09:44:27.000,68.082,8.335,1963.172310
13 Mar 2024 09:44:32.702,67.860,7.851,1999.983079
13 Mar 2024 11:16:23.173,270.689,7.813,1999.997233
13 Mar 2024 11:17:23.000,276.078,13.209,1640.290794
13 Mar 2024 11:18:23.000,284.735,20.223,1307.508790
13 Mar 2024 11:19:23.000,300.078,29.156,1031.978486
13 Mar 2024 11:20:23.000,327.829,37.217,871.270657
13 Mar 2024 11:21:23.000,3.438,36.088,890.517850
13 Mar 2024 11:22:23.000,28.392,27.308,1080.017747
13 Mar 2024 11:23:23.000,42.002,18.725,1370.323837
13 Mar 2024 11:24:23.000,49.840,12.087,1710.028887
13 Mar 2024 11:25:11.006,53.989,7.871,1999.989618
13 Mar 2024 12:58:08.594,300.318,7.863,1999.998651
13 Mar 2024 12:59:08.000,308.231,12.506,1684.507754
13 Mar 2024 13:00:08.000,319.975,17.787,1411.230315
13 Mar 2024 13:01:08.000,337.261,22.806,1215.929433
13 Mar 2024 13:02:08.000,359.965,25.186,1140.294478
13 Mar 2024 13:03:08.000,22.883,23.060,1207.317301
13 Mar 2024 13:04:08.000,40.552,18.119,1396.393874
13 Mar 2024 13:05:08.000,52.589,12.815,1665.922490
13 Mar 2024 13:06:08.000,60.753,8.086,1982.577691
13 Mar 2024 13:06:11.134,61.103,7.858,1999.985724
13 Mar 2024 14:39:04.530,305.620,7.869,1999.999970
13 Mar 2024 14:40:04.000,310.560,13.304,1637.818709
13 Mar 2024 14:41:04.000,318.590,20.522,1297.652102
13 Mar 2024 14:42:04.000,333.189,30.082,1010.704500
13 Mar 2024 14:43:04.000,1.392,39.525,835.467135
13 Mar 2024 14:44:04.000,40.185,38.833,845.412232
13 Mar 2024 14:45:04.000,66.726,28.997,1035.244968
13 Mar 2024 14:46:04.000,80.397,19.645,1329.580496
13 Mar 2024 14:47:04.000,87.997,12.624,1673.415366
13 Mar 2024 14:47:57.430,92.313,7.800,1999.978085
13 Mar 2024 16:19:45.137,290.290,7.843,1999.973179
13 Mar 2024 16:20:45.000,286.568,13.513,1623.617642
13 Mar 2024 16:21:45.000,280.196,21.263,1267.458788
13 Mar 2024 16:22:45.000,267.545,32.374,958.319382
13 Mar 2024 16:23:45.000,238.264,45.386,758.018471
13 Mar 2024 16:24:45.000,190.375,45.226,759.225395
13 Mar 2024 16:25:45.000,161.411,32.134,961.158772
13 Mar 2024 16:26:45.000,148.872,21.050,1270.983384
13 Mar 2024 16:27:45.000,142.520,13.324,1627.385918
13 Mar 2024 16:28:44.268,138.811,7.717,1999.989854
14 Mar 2024 07:53:52.491,175.804,7.697,1999.989667
14 Mar 2024 07:54:52.000,164.765,10.721,1785.461154
14 Mar 2024 07:55:52.000,150.929,13.021,1644.800018
14 Mar 2024 07:56:52.000,135.257,13.818,1600.866542
14 Mar 2024 07:57:52.000,119.765,12.774,1661.621902
14 Mar 2024 07:58:52.000,106.346,10.331,1816.464406
14 Mar 2024 07:59:41.568,97.344,7.797,1999.985167
14 Mar 2024 09:32:20.841,236.264,7.749,1999.991736
14 Mar 2024 09:33:20.000,235.590,13.586,1614.646111
14 Mar 2024 09:34:20.000,234.324,22.059,1236.280989
14 Mar 2024 09:35:20.000,231.415,36.007,888.938732
14 Mar 2024 09:36:20.000,219.765,61.764,628.795090
14 Mar 2024 09:37:20.000,93.042,71.800,587.699304
14 Mar 2024 09:38:20.000,69.589,42.011,800.224481
14 Mar 2024 09:39:20.000,65.612,25.444,1130.959519
14 Mar 2024 09:40:20.000,64.070,15.808,1502.985177
14 Mar 2024 09:41:20.000,63.300,9.329,1891.071780
14 Mar 2024 09:41:36.617,63.157,7.858,1999.982903
14 Mar 2024 11:13:39.376,278.991,7.827,1999.979387
14 Mar 2024 11:14:39.000,285.425,12.954,1655.934132
14 Mar 2024 11:15:39.000,295.479,19.319,1344.264600
14 Mar 2024 11:16:39.000,312.033,26.600,1098.697758
14 Mar 2024 11:17:39.000,337.889,31.840,971.892514
14 Mar 2024 11:18:39.000,7.230,30.126,1010.073412
14 Mar 2024 11:19:39.000,28.873,23.357,1197.389279
14 Mar 2024 11:20:39.000,42.081,16.356,1477.614451
14 Mar 2024 11:21:39.000,50.277,10.565,1807.225401
14 Mar 2024 11:22:11.913,53.515,7.871,1999.996107
14 Mar 2024 12:55:18.544,303.616,7.867,1999.987048
14 Mar 2024 12:56:18.000,311.363,12.575,1680.603385
14 Mar 2024 12:57:18.000,322.930,17.991,1402.292093
14 Mar 2024 12:58:18.000,340.187,23.264,1200.624549
14 Mar 2024 12:59:18.000,3.274,25.919,1118.797725
14 Mar 2024 13:00:18.000,26.841,23.820,1182.293341
14 Mar 2024 13:01:18.000,44.935,18.706,1370.879227
14 Mar 2024 13:02:18.000,57.130,13.229,1641.459271
14 Mar 2024 13:03:18.000,65.321,8.384,1959.587454
14 Mar 2024 13:03:25.220,66.118,7.850,1999.982364
14 Mar 2024 14:36:03.897,303.842,7.867,1999.990689
14 Mar 2024 14:37:03.000,307.303,13.489,1627.042188
14 Mar 2024 14:38:03.000,313.089,21.338,1266.828719
14 Mar 2024 14:39:03.000,324.478,32.948,948.621950
14 Mar 2024 14:40:03.000,352.663,48.064,731.579939
14 Mar 2024 14:41:03.000,46.674,49.672,715.797633
14 Mar 2024 14:42:03.000,78.647,34.793,911.898547
14 Mar 2024 14:43:03.000,91.301,22.544,1221.338948
14 Mar 2024 14:44:03.000,97.534,14.294,1578.055222
14 Mar 2024 14:45:03.000,101.220,8.373,1955.396411
14 Mar 2024 14:45:09.971,101.554,7.784,1999.990097
14 Mar 2024 16:16:55.810,283.991,7.833,1999.984529
14 Mar 2024 16:17:55.000,277.938,12.981,1653.302512
14 Mar 2024 16:18:55.000,268.172,19.459,1336.319733
14 Mar 2024 16:19:55.000,251.683,26.937,1086.368497
14 Mar 2024 16:20:55.000,225.409,32.288,958.663620
14 Mar 2024 16:21:55.000,195.677,30.277,1001.593372
14 Mar 2024 16:22:55.000,174.287,23.167,1196.748919
14 Mar 2024 16:23:55.000,161.561,16.021,1484.681958
14 Mar 2024 16:24:55.000,153.829,10.186,1821.054312
14 Mar 2024 16:25:25.067,151.059,7.706,1999.983683
15 Mar 2024 07:49:55.677,192.634,7.697,1999.986342
15 Mar 2024 07:50:55.000,183.759,11.943,1707.686237
15 Mar 2024 07:51:55.000,171.040,16.359,1468.365946
15 Mar 2024 07:52:55.000,153.745,19.824,1318.012743
15 Mar 2024 07:53:55.000,133.410,20.600,1288.895792
15 Mar 2024 07:54:55.000,114.360,18.168,1388.847848
15 Mar 2024 07:55:55.000,99.635,14.009,1593.500778
15 Mar 2024 07:56:55.000,89.183,9.606,1868.175593
15 Mar 2024 07:57:20.665,85.723,7.817,1999.985422
15 Mar 2024 09:29:21.832,246.760,7.765,1999.985666
15 Mar 2024 09:30:21.000,248.120,13.580,1616.023429
15 Mar 2024 09:31:21.000,250.407,21.987,1239.645985
15 Mar 2024 09:32:21.000,255.200,35.680,895.226169
15 Mar 2024 09:33:21.000,272.301,59.977,639.080848
15 Mar 2024 09:34:21.000,17.555,68.496,599.278250
15 Mar 2024 09:35:21.000,48.313,41.416,808.479618
15 Mar 2024 09:36:21.000,54.718,25.285,1136.082388
15 Mar 2024 09:37:21.000,57.488,15.759,1505.883412
15 Mar 2024 09:38:21.000,59.086,9.317,1892.284103
15 Mar 2024 09:38:37.494,59.420,7.862,1999.984294
15 Mar 2024 11:10:56.289,286.426,7.839,1999.987967
15 Mar 2024 11:11:56.000,293.649,12.753,1668.418519
15 Mar 2024 11:12:56.000,304.633,18.589,1375.290978
15 Mar 2024 11:13:56.000,321.723,24.688,1154.717858
15 Mar 2024 11:14:56.000,346.015,28.301,1054.281959
15 Mar 2024 11:15:56.000,11.773,26.313,1107.514736
15 Mar 2024 11:16:56.000,31.250,20.595,1295.403060
15 Mar 2024 11:17:56.000,43.897,14.542,1569.753672
15 Mar 2024 11:18:56.000,52.134,9.324,1892.527319
15 Mar 2024 11:19:14.827,54.125,7.870,1999.997860
15 Mar 2024 12:52:24.952,305.639,7.870,1999.985317
15 Mar 2024 12:53:24.000,312.883,12.685,1674.129027
15 Mar 2024 12:54:24.000,323.940,18.425,1383.359118
15 Mar 2024 12:55:24.000,340.999,24.358,1165.438597
15 Mar 2024 12:56:24.000,4.993,27.807,1067.056409
15 Mar 2024 12:57:24.000,30.329,25.843,1120.574490
15 Mar 2024 12:58:24.000,49.602,20.264,1307.328757
15 Mar 2024 12:59:24.000,62.219,14.320,1580.258029
15 Mar 2024 13:00:24.000,70.482,9.164,1901.859516
15 Mar 2024 13:00:41.254,72.324,7.841,1999.990257
15 Mar 2024 14:33:03.147,301.164,7.863,1999.978404
15 Mar 2024 14:34:03.000,302.926,13.732,1613.032948
15 Mar 2024 14:35:03.000,305.853,22.110,1238.763658
15 Mar 2024 14:36:03.000,311.959,35.633,897.774629
15 Mar 2024 14:37:03.000,332.799,58.662,647.459573
15 Mar 2024 14:38:03.000,65.281,65.111,612.988270
15 Mar 2024 14:39:03.000,97.899,40.337,822.138759
15 Mar 2024 14:40:03.000,105.676,24.785,1148.304382
15 Mar 2024 14:41:03.000,109.077,15.443,1517.044571
15 Mar 2024 14:42:03.000,111.021,9.075,1902.798341
15 Mar 2024 14:42:17.904,111.385,7.767,1999.982465
15 Mar 2024 16:14:15.049,275.990,7.819,1999.983133
15 Mar 2024 16:15:15.000,267.439,12.281,1693.710069
15 Mar 2024 16:16:15.000,255.016,17.030,1440.631492
15 Mar 2024 16:17:15.000,237.549,21.001,1274.455444
15 Mar 2024 16:18:15.000,216.265,22.165,1231.541101
15 Mar 2024 16:19:15.000,196.004,19.664,1324.012008
15 Mar 2024 16:20:15.000,180.487,15.168,1527.098826
15 Mar 2024 16:21:15.000,169.675,10.447,1803.123143
15 Mar 2024 16:21:52.643,164.666,7.698,1999.987563
16 Mar 2024 07:46:20.224,206.579,7.703,1999.991594
16 Mar 2024 07:47:20.000,199.984,12.798,1656.857818
16 Mar 2024 07:48:20.000,189.619,19.013,1350.156439
16 Mar 2024 07:49:20.000,172.705,25.846,1114.584880
16 Mar 2024 07:50:20.000,147.263,30.235,1002.861175
16 Mar 2024 07:51:20.000,119.687,28.088,1055.588733
16 Mar 2024 07:52:20.000,99.565,21.653,1252.035698
16 Mar 2024 07:53:20.000,87.156,15.081,1537.539750
16 Mar 2024 07:54:20.000,79.421,9.582,1870.972589
16 Mar 2024 07:54:41.927,77.322,7.830,1999.979149
16 Mar 2024 09:26:28.656,256.693,7.780,1999.990855
16 Mar 2024 09:27:28.000,259.847,13.472,1623.143286
16 Mar 2024 09:28:28.000,265.149,21.451,1259.642483
16 Mar 2024 09:29:28.000,275.764,33.479,936.558733
16 Mar 2024 09:30:28.000,303.569,49.946,713.130473
16 Mar 2024 09:31:28.000,1.999,52.138,694.433185
16 Mar 2024 09:32:28.000,34.792,35.895,893.394528
16 Mar 2024 09:33:28.000,46.906,23.067,1206.211200
16 Mar 2024 09:34:28.000,52.749,14.613,1565.228128
16 Mar 2024 09:35:28.000,56.192,8.608,1944.004878
16 Mar 2024 09:35:36.723,56.581,7.866,1999.980199
16 Mar 2024 11:08:12.401,292.834,7.848,1999.985217
16 Mar 2024 11:09:12.000,300.538,12.592,1678.516376
16 Mar 2024 11:10:12.000,312.052,18.060,1398.572903
16 Mar 2024 11:11:12.000,329.311,23.425,1194.984862
16 Mar 2024 11:12:12.000,352.541,26.174,1111.451893
16 Mar 2024 11:13:12.000,16.329,24.081,1174.175708
16 Mar 2024 11:14:12.000,34.556,18.907,1362.888972
16 Mar 2024 11:15:12.000,46.794,13.376,1633.942213
16 Mar 2024 11:16:12.000,54.991,8.496,1952.543941
16 Mar 2024 11:16:20.462,55.921,7.867,1999.983748
16 Mar 2024 12:49:28.141,306.458,7.870,1999.998434
16 Mar 2024 12:50:28.000,313.098,12.968,1657.467669
16 Mar 2024 12:51:28.000,323.377,19.221,1349.772533
16 Mar 2024 12:52:28.000,340.094,26.238,1109.522491
16 Mar 2024 12:53:28.000,5.654,31.080,988.452126
16 Mar 2024 12:54:28.000,34.176,29.265,1030.027734
16 Mar 2024 12:55:28.000,55.319,22.721,1217.612008
16 Mar 2024 12:56:28.000,68.398,15.925,1496.792978
16 Mar 2024 12:57:28.000,76.595,10.254,1825.262708
16 Mar 2024 12:57:57.958,79.583,7.829,1999.997065
16 Mar 2024 14:30:03.428,297.595,7.858,1999.973023
16 Mar 2024 14:31:03.000,297.342,13.746,1611.794739
16 Mar 2024 14:32:03.000,296.779,22.261,1233.038700
16 Mar 2024 14:33:03.000,295.352,36.357,884.829803
16 Mar 2024 14:34:03.000,289.130,62.950,623.254537
16 Mar 2024 14:35:03.000,138.300,73.743,581.854515
16 Mar 2024 14:36:03.000,124.941,42.241,795.924323
16 Mar 2024 14:37:03.000,122.935,25.444,1127.905173
16 Mar 2024 14:38:03.000,122.191,15.749,1500.713103
16 Mar 2024 14:39:03.000,121.839,9.247,1889.344963
16 Mar 2024 14:39:19.860,121.775,7.751,1999.981337
16 Mar 2024 16:11:49.595,265.152,7.800,1999.995256
16 Mar 2024 16:12:49.000,254.498,11.069,1767.959724
16 Mar 2024 16:13:49.000,240.744,13.744,1606.238348
16 Mar 2024 16:14:49.000,224.641,14.931,1541.178402
16 Mar 2024 16:15:49.000,208.288,14.089,1584.887922
16 Mar 2024 16:16:49.000,193.968,11.605,1728.888517
16 Mar 2024 16:17:49.000,182.625,8.350,1950.530076
16 Mar 2024 16:18:00.539,180.774,7.696,1999.978970
17 Mar 2024 07:42:58.417,219.024,7.714,1999.983661
17 Mar 2024 07:43:58.000,214.856,13.291,1629.017153
17 Mar 2024 07:44:58.000,207.813,20.846,1278.410286
17 Mar 2024 07:45:58.000,194.256,31.333,978.008707
17 Mar 2024 07:46:58.000,165.232,42.699,789.249638
17 Mar 2024 07:47:58.000,121.822,42.155,796.820000
17 Mar 2024 07:48:58.000,94.179,30.607,996.243526
17 Mar 2024 07:49:58.000,81.281,20.352,1301.642172
17 Mar 2024 07:50:58.000,74.534,12.971,1654.540544
17 Mar 2024 07:51:53.380,70.761,7.840,1999.982971
17 Mar 2024 09:23:39.947,266.044,7.796,1999.979654
17 Mar 2024 09:24:39.000,270.678,13.240,1637.364348
17 Mar 2024 09:25:39.000,278.307,20.579,1292.874312
17 Mar 2024 09:26:39.000,292.400,30.509,999.566008
17 Mar 2024 09:27:39.000,320.730,40.846,816.242807
17 Mar 2024 09:28:39.000,1.545,40.530,820.993197
17 Mar 2024 09:29:39.000,29.073,30.061,1011.083096
17 Mar 2024 09:30:39.000,42.761,20.265,1307.495038
17 Mar 2024 09:31:39.000,50.228,13.035,1653.179683
17 Mar 2024 09:32:35.479,54.636,7.868,1999.990228
17 Mar 2024 11:05:26.381,298.073,7.855,1999.977742
17 Mar 2024 11:06:26.000,306.007,12.521,1683.123585
17 Mar 2024 11:07:26.000,317.754,17.815,1409.673833
17 Mar 2024 11:08:26.000,335.061,22.850,1214.269171
17 Mar 2024 11:09:26.000,357.806,25.237,1138.705674
17 Mar 2024 11:10:26.000,20.758,23.100,1206.000878
17 Mar 2024 11:11:26.000,38.434,18.144,1395.415629
17 Mar 2024 11:12:26.000,50.466,12.831,1665.228683
17 Mar 2024 11:13:26.000,58.622,8.098,1982.087217
17 Mar 2024 11:13:29.220,58.982,7.863,1999.986538
17 Mar 2024 12:46:28.788,306.174,7.870,1999.982527
17 Mar 2024 12:47:28.000,311.728,13.149,1646.841838
17 Mar 2024 12:48:28.000,320.647,20.010,1317.791904
17 Mar 2024 12:49:28.000,336.197,28.577,1047.175130
17 Mar 2024 12:50:28.000,3.468,36.031,891.446641
17 Mar 2024 12:51:28.000,37.665,34.845,912.229042
17 Mar 2024 12:52:28.000,62.047,26.548,1099.546441
17 Mar 2024 12:53:28.000,75.692,18.284,1387.035145
17 Mar 2024 12:54:28.000,83.659,11.797,1724.564020
17 Mar 2024 12:55:13.832,87.734,7.815,1999.981875
17 Mar 2024 14:27:06.073,293.079,7.851,1999.983643
17 Mar 2024 14:28:06.000,290.589,13.669,1615.513904
17 Mar 2024 14:29:06.000,286.203,21.849,1246.961500
17 Mar 2024 14:30:06.000,276.893,34.513,917.099981
17 Mar 2024 14:31:06.000,249.635,52.999,686.420228
17 Mar 2024 14:32:06.000,183.615,55.331,668.334038
17 Mar 2024 14:33:06.000,151.191,36.737,876.160348
17 Mar 2024 14:34:06.000,140.601,23.195,1197.025365
17 Mar 2024 14:35:06.000,135.769,14.537,1561.952720
17 Mar 2024 14:36:06.000,133.054,8.460,1945.296836
17 Mar 2024 14:36:14.434,132.766,7.736,1999.984981
17 Mar 2024 16:10:03.578,246.919,7.768,1999.993792
17 Mar 2024 16:11:03.000,234.579,9.114,1898.567175
17 Mar 2024 16:12:03.000,221.258,9.330,1881.817071
17 Mar 2024 16:13:03.000,208.348,8.330,1953.278558
17 Mar 2024 16:13:24.993,203.948,7.708,1999.997164
18 Mar 2024 06:02:02.061,164.399,7.688,1999.990334
18 Mar 2024 06:03:02.000,152.343,9.788,1847.774157
18 Mar 2024 06:04:02.000,138.611,10.830,1779.099853
18 Mar 2024 06:05:02.000,124.507,10.471,1804.132119
18 Mar 2024 06:06:02.000,111.540,8.839,1919.215178
18 Mar 2024 06:06:30.081,106.149,7.769,1999.998780
18 Mar 2024 07:39:46.801,230.520,7.727,1999.991083
18 Mar 2024 07:40:46.000,228.694,13.516,1617.169753
18 Mar 2024 07:41:46.000,225.438,21.820,1243.532424
18 Mar 2024 07:42:46.000,218.375,35.064,904.709462
18 Mar 2024 07:43:46.000,195.039,56.608,659.125519
18 Mar 2024 07:44:46.000,113.819,61.692,629.037300
18 Mar 2024 07:45:46.000,80.414,39.248,838.052285
18 Mar 2024 07:46:46.000,71.610,24.351,1163.243052
18 Mar 2024 07:47:46.000,67.843,15.228,1531.506019
18 Mar 2024 07:48:46.000,65.807,8.954,1917.168315
18 Mar 2024 07:48:58.704,65.494,7.847,1999.999863
18 Mar 2024 09:20:54.271,274.734,7.810,1999.995348
18 Mar 2024 09:21:54.000,280.657,13.075,1647.778240
18 Mar 2024 09:22:54.000,290.046,19.769,1325.163615
18 Mar 2024 09:23:54.000,306.086,27.858,1064.315474
18 Mar 2024 09:24:54.000,332.930,34.385,920.636004
18 Mar 2024 09:25:54.000,5.107,32.917,949.436951
18 Mar 2024 09:26:54.000,28.318,25.258,1137.541776
18 Mar 2024 09:27:54.000,41.783,17.527,1422.546274
18 Mar 2024 09:28:54.000,49.848,11.330,1757.100976
18 Mar 2024 09:29:34.817,53.635,7.868,1999.983369
18 Mar 2024 11:02:37.276,302.046,7.860,1999.993207
18 Mar 2024 11:03:37.000,309.960,12.547,1681.834903
18 Mar 2024 11:04:37.000,321.677,17.869,1407.376660
18 Mar 2024 11:05:37.000,338.987,22.957,1210.711572
18 Mar 2024 11:06:37.000,1.820,25.395,1133.973345
18 Mar 2024 11:07:37.000,24.908,23.256,1200.679781
18 Mar 2024 11:08:37.000,42.667,18.260,1390.126878
18 Mar 2024 11:09:37.000,54.726,12.910,1660.271442
18 Mar 2024 11:10:37.000,62.883,8.151,1977.536205
18 Mar 2024 11:10:41.034,63.332,7.856,1999.999428
18 Mar 2024 12:43:27.764,304.890,7.867,1999.990434
18 Mar 2024 12:44:27.000,309.155,13.391,1632.728405
18 Mar 2024 12:45:27.000,316.194,20.919,1282.579834
18 Mar 2024 12:46:27.000,329.494,31.440,980.292759
18 Mar 2024 12:47:27.000,358.093,43.261,785.150237
18 Mar 2024 12:48:27.000,42.713,43.419,782.895604
18 Mar 2024 12:49:27.000,71.718,31.635,974.935155
18 Mar 2024 12:50:27.000,85.192,21.034,1275.928883
18 Mar 2024 12:51:27.000,92.289,13.449,1625.704572
18 Mar 2024 12:52:27.000,96.609,7.827,1997.862828
18 Mar 2024 12:52:27.335,96.628,7.800,1999.979290
18 Mar 2024 14:24:12.800,287.470,7.842,2000.000032
18 Mar 2024 14:25:12.000,282.672,13.261,1637.941516
18 Mar 2024 14:26:12.000,274.632,20.462,1297.553565
18 Mar 2024 14:27:12.000,259.802,29.879,1013.060599
18 Mar 2024 14:28:12.000,231.465,38.759,844.582730
18 Mar 2024 14:29:12.000,193.929,37.497,863.651162
18 Mar 2024 14:30:12.000,168.625,27.873,1060.097762
18 Mar 2024 14:31:12.000,155.516,18.833,1358.490495
18 Mar 2024 14:32:12.000,148.243,12.006,1705.297667
18 Mar 2024 14:32:59.972,144.505,7.722,1999.989992
19 Mar 2024 05:57:44.827,184.331,7.681,1999.998097
19 Mar 2024 05:58:44.000,174.328,11.337,1744.418846
19 Mar 2024 05:59:44.000,160.851,14.681,1551.837774
19 Mar 2024 06:00:44.000,144.198,16.664,1453.992570
19 Mar 2024 06:01:44.000,126.439,16.344,1470.415512
19 Mar 2024 06:02:44.000,110.553,13.899,1597.610659
19 Mar 2024 06:03:44.000,98.064,10.397,1812.049109
19 Mar 2024 06:04:26.164,91.253,7.795,1999.982446
19 Mar 2024 07:36:43.302,241.322,7.742,1999.978056
19 Mar 2024 07:37:43.000,241.646,13.647,1610.772034
19 Mar 2024 07:38:43.000,242.123,22.175,1231.802084
19 Mar 2024 07:39:43.000,243.022,36.317,883.318522
19 Mar 2024 07:40:43.000,246.268,63.163,621.396552
19 Mar 2024 07:41:43.000,52.049,74.442,580.031833
19 Mar 2024 07:42:43.000,59.011,42.432,794.518124
19 Mar 2024 07:43:43.000,60.204,25.579,1126.657247
19 Mar 2024 07:44:43.000,60.783,15.873,1499.384517
19 Mar 2024 07:45:43.000,61.174,9.369,1887.788490
19 Mar 2024 07:46:00.110,61.268,7.852,1999.980032
19 Mar 2024 09:18:10.126,282.637,7.822,1999.984599
19 Mar 2024 09:19:10.000,289.511,12.861,1661.002622
19 Mar 2024 09:20:10.000,300.077,18.960,1358.780274
19 Mar 2024 09:21:10.000,316.975,25.621,1126.205840
19 Mar 2024 09:22:10.000,342.058,29.957,1013.510862
19 Mar 2024 09:23:10.000,9.439,28.064,1060.040758
19 Mar 2024 09:24:10.000,29.897,21.872,1247.917321
19 Mar 2024 09:25:10.000,42.810,15.390,1525.208234
19 Mar 2024 09:26:10.000,51.035,9.909,1851.354773
19 Mar 2024 09:26:35.707,53.664,7.867,1999.999593
19 Mar 2024 10:59:44.653,304.731,7.863,1999.998215
19 Mar 2024 11:00:44.000,312.284,12.620,1677.626459
19 Mar 2024 11:01:44.000,323.656,18.168,1394.257683
19 Mar 2024 11:02:44.000,340.851,23.703,1186.078011
19 Mar 2024 11:03:44.000,4.308,26.661,1097.735476
19 Mar 2024 11:04:44.000,28.559,24.609,1157.370743
19 Mar 2024 11:05:44.000,47.109,19.317,1345.277692
19 Mar 2024 11:06:44.000,59.471,13.661,1616.810283
19 Mar 2024 11:07:44.000,67.692,8.696,1936.336218
19 Mar 2024 11:07:55.303,68.924,7.848,1999.999833
19 Mar 2024 12:40:26.069,302.681,7.864,1999.983833
19 Mar 2024 12:41:26.000,305.403,13.667,1616.842536
19 Mar 2024 12:42:26.000,309.940,21.821,1249.220464
19 Mar 2024 12:43:26.000,319.195,34.461,919.258637
19 Mar 2024 12:44:26.000,345.846,53.196,685.946055
19 Mar 2024 12:45:26.000,53.230,56.374,662.247232
19 Mar 2024 12:46:26.000,86.855,37.479,865.684837
19 Mar 2024 12:47:26.000,97.752,23.665,1184.033860
19 Mar 2024 12:48:26.000,102.810,14.875,1547.166047
19 Mar 2024 12:49:26.000,105.741,8.730,1928.995416
19 Mar 2024 12:49:36.982,106.152,7.783,1999.976744
19 Mar 2024 14:21:26.127,280.449,7.830,1999.991113
19 Mar 2024 14:22:26.000,273.160,12.728,1667.963346
19 Mar 2024 14:23:26.000,261.974,18.446,1378.445667
19 Mar 2024 14:24:26.000,244.639,24.193,1166.312747
19 Mar 2024 14:25:26.000,220.641,27.171,1079.168453
19 Mar 2024 14:26:26.000,196.066,24.792,1146.160814
19 Mar 2024 14:27:26.000,177.768,19.172,1344.162225
19 Mar 2024 14:28:26.000,165.883,13.355,1625.346488
19 Mar 2024 14:29:26.000,158.140,8.328,1953.241291
19 Mar 2024 14:29:34.131,157.308,7.711,1999.990163
20 Mar 2024 05:53:58.851,199.497,7.684,1999.991150
20 Mar 2024 05:54:58.000,191.745,12.339,1682.668734
20 Mar 2024 05:55:58.000,180.037,17.649,1407.677572
20 Mar 2024 05:56:58.000,162.663,22.638,1213.776173
20 Mar 2024 05:57:58.000,139.928,24.845,1143.962127
20 Mar 2024 05:58:58.000,117.340,22.511,1220.066694
20 Mar 2024 05:59:58.000,100.232,17.501,1418.604984
20 Mar 2024 06:00:58.000,88.743,12.225,1696.574696
20 Mar 2024 06:01:54.338,81.450,7.812,1999.980181
20 Mar 2024 07:33:46.363,251.541,7.758,1999.980958
20 Mar 2024 07:34:46.000,253.802,13.569,1616.189168
20 Mar 2024 07:35:46.000,257.612,21.826,1244.908855
20 Mar 2024 07:36:46.000,265.507,34.881,909.171456
20 Mar 2024 07:37:46.000,290.049,55.555,667.195766
20 Mar 2024 07:38:46.000,6.677,60.218,637.834860
20 Mar 2024 07:39:46.000,40.821,38.927,843.599838
20 Mar 2024 07:40:46.000,50.577,24.306,1165.470306
20 Mar 2024 07:41:46.000,54.986,15.252,1531.072013
20 Mar 2024 07:42:46.000,57.536,9.001,1914.496140
20 Mar 2024 07:42:59.182,57.964,7.856,1999.990829
20 Mar 2024 09:15:25.960,289.600,7.833,1999.983690
20 Mar 2024 09:16:25.000,296.992,12.602,1676.902676
20 Mar 2024 09:17:25.000,308.221,18.233,1390.180940
20 Mar 2024 09:18:25.000,325.347,23.941,1177.696858
20 Mar 2024 09:19:25.000,349.015,27.115,1084.947085
20 Mar 2024 09:20:25.000,13.712,25.119,1141.814468
20 Mar 2024 09:21:25.000,32.573,19.726,1329.017601
20 Mar 2024 09:22:25.000,45.057,13.960,1600.905404
20 Mar 2024 09:23:25.000,53.312,8.922,1921.052343
20 Mar 2024 09:23:38.965,54.824,7.865,1999.980342
20 Mar 2024 10:56:48.598,306.170,7.864,1999.983909
20 Mar 2024 10:57:48.000,313.161,12.803,1666.780881
20 Mar 2024 10:58:48.000,323.898,18.765,1368.529343
20 Mar 2024 10:59:48.000,340.840,25.155,1140.866542
20 Mar 2024 11:00:48.000,5.504,29.164,1032.739092
20 Mar 2024 11:01:48.000,32.129,27.258,1081.101401
20 Mar 2024 11:02:48.000,52.179,21.298,1268.053690
20 Mar 2024 11:03:48.000,65.010,15.009,1543.532749
20 Mar 2024 11:04:48.000,73.260,9.639,1868.019986
20 Mar 2024 11:05:10.948,75.644,7.837,1999.991384
20 Mar 2024 12:37:24.783,299.584,7.859,1999.986099
20 Mar 2024 12:38:24.000,300.410,13.697,1614.746463
20 Mar 2024 12:39:24.000,301.735,22.164,1236.680209
20 Mar 2024 12:40:24.000,304.438,36.116,889.224413
20 Mar 2024 12:41:24.000,314.560,62.072,628.007882
20 Mar 2024 12:42:24.000,88.764,72.785,584.828116
20 Mar 2024 12:43:24.000,109.927,42.257,796.168369
20 Mar 2024 12:44:24.000,113.567,25.516,1126.458570
20 Mar 2024 12:45:24.000,115.130,15.817,1498.231929
20 Mar 2024 12:46:24.000,116.041,9.308,1886.138425
20 Mar 2024 12:46:41.377,116.242,7.766,1999.994438
20 Mar 2024 14:18:50.501,271.325,7.815,1999.978005
20 Mar 2024 14:19:50.000,261.774,11.756,1725.598257
20 Mar 2024 14:20:50.000,248.561,15.557,1511.488927
20 Mar 2024 14:21:50.000,231.532,18.119,1390.378414
20 Mar 2024 14:22:50.000,212.643,18.167,1387.258954
20 Mar 2024 14:23:50.000,195.457,15.667,1502.789352
20 Mar 2024 14:24:50.000,182.043,11.872,1712.666103
20 Mar 2024 14:25:50.000,172.246,7.881,1986.476085
20 Mar 2024 14:25:52.721,171.873,7.705,1999.991926
21 Mar 2024 05:50:29.613,212.622,7.692,1999.978298
21 Mar 2024 05:51:29.000,207.215,13.018,1643.194938
21 Mar 2024 05:52:29.000,198.359,19.924,1312.588910
21 Mar 2024 05:53:29.000,182.673,28.504,1042.782378
21 Mar 2024 05:54:29.000,155.151,35.724,892.299495
21 Mar 2024 05:55:29.000,121.436,34.116,922.237803
21 Mar 2024 05:56:29.000,97.941,25.788,1118.132578
21 Mar 2024 05:57:29.000,84.930,17.673,1412.013789
21 Mar 2024 05:58:29.000,77.422,11.311,1754.521602
21 Mar 2024 05:59:09.453,74.025,7.823,1999.992235
21 Mar 2024 07:30:54.604,261.197,7.773,1999.970427
21 Mar 2024 07:31:54.000,265.106,13.372,1628.275688
21 Mar 2024 07:32:54.000,271.607,21.067,1273.280440
21 Mar 2024 07:33:54.000,284.157,32.108,963.852671
21 Mar 2024 07:34:54.000,312.841,45.325,759.695931
21 Mar 2024 07:35:54.000,1.173,45.975,752.889901
21 Mar 2024 07:36:54.000,31.372,32.970,947.639610
21 Mar 2024 07:37:54.000,44.541,21.711,1252.695435
21 Mar 2024 07:38:54.000,51.297,13.861,1605.547769
21 Mar 2024 07:39:54.000,55.375,8.122,1979.797748
21 Mar 2024 07:39:57.180,55.547,7.858,1999.977022
21 Mar 2024 09:12:40.327,295.466,7.841,1999.985629
21 Mar 2024 09:13:40.000,303.322,12.541,1680.991813
21 Mar 2024 09:14:40.000,314.986,17.902,1405.058448
21 Mar 2024 09:15:40.000,332.284,23.061,1206.587481
21 Mar 2024 09:16:40.000,355.219,25.580,1128.122713
21 Mar 2024 09:17:40.000,18.482,23.456,1193.843392
21 Mar 2024 09:18:40.000,36.360,18.420,1383.120888
