aer_data/TP_AER.csv

Time (UTCG),Azimuth (deg),Elevation (deg),Range (km)
31 Mar 2023 17:29:33.530,297.287,7.970,1999.991602
31 Mar 2023 17:30:33.000,305.183,12.645,1683.951832
31 Mar 2023 17:31:33.000,316.904,17.968,1410.333522
31 Mar 2023 17:32:33.000,334.193,23.043,1214.511622
31 Mar 2023 17:33:33.000,356.959,25.469,1138.255033
31 Mar 2023 17:34:33.000,19.971,23.337,1204.764076
31 Mar 2023 17:35:33.000,37.697,18.354,1393.525465
31 Mar 2023 17:36:33.000,49.754,13.006,1662.859061
31 Mar 2023 17:37:33.000,57.920,8.245,1979.357632
31 Mar 2023 17:37:36.714,58.335,7.973,1999.987016
31 Mar 2023 19:10:42.943,306.314,7.981,1999.975840
31 Mar 2023 19:11:42.000,312.043,13.220,1650.614662
31 Mar 2023 19:12:42.000,321.214,19.987,1325.644542
31 Mar 2023 19:13:42.000,336.993,28.275,1060.703362
31 Mar 2023 19:14:42.000,3.922,35.205,911.240603
31 Mar 2023 19:15:42.000,36.908,33.907,935.089376
31 Mar 2023 19:16:42.000,60.679,25.992,1121.222828
31 Mar 2023 19:17:42.000,74.279,18.006,1406.149408
31 Mar 2023 19:18:42.000,82.332,11.652,1741.290958
31 Mar 2023 19:19:25.334,86.285,7.921,1999.985315
31 Mar 2023 20:51:24.255,293.891,7.959,1999.973170
31 Mar 2023 20:52:24.000,291.789,13.808,1615.353078
31 Mar 2023 20:53:24.000,288.044,22.103,1244.446527
31 Mar 2023 20:54:24.000,279.957,35.167,910.249692
31 Mar 2023 20:55:24.000,254.475,55.397,672.257740
31 Mar 2023 20:56:24.000,180.421,58.945,648.282103
31 Mar 2023 20:57:24.000,147.456,38.252,856.566631
31 Mar 2023 20:58:24.000,137.831,23.926,1179.417200
31 Mar 2023 20:59:24.000,133.577,14.979,1545.853900
31 Mar 2023 21:00:24.000,131.223,8.770,1930.213107
31 Mar 2023 21:00:34.733,130.910,7.837,1999.977224
31 Mar 2023 22:34:09.515,250.943,7.876,1999.998200
31 Mar 2023 22:35:09.000,238.786,9.638,1869.584672
31 Mar 2023 22:36:09.000,225.204,10.300,1822.799729
31 Mar 2023 22:37:09.000,211.607,9.627,1867.575807
31 Mar 2023 22:38:09.000,199.315,7.835,1997.497209
31 Mar 2023 22:38:09.892,199.146,7.802,1999.998393
1 Apr 2023 12:27:20.614,160.765,7.815,1999.990450
1 Apr 2023 12:28:20.000,148.629,9.599,1870.383872
1 Apr 2023 12:29:20.000,135.055,10.295,1823.902667
1 Apr 2023 12:30:20.000,121.467,9.659,1868.907953
1 Apr 2023 12:31:20.000,109.186,7.897,1999.166033
1 Apr 2023 12:31:20.292,109.130,7.886,1999.986387
1 Apr 2023 14:04:55.423,229.059,7.849,1999.982600
1 Apr 2023 14:05:55.000,226.921,13.681,1616.441482
1 Apr 2023 14:06:55.000,223.148,21.972,1245.529614
1 Apr 2023 14:07:55.000,215.058,35.021,911.308610
1 Apr 2023 14:08:55.000,189.716,55.241,673.134307
1 Apr 2023 14:09:55.000,115.892,59.007,648.597809
1 Apr 2023 14:10:55.000,82.690,38.401,856.320924
1 Apr 2023 14:11:55.000,73.015,24.074,1178.844851
1 Apr 2023 14:12:55.000,68.763,15.122,1545.074054
1 Apr 2023 14:13:55.000,66.434,8.910,1929.273010
1 Apr 2023 14:14:05.881,66.123,7.964,1999.979774
1 Apr 2023 15:46:04.772,273.693,7.929,1999.982923
1 Apr 2023 15:47:04.000,279.423,13.195,1649.301988
1 Apr 2023 15:48:04.000,288.595,19.980,1324.240630
1 Apr 2023 15:49:04.000,304.398,28.293,1059.516724
1 Apr 2023 15:50:04.000,331.376,35.234,910.705589
1 Apr 2023 15:51:04.000,4.369,33.922,935.432758
1 Apr 2023 15:52:04.000,28.105,26.011,1122.146904
1 Apr 2023 15:53:04.000,41.685,18.039,1407.236348
1 Apr 2023 15:54:04.000,49.737,11.697,1742.251000
1 Apr 2023 15:54:47.212,53.688,7.982,1999.989588
1 Apr 2023 17:27:53.404,301.656,7.976,1999.999614
1 Apr 2023 17:28:53.000,309.574,12.660,1683.379864
1 Apr 2023 17:29:53.000,321.305,17.981,1409.911930
1 Apr 2023 17:30:53.000,338.606,23.052,1214.291781
1 Apr 2023 17:31:53.000,1.378,25.467,1138.289681
1 Apr 2023 17:32:53.000,24.383,23.326,1205.050354
1 Apr 2023 17:33:53.000,42.096,18.338,1394.005984
1 Apr 2023 17:34:53.000,54.142,12.990,1663.480613
1 Apr 2023 17:35:53.000,62.301,8.229,1980.093258
1 Apr 2023 17:35:56.583,62.700,7.966,1999.999802
1 Apr 2023 19:08:49.969,305.108,7.979,1999.998465
1 Apr 2023 19:09:49.000,309.526,13.472,1636.010464
1 Apr 2023 19:10:49.000,316.816,20.937,1288.751166
1 Apr 2023 19:11:49.000,330.444,31.222,990.685731
1 Apr 2023 19:12:49.000,358.905,42.406,800.636331
1 Apr 2023 19:13:49.000,41.841,42.379,800.625369
1 Apr 2023 19:14:49.000,70.268,31.161,990.721139
1 Apr 2023 19:15:49.000,83.870,20.863,1288.957713
1 Apr 2023 19:16:49.000,91.135,13.391,1636.506992
1 Apr 2023 19:17:47.888,95.518,7.905,1999.985957
1 Apr 2023 20:49:38.517,288.173,7.950,1999.999859
1 Apr 2023 20:50:38.000,283.621,13.466,1633.882077
1 Apr 2023 20:51:38.000,275.963,20.839,1289.846900
1 Apr 2023 20:52:38.000,261.568,30.706,999.651638
1 Apr 2023 20:53:38.000,232.839,40.496,823.972365
1 Apr 2023 20:54:38.000,193.173,39.413,838.922183
1 Apr 2023 20:55:38.000,167.022,29.048,1036.206111
1 Apr 2023 20:56:38.000,153.980,19.519,1336.866158
1 Apr 2023 20:57:38.000,146.895,12.453,1685.640906
1 Apr 2023 20:58:28.911,143.109,7.823,1999.989695
2 Apr 2023 12:24:00.718,182.848,7.805,1999.987006
2 Apr 2023 12:25:00.000,172.639,11.372,1751.318106
2 Apr 2023 12:26:00.000,159.066,14.540,1567.940393
2 Apr 2023 12:27:00.000,142.564,16.298,1479.837075
2 Apr 2023 12:28:00.000,125.228,15.822,1504.296115
2 Apr 2023 12:29:00.000,109.824,13.365,1636.274137
2 Apr 2023 12:30:00.000,97.689,9.935,1852.567636
2 Apr 2023 12:30:33.478,92.294,7.916,1999.982742
2 Apr 2023 14:02:58.852,240.469,7.865,1999.973353
2 Apr 2023 14:03:58.000,240.624,13.730,1614.754801
2 Apr 2023 14:04:58.000,240.809,22.261,1236.197384
2 Apr 2023 14:05:58.000,241.065,36.373,888.100223
2 Apr 2023 14:06:58.000,241.695,63.090,625.987005
2 Apr 2023 14:07:58.000,59.483,75.110,582.294052
2 Apr 2023 14:08:58.000,60.776,42.879,794.013827
2 Apr 2023 14:09:58.000,61.097,25.882,1124.638878
2 Apr 2023 14:10:58.000,61.321,16.095,1496.522518
2 Apr 2023 14:11:58.000,61.518,9.544,1884.378182
2 Apr 2023 14:12:15.648,61.573,7.971,1999.978798
2 Apr 2023 15:44:29.268,282.081,7.942,1999.983595
2 Apr 2023 15:45:29.000,288.878,13.003,1661.273304
2 Apr 2023 15:46:29.000,299.365,19.160,1358.085516
2 Apr 2023 15:47:29.000,316.206,25.930,1123.980087
2 Apr 2023 15:48:29.000,341.385,30.405,1009.332327
2 Apr 2023 15:49:29.000,9.034,28.541,1054.267682
2 Apr 2023 15:50:29.000,29.668,22.257,1241.388682
2 Apr 2023 15:51:29.000,42.635,15.680,1518.450158
2 Apr 2023 15:52:29.000,50.864,10.133,1844.553987
2 Apr 2023 15:52:55.864,53.599,7.982,1999.982131
2 Apr 2023 17:26:09.457,304.604,7.980,1999.990580
2 Apr 2023 17:27:09.000,312.224,12.758,1677.728891
2 Apr 2023 17:28:09.000,323.651,18.300,1395.986678
2 Apr 2023 17:29:09.000,340.880,23.795,1189.821038
2 Apr 2023 17:30:09.000,4.273,26.683,1103.429122
2 Apr 2023 17:31:09.000,28.369,24.600,1164.146462
2 Apr 2023 17:32:09.000,46.803,19.324,1352.127189
2 Apr 2023 17:33:09.000,59.115,13.686,1623.219278
2 Apr 2023 17:34:09.000,67.321,8.730,1942.162502
2 Apr 2023 17:34:19.293,68.445,7.958,1999.999818
2 Apr 2023 19:06:56.147,302.875,7.976,1999.997600
2 Apr 2023 19:07:56.000,305.716,13.778,1618.496874
2 Apr 2023 19:08:56.000,310.454,21.919,1252.494054
2 Apr 2023 19:09:56.000,320.074,34.442,924.987211
2 Apr 2023 19:10:56.000,347.125,52.591,694.978001
2 Apr 2023 19:11:56.000,52.073,55.459,672.665683
2 Apr 2023 19:12:56.000,85.524,37.261,874.232146
2 Apr 2023 19:13:56.000,96.743,23.660,1190.506295
2 Apr 2023 19:14:56.000,101.996,14.920,1552.137850
2 Apr 2023 19:15:56.000,105.050,8.786,1932.880808
2 Apr 2023 19:16:06.406,105.456,7.888,1999.975923
2 Apr 2023 20:47:59.706,280.951,7.939,1999.989511
2 Apr 2023 20:48:59.000,273.902,12.848,1668.609432
2 Apr 2023 20:49:59.000,262.937,18.690,1374.959908
2 Apr 2023 20:50:59.000,245.736,24.693,1156.966752
2 Apr 2023 20:51:59.000,221.455,27.998,1063.235091
2 Apr 2023 20:52:59.000,196.225,25.687,1125.557195
2 Apr 2023 20:53:59.000,177.477,19.890,1321.783319
2 Apr 2023 20:54:59.000,165.420,13.887,1602.845802
2 Apr 2023 20:55:59.000,157.638,8.731,1931.187953
2 Apr 2023 20:56:10.922,156.430,7.812,1999.992000
3 Apr 2023 12:21:18.927,198.972,7.808,1999.985290
3 Apr 2023 12:22:18.000,191.145,12.445,1685.310913
3 Apr 2023 12:23:18.000,179.354,17.706,1413.281355
3 Apr 2023 12:24:18.000,161.977,22.589,1222.914053
3 Apr 2023 12:25:18.000,139.440,24.676,1156.242929
3 Apr 2023 12:26:18.000,117.159,22.328,1233.814009
3 Apr 2023 12:27:18.000,100.246,17.381,1432.183048
3 Apr 2023 12:28:18.000,88.830,12.163,1709.246776
3 Apr 2023 12:29:12.260,81.776,7.933,1999.999733
3 Apr 2023 14:01:09.668,251.232,7.881,1999.991061
3 Apr 2023 14:02:09.000,253.423,13.684,1618.403246
3 Apr 2023 14:03:09.000,257.128,21.969,1247.292310
3 Apr 2023 14:04:09.000,264.804,35.076,911.539454
3 Apr 2023 14:05:09.000,288.841,55.955,668.902727
3 Apr 2023 14:06:09.000,6.767,61.007,637.722496
3 Apr 2023 14:07:09.000,41.159,39.410,841.850971
3 Apr 2023 14:08:09.000,50.785,24.615,1162.843700
3 Apr 2023 14:09:09.000,55.113,15.474,1527.925010
3 Apr 2023 14:10:09.000,57.611,9.175,1910.978432
3 Apr 2023 14:10:22.734,58.047,7.975,1999.989950
3 Apr 2023 15:42:53.899,289.446,7.954,1999.984157
3 Apr 2023 15:43:53.000,296.839,12.749,1676.834809
3 Apr 2023 15:44:53.000,308.062,18.408,1390.391355
3 Apr 2023 15:45:53.000,325.191,24.147,1178.126942
3 Apr 2023 15:46:53.000,348.882,27.340,1085.432918
3 Apr 2023 15:47:53.000,13.609,25.335,1142.125483
3 Apr 2023 15:48:53.000,32.485,19.911,1329.012430
3 Apr 2023 15:49:53.000,44.971,14.115,1600.559090
3 Apr 2023 15:50:53.000,53.223,9.051,1920.385445
3 Apr 2023 15:51:07.098,54.748,7.980,1999.999518
3 Apr 2023 17:24:21.724,306.174,7.981,1999.990366
3 Apr 2023 17:25:21.000,313.169,12.920,1668.257018
3 Apr 2023 17:26:21.000,323.922,18.886,1370.909486
3 Apr 2023 17:27:21.000,340.861,25.262,1144.238410
3 Apr 2023 17:28:21.000,5.465,29.245,1036.833167
3 Apr 2023 17:29:21.000,31.998,27.338,1085.174545
3 Apr 2023 17:30:21.000,52.002,21.392,1271.503223
3 Apr 2023 17:31:21.000,64.828,15.104,1546.215966
3 Apr 2023 17:32:21.000,73.085,9.729,1870.006357
3 Apr 2023 17:32:43.645,75.443,7.947,1999.978020
3 Apr 2023 19:05:02.720,299.662,7.972,1999.991026
3 Apr 2023 19:06:02.000,300.531,13.836,1614.876019
3 Apr 2023 19:07:02.000,301.931,22.332,1237.537708
3 Apr 2023 19:08:02.000,304.797,36.308,891.154477
3 Apr 2023 19:09:02.000,315.525,62.146,631.468064
3 Apr 2023 19:10:02.000,87.267,72.585,588.991136
3 Apr 2023 19:11:02.000,109.350,42.374,799.318276
3 Apr 2023 19:12:02.000,113.200,25.651,1128.579246
3 Apr 2023 19:13:02.000,114.852,15.934,1499.621952
3 Apr 2023 19:14:02.000,115.812,9.407,1886.985052
3 Apr 2023 19:14:19.266,116.022,7.871,1999.978631
3 Apr 2023 20:46:32.702,271.476,7.923,1999.986813
3 Apr 2023 20:47:32.000,261.995,11.880,1725.700153
3 Apr 2023 20:48:32.000,248.817,15.726,1510.251802
3 Apr 2023 20:49:32.000,231.780,18.345,1387.442998
3 Apr 2023 20:50:32.000,212.818,18.432,1382.611336
3 Apr 2023 20:51:32.000,195.532,15.929,1496.831818
3 Apr 2023 20:52:32.000,182.042,12.104,1705.904057
3 Apr 2023 20:53:32.000,172.202,8.078,1979.269287
3 Apr 2023 20:53:36.168,171.630,7.806,1999.981269
4 Apr 2023 12:18:55.999,212.776,7.817,1999.983157
4 Apr 2023 12:19:55.000,207.442,13.131,1645.574841
4 Apr 2023 12:20:55.000,198.657,20.069,1314.744967
4 Apr 2023 12:21:55.000,183.073,28.715,1044.242164
4 Apr 2023 12:22:55.000,155.589,36.065,892.287025
4 Apr 2023 12:23:55.000,121.670,34.542,920.320767
4 Apr 2023 12:24:55.000,97.999,26.150,1114.787535
4 Apr 2023 12:25:55.000,84.928,17.949,1407.823997
4 Apr 2023 12:26:55.000,77.406,11.528,1749.800231
4 Apr 2023 12:27:36.263,73.950,7.945,1999.989688
4 Apr 2023 13:59:26.268,261.374,7.897,1999.992321
4 Apr 2023 14:00:26.000,265.340,13.551,1626.993789
4 Apr 2023 14:01:26.000,271.908,21.276,1273.171958
4 Apr 2023 14:02:26.000,284.579,32.328,965.504689
4 Apr 2023 14:03:26.000,313.399,45.418,763.766501
4 Apr 2023 14:04:26.000,1.397,45.908,758.681194
4 Apr 2023 14:05:26.000,31.355,32.989,953.340803
4 Apr 2023 14:06:26.000,44.499,21.778,1257.655043
4 Apr 2023 14:07:26.000,51.266,13.937,1609.775371
4 Apr 2023 14:08:26.000,55.356,8.196,1983.398926
4 Apr 2023 14:08:28.616,55.499,7.978,1999.974444
4 Apr 2023 15:41:16.980,295.607,7.962,1999.987182
4 Apr 2023 15:42:16.000,303.370,12.621,1684.912704
4 Apr 2023 15:43:16.000,314.994,17.989,1409.083025
4 Apr 2023 15:44:16.000,332.225,23.162,1210.314091
4 Apr 2023 15:45:16.000,355.093,25.716,1130.890076
4 Apr 2023 15:46:16.000,18.352,23.631,1195.130049
4 Apr 2023 15:47:16.000,36.273,18.602,1382.937164
4 Apr 2023 15:48:16.000,48.422,13.195,1652.138333
4 Apr 2023 15:49:16.000,56.624,8.389,1968.836512
4 Apr 2023 15:49:21.597,57.246,7.977,1999.990376
4 Apr 2023 17:22:30.771,306.468,7.981,1999.999370
4 Apr 2023 17:23:30.000,312.566,13.156,1654.453339
4 Apr 2023 17:24:30.000,322.213,19.714,1336.682446
4 Apr 2023 17:25:30.000,338.418,27.464,1082.037646
4 Apr 2023 17:26:30.000,4.766,33.459,944.432832
4 Apr 2023 17:27:30.000,35.710,31.929,975.370241
4 Apr 2023 17:28:30.000,58.333,24.654,1161.408541
4 Apr 2023 17:29:30.000,71.755,17.196,1443.297906
4 Apr 2023 17:30:30.000,79.905,11.131,1775.207037
4 Apr 2023 17:31:08.044,83.523,7.933,1999.997234
4 Apr 2023 19:03:11.090,295.451,7.966,1999.981703
4 Apr 2023 19:04:11.000,294.097,13.882,1611.794911
4 Apr 2023 19:05:11.000,291.630,22.339,1236.741121
4 Apr 2023 19:06:11.000,286.107,36.044,895.226846
4 Apr 2023 19:07:11.000,266.012,59.584,645.349107
4 Apr 2023 19:08:11.000,170.004,65.758,613.353207
4 Apr 2023 19:09:11.000,138.999,40.417,825.102574
4 Apr 2023 19:10:11.000,131.980,24.807,1152.861041
4 Apr 2023 19:11:11.000,129.051,15.451,1522.688752
4 Apr 2023 19:12:11.000,127.477,9.076,1909.299665
4 Apr 2023 19:12:24.882,127.213,7.854,1999.985161
4 Apr 2023 20:45:29.918,257.541,7.898,1999.988721
4 Apr 2023 20:46:29.000,245.994,10.343,1822.942687
4 Apr 2023 20:47:29.000,232.161,11.860,1723.783820
4 Apr 2023 20:48:29.000,217.397,11.898,1720.177412
4 Apr 2023 20:49:29.000,203.447,10.439,1812.603993
4 Apr 2023 20:50:29.000,191.562,7.977,1987.289897
4 Apr 2023 20:50:32.613,190.923,7.810,1999.999998
5 Apr 2023 10:40:00.331,149.227,7.811,1999.993765
5 Apr 2023 10:41:00.000,136.692,8.611,1941.126473
5 Apr 2023 10:42:00.000,123.855,8.279,1967.265605
5 Apr 2023 10:42:23.216,119.078,7.856,1999.993489
5 Apr 2023 12:16:45.990,225.279,7.829,1999.999545
5 Apr 2023 12:17:45.000,222.408,13.527,1623.837487
5 Apr 2023 12:18:45.000,217.390,21.568,1258.908607
5 Apr 2023 12:19:45.000,207.037,33.728,934.752959
5 Apr 2023 12:20:45.000,179.175,50.401,711.603767
5 Apr 2023 12:21:45.000,120.268,52.300,695.799868
5 Apr 2023 12:22:45.000,88.135,35.812,898.392148
5 Apr 2023 12:23:45.000,76.551,22.973,1214.089862
5 Apr 2023 12:24:45.000,71.127,14.530,1575.510077
5 Apr 2023 12:25:45.000,68.063,8.530,1956.477307
5 Apr 2023 12:25:51.745,67.802,7.954,1999.987470
5 Apr 2023 13:57:47.047,270.840,7.913,1999.995461
5 Apr 2023 13:58:47.000,276.267,13.335,1640.219972
5 Apr 2023 13:59:47.000,284.965,20.364,1308.400425
5 Apr 2023 14:00:47.000,300.360,29.289,1034.187690
5 Apr 2023 14:01:47.000,328.106,37.286,874.962456
5 Apr 2023 14:02:47.000,3.555,36.117,894.978664
5 Apr 2023 14:03:47.000,28.403,27.367,1084.226116
5 Apr 2023 14:04:47.000,41.992,18.802,1373.920074
5 Apr 2023 14:05:47.000,49.832,12.165,1713.021556
5 Apr 2023 14:06:34.588,53.956,7.979,1999.991664
5 Apr 2023 15:39:37.159,300.420,7.969,1999.990939
5 Apr 2023 15:40:37.000,308.407,12.663,1682.787299
5 Apr 2023 15:41:37.000,320.189,17.962,1410.461229
5 Apr 2023 15:42:37.000,337.520,22.984,1216.391240
5 Apr 2023 15:43:37.000,0.240,25.336,1142.076236
5 Apr 2023 15:44:37.000,23.118,23.174,1210.065353
5 Apr 2023 15:45:37.000,40.731,18.213,1399.555332
5 Apr 2023 15:46:37.000,52.729,12.897,1669.114486
5 Apr 2023 15:47:37.000,60.870,8.160,1985.615711
5 Apr 2023 15:47:39.590,61.159,7.971,1999.986908
5 Apr 2023 17:20:37.507,305.606,7.980,1999.980461
5 Apr 2023 17:21:37.000,310.522,13.442,1637.833848
5 Apr 2023 17:22:37.000,318.515,20.702,1297.810676
5 Apr 2023 17:23:37.000,333.073,30.330,1010.915666
5 Apr 2023 17:24:37.000,1.308,39.874,835.518895
5 Apr 2023 17:25:37.000,40.306,39.205,845.048303
5 Apr 2023 17:26:37.000,66.934,29.285,1034.433167
5 Apr 2023 17:27:37.000,80.600,19.859,1328.411683
5 Apr 2023 17:28:37.000,88.180,12.792,1671.953842
5 Apr 2023 17:29:30.705,92.500,7.918,1999.999899
5 Apr 2023 19:01:22.974,290.132,7.958,1999.978404
5 Apr 2023 19:02:22.000,286.412,13.549,1629.749933
5 Apr 2023 19:03:22.000,279.993,21.265,1274.571686
5 Apr 2023 19:04:22.000,267.328,32.264,966.519602
5 Apr 2023 19:05:22.000,238.375,45.064,766.583446
5 Apr 2023 19:06:22.000,191.204,45.091,765.721638
5 Apr 2023 19:07:22.000,162.127,32.267,964.449132
5 Apr 2023 19:08:22.000,149.395,21.226,1271.910588
5 Apr 2023 19:09:22.000,142.926,13.486,1626.767355
5 Apr 2023 19:10:21.530,139.132,7.839,1999.981279
6 Apr 2023 10:36:09.173,176.847,7.790,1999.981600
6 Apr 2023 10:37:09.000,165.848,10.922,1779.266814
6 Apr 2023 10:38:09.000,152.017,13.345,1632.846848
6 Apr 2023 10:39:09.000,136.207,14.263,1583.138163
6 Apr 2023 10:40:09.000,120.465,13.277,1639.254969
6 Apr 2023 10:41:09.000,106.795,10.820,1791.165729
6 Apr 2023 10:42:04.989,96.588,7.895,1999.986698
6 Apr 2023 12:14:45.906,236.912,7.845,1999.984618
6 Apr 2023 12:15:45.000,236.368,13.696,1615.298619
6 Apr 2023 12:16:45.000,235.327,22.201,1237.174065
6 Apr 2023 12:17:45.000,232.906,36.213,890.040067
6 Apr 2023 12:18:45.000,223.039,62.220,629.865582
6 Apr 2023 12:19:45.000,89.001,72.796,588.010435
6 Apr 2023 12:20:45.000,68.260,42.394,799.605920
6 Apr 2023 12:21:45.000,64.917,25.681,1129.756644
6 Apr 2023 12:22:45.000,63.643,15.980,1501.380707
6 Apr 2023 12:23:45.000,63.021,9.465,1889.144395
6 Apr 2023 12:24:01.924,62.906,7.961,1999.983882
6 Apr 2023 13:56:10.309,279.511,7.927,1999.985194
6 Apr 2023 13:57:10.000,286.016,13.061,1656.897993
6 Apr 2023 13:58:10.000,296.152,19.408,1347.095223
6 Apr 2023 13:59:10.000,312.769,26.615,1103.990046
6 Apr 2023 14:00:10.000,338.513,31.719,979.725540
6 Apr 2023 14:01:10.000,7.536,29.969,1019.184245
6 Apr 2023 14:02:10.000,28.987,23.278,1206.228094
6 Apr 2023 14:03:10.000,42.149,16.339,1485.560669
6 Apr 2023 14:04:10.000,50.350,10.579,1814.234485
6 Apr 2023 14:04:41.808,53.499,7.979,1999.977632
6 Apr 2023 15:37:53.640,303.817,7.973,1999.983656
6 Apr 2023 15:38:53.000,311.533,12.694,1681.123355
6 Apr 2023 15:39:53.000,323.075,18.141,1402.661472
6 Apr 2023 15:40:53.000,340.317,23.458,1200.623793
6 Apr 2023 15:41:53.000,3.432,26.155,1118.186389
6 Apr 2023 15:42:53.000,27.065,24.062,1180.998626
6 Apr 2023 15:43:53.000,45.209,18.919,1369.027336
6 Apr 2023 15:44:53.000,57.426,13.407,1639.202882
6 Apr 2023 15:45:53.000,65.624,8.534,1957.025532
6 Apr 2023 15:46:00.681,66.471,7.963,1999.977777
6 Apr 2023 17:18:43.019,303.693,7.977,1999.976131
6 Apr 2023 17:19:43.000,307.105,13.730,1621.258054
6 Apr 2023 17:20:43.000,312.762,21.691,1260.811853
6 Apr 2023 17:21:43.000,323.987,33.546,942.351213
6 Apr 2023 17:22:43.000,352.422,49.147,725.568712
6 Apr 2023 17:23:43.000,48.082,50.624,711.641360
6 Apr 2023 17:24:43.000,79.973,35.200,910.034841
6 Apr 2023 17:25:43.000,92.300,22.761,1220.863442
6 Apr 2023 17:26:43.000,98.336,14.440,1578.295790
6 Apr 2023 17:27:43.000,101.902,8.485,1955.999478
6 Apr 2023 17:27:49.871,102.220,7.901,1999.979723
6 Apr 2023 18:59:40.754,283.446,7.947,2000.000038
6 Apr 2023 19:00:40.000,277.203,13.074,1656.069621
6 Apr 2023 19:01:40.000,267.202,19.462,1343.561684
6 Apr 2023 19:02:40.000,250.539,26.684,1099.762286
6 Apr 2023 19:03:40.000,224.616,31.621,978.651885
6 Apr 2023 19:04:40.000,195.808,29.533,1025.122808
6 Apr 2023 19:05:40.000,174.942,22.685,1219.973544
6 Apr 2023 19:06:40.000,162.326,15.751,1506.082116
6 Apr 2023 19:07:40.000,154.569,10.031,1840.520584
6 Apr 2023 19:08:06.970,152.035,7.826,1999.997414
7 Apr 2023 10:33:18.057,194.169,7.790,1999.998454
7 Apr 2023 10:34:18.000,185.421,12.197,1699.003982
7 Apr 2023 10:35:18.000,172.848,16.826,1452.482749
7 Apr 2023 10:36:18.000,155.441,20.601,1293.745429
7 Apr 2023 10:37:18.000,134.573,21.612,1257.283313
7 Apr 2023 10:38:18.000,114.858,19.155,1353.228264
7 Apr 2023 10:39:18.000,99.703,14.813,1557.041349
7 Apr 2023 10:40:18.000,89.064,10.230,1832.501152
7 Apr 2023 10:40:50.276,84.754,7.916,1999.999907
7 Apr 2023 12:12:53.745,247.867,7.861,1999.977844
7 Apr 2023 12:13:53.000,249.436,13.694,1616.464388
7 Apr 2023 12:14:53.000,252.083,22.099,1241.588458
7 Apr 2023 12:15:53.000,257.628,35.699,899.574793
7 Apr 2023 12:16:53.000,276.867,59.212,647.132602
7 Apr 2023 12:17:53.000,13.964,66.738,609.579820
7 Apr 2023 12:18:53.000,46.389,41.102,817.140397
7 Apr 2023 12:19:53.000,53.689,25.254,1142.762118
7 Apr 2023 12:20:53.000,56.867,15.792,1511.144870
7 Apr 2023 12:21:53.000,58.697,9.366,1896.515333
7 Apr 2023 12:22:08.884,59.065,7.965,1999.990440
7 Apr 2023 13:54:34.270,287.217,7.939,1999.990636
7 Apr 2023 13:55:34.000,294.517,12.848,1670.025004
7 Apr 2023 13:56:34.000,305.586,18.651,1379.210037
7 Apr 2023 13:57:34.000,322.712,24.659,1161.544822
7 Apr 2023 13:58:34.000,346.851,28.143,1063.909352
7 Apr 2023 13:59:34.000,12.300,26.131,1118.526798
7 Apr 2023 14:00:34.000,31.581,20.483,1306.226435
7 Apr 2023 14:01:34.000,44.166,14.493,1579.696798
7 Apr 2023 14:02:34.000,52.398,9.311,1901.482411
7 Apr 2023 14:02:51.321,54.241,7.977,1999.999489
7 Apr 2023 15:36:06.261,305.816,7.974,1999.990771
7 Apr 2023 15:37:06.000,313.098,12.888,1669.707588
7 Apr 2023 15:38:06.000,324.139,18.704,1378.321367
7 Apr 2023 15:39:06.000,341.251,24.744,1159.731188
7 Apr 2023 15:40:06.000,5.442,28.270,1061.010690
7 Apr 2023 15:41:06.000,31.004,26.258,1114.892406
7 Apr 2023 15:42:06.000,50.359,20.569,1302.431082
7 Apr 2023 15:43:06.000,62.965,14.541,1576.106513
7 Apr 2023 15:44:06.000,71.192,9.332,1898.263766
7 Apr 2023 15:44:23.857,73.084,7.952,1999.990288
7 Apr 2023 17:16:48.511,300.793,7.972,1999.990978
7 Apr 2023 17:17:48.000,302.318,13.833,1615.108220
7 Apr 2023 17:18:48.000,304.851,22.260,1240.214090
7 Apr 2023 17:19:48.000,310.131,35.928,897.914981
7 Apr 2023 17:20:48.000,328.683,59.764,644.882668
7 Apr 2023 17:21:48.000,69.134,67.405,607.130102
7 Apr 2023 17:22:48.000,100.665,41.194,815.302315
7 Apr 2023 17:23:48.000,107.562,25.229,1141.552134
7 Apr 2023 17:24:48.000,110.544,15.731,1510.458692
7 Apr 2023 17:25:48.000,112.245,9.288,1896.320052
7 Apr 2023 17:26:03.894,112.585,7.883,1999.993432
7 Apr 2023 18:58:08.389,274.823,7.932,1999.997861
7 Apr 2023 18:59:08.000,266.042,12.265,1702.906290
7 Apr 2023 19:00:08.000,253.401,16.788,1459.539112
7 Apr 2023 19:01:08.000,236.026,20.392,1304.680869
7 Apr 2023 19:02:08.000,215.389,21.242,1271.683760
7 Apr 2023 19:03:08.000,195.984,18.740,1369.426480
7 Apr 2023 19:04:08.000,181.030,14.441,1573.337216
7 Apr 2023 19:05:08.000,170.466,9.915,1847.906167
7 Apr 2023 19:05:37.501,166.500,7.817,1999.974218
8 Apr 2023 10:30:49.238,208.543,7.797,1999.970584
8 Apr 2023 10:31:49.000,202.315,13.001,1651.744705
8 Apr 2023 10:32:49.000,192.402,19.473,1337.337186
8 Apr 2023 10:33:49.000,175.786,26.883,1090.895593
8 Apr 2023 10:34:49.000,149.610,32.087,967.201673
8 Apr 2023 10:35:49.000,120.280,30.053,1012.843916
8 Apr 2023 10:36:49.000,99.160,23.072,1208.682037
8 Apr 2023 10:37:49.000,86.530,16.029,1496.340901
8 Apr 2023 10:38:49.000,78.837,10.250,1832.280248
8 Apr 2023 10:39:17.236,76.234,7.929,1999.997888
8 Apr 2023 12:11:07.861,258.203,7.877,1999.981576
8 Apr 2023 12:12:07.000,261.599,13.534,1626.530568
8 Apr 2023 12:13:07.000,267.305,21.437,1266.145029
8 Apr 2023 12:14:07.000,278.588,33.152,947.883678
8 Apr 2023 12:15:07.000,306.752,48.478,730.946584
8 Apr 2023 12:16:07.000,1.327,50.168,715.398332
8 Apr 2023 12:17:07.000,33.397,35.141,911.571145
8 Apr 2023 12:18:07.000,45.988,22.812,1220.823103
8 Apr 2023 12:19:07.000,52.185,14.522,1577.165400
8 Apr 2023 12:20:07.000,55.862,8.578,1953.995985
8 Apr 2023 12:20:14.201,56.207,7.968,1999.999383
8 Apr 2023 13:52:57.200,293.777,7.949,1999.972229
8 Apr 2023 13:53:57.000,301.571,12.705,1679.027520
8 Apr 2023 13:54:57.000,313.163,18.148,1401.313154
8 Apr 2023 13:55:57.000,330.458,23.441,1200.509288
8 Apr 2023 13:56:57.000,353.575,26.088,1119.688329
8 Apr 2023 13:57:57.000,17.130,23.964,1183.963640
8 Apr 2023 13:58:57.000,35.190,18.830,1372.879492
8 Apr 2023 13:59:57.000,47.358,13.341,1643.436330
8 Apr 2023 14:00:57.000,55.534,8.486,1961.339600
8 Apr 2023 14:01:03.918,56.298,7.974,1999.998927
8 Apr 2023 15:34:15.442,306.504,7.974,1999.990305
8 Apr 2023 15:35:15.000,312.964,13.099,1657.322414
8 Apr 2023 15:36:15.000,323.045,19.461,1346.685529
8 Apr 2023 15:37:15.000,339.604,26.717,1102.124145
8 Apr 2023 15:38:15.000,5.398,31.913,975.944152
8 Apr 2023 15:39:15.000,34.632,30.188,1013.921781
8 Apr 2023 15:40:15.000,56.230,23.427,1200.499627
8 Apr 2023 15:41:15.000,69.431,16.421,1480.024027
8 Apr 2023 15:42:15.000,77.626,10.617,1809.166352
8 Apr 2023 15:42:47.612,80.835,7.939,1999.990654
8 Apr 2023 17:14:55.331,296.910,7.966,1999.979890
8 Apr 2023 17:15:55.000,296.299,13.881,1611.946717
8 Apr 2023 17:16:55.000,295.112,22.412,1234.404339
8 Apr 2023 17:17:55.000,292.323,36.461,888.258873
8 Apr 2023 17:18:55.000,280.918,62.368,630.111961
8 Apr 2023 17:19:55.000,151.881,71.811,591.138201
8 Apr 2023 17:20:55.000,129.739,41.995,804.013633
8 Apr 2023 17:21:55.000,125.955,25.441,1134.417506
8 Apr 2023 17:22:55.000,124.469,15.796,1506.115448
8 Apr 2023 17:23:55.000,123.708,9.303,1893.960008
8 Apr 2023 17:24:11.184,123.565,7.866,1999.972592
8 Apr 2023 18:56:54.550,262.781,7.911,1999.990182
8 Apr 2023 18:57:54.000,251.774,10.937,1784.677218
8 Apr 2023 18:58:54.000,237.935,13.233,1643.063208
8 Apr 2023 18:59:54.000,222.237,14.011,1598.248863
8 Apr 2023 19:00:54.000,206.707,12.931,1658.173672
8 Apr 2023 19:01:54.000,193.249,10.447,1812.169999
8 Apr 2023 19:02:44.806,184.012,7.816,1999.992525
9 Apr 2023 10:28:34.719,221.390,7.809,1999.977892
9 Apr 2023 10:29:34.000,217.720,13.439,1627.327478
9 Apr 2023 10:30:34.000,211.429,21.207,1270.888823
9 Apr 2023 10:31:34.000,198.980,32.373,960.878047
9 Apr 2023 10:32:34.000,170.014,45.636,758.502006
9 Apr 2023 10:33:34.000,121.673,45.850,756.741685
9 Apr 2023 10:34:34.000,92.263,32.683,956.714599
9 Apr 2023 10:35:34.000,79.655,21.471,1265.671082
9 Apr 2023 10:36:34.000,73.324,13.667,1621.676742
9 Apr 2023 10:37:34.000,69.627,7.955,1998.753893
9 Apr 2023 10:37:34.192,69.618,7.939,1999.978199
9 Apr 2023 12:09:26.666,267.889,7.893,1999.999832
9 Apr 2023 12:10:26.000,272.826,13.333,1638.955315
9 Apr 2023 12:11:26.000,280.878,20.567,1299.447811
9 Apr 2023 12:12:26.000,295.510,30.120,1013.638195
9 Apr 2023 12:13:26.000,323.657,39.503,839.809688
9 Apr 2023 12:14:26.000,2.208,38.824,850.362131
9 Apr 2023 12:15:26.000,28.662,29.086,1039.591535
9 Apr 2023 12:16:26.000,42.356,19.781,1332.914470
9 Apr 2023 12:17:26.000,49.997,12.774,1675.716490
9 Apr 2023 12:18:19.206,54.338,7.969,1999.989704
9 Apr 2023 13:51:17.604,299.029,7.955,1999.998733
9 Apr 2023 13:52:17.000,306.946,12.611,1684.994442
9 Apr 2023 13:53:17.000,318.695,17.906,1412.230711
9 Apr 2023 13:54:17.000,335.981,22.935,1217.463972
9 Apr 2023 13:55:17.000,358.671,25.316,1142.195828
9 Apr 2023 13:56:17.000,21.568,23.187,1209.227262
9 Apr 2023 13:57:17.000,39.223,18.240,1398.017887
9 Apr 2023 13:58:17.000,51.255,12.926,1667.149024
9 Apr 2023 13:59:17.000,59.419,8.187,1983.397032
9 Apr 2023 13:59:19.993,59.753,7.968,1999.999815
9 Apr 2023 15:32:21.997,306.000,7.973,1999.982289
9 Apr 2023 15:33:21.000,311.286,13.302,1645.466143
9 Apr 2023 15:34:21.000,319.848,20.319,1312.296930
9 Apr 2023 15:35:21.000,335.015,29.284,1035.422488
9 Apr 2023 15:36:21.000,2.599,37.501,871.842712
9 Apr 2023 15:37:21.000,38.451,36.546,887.394891
9 Apr 2023 15:38:21.000,63.715,27.704,1074.331067
9 Apr 2023 15:39:21.000,77.443,19.004,1363.439153
9 Apr 2023 15:40:21.000,85.308,12.282,1702.707012
9 Apr 2023 15:41:10.203,89.539,7.924,1999.982053
9 Apr 2023 17:13:05.062,291.967,7.958,1999.980322
9 Apr 2023 17:14:05.000,288.972,13.749,1618.663378
9 Apr 2023 17:15:05.000,283.759,21.803,1255.189898
9 Apr 2023 17:16:05.000,272.975,33.913,933.750932
9 Apr 2023 17:17:05.000,244.358,50.081,715.534067
9 Apr 2023 17:18:05.000,186.960,51.201,705.118609
9 Apr 2023 17:19:05.000,155.721,35.110,909.689659
9 Apr 2023 17:20:05.000,144.121,22.549,1225.438965
9 Apr 2023 17:21:05.000,138.597,14.226,1586.513053
9 Apr 2023 17:22:05.000,135.433,8.283,1967.104029
9 Apr 2023 17:22:10.102,135.226,7.849,1999.971706
9 Apr 2023 18:56:42.581,238.932,7.870,1999.999506
9 Apr 2023 18:57:42.000,226.437,8.446,1955.147554
9 Apr 2023 18:58:42.000,213.782,7.908,1994.502631
9 Apr 2023 18:58:45.936,212.978,7.835,1999.993021
10 Apr 2023 08:48:19.557,170.056,7.777,1999.992685
10 Apr 2023 08:49:19.000,158.510,10.339,1816.777759
10 Apr 2023 08:50:19.000,144.660,11.993,1711.894084
10 Apr 2023 08:51:19.000,129.759,12.163,1702.826079
10 Apr 2023 08:52:19.000,115.598,10.786,1791.163456
10 Apr 2023 08:53:19.000,103.516,8.347,1963.581874
10 Apr 2023 08:53:29.247,101.699,7.870,1999.985259
10 Apr 2023 10:26:30.907,233.265,7.823,1999.976885
10 Apr 2023 10:27:30.000,231.994,13.648,1616.513047
10 Apr 2023 10:28:30.000,229.688,22.071,1240.507775
10 Apr 2023 10:29:30.000,224.570,35.740,897.289144
10 Apr 2023 10:30:30.000,205.915,59.551,644.009607
10 Apr 2023 10:31:30.000,106.840,66.978,607.617426
10 Apr 2023 10:32:30.000,75.526,40.978,817.677365
10 Apr 2023 10:33:30.000,68.804,25.122,1145.299485
10 Apr 2023 10:34:30.000,66.055,15.680,1515.247876
10 Apr 2023 10:35:30.000,64.609,9.269,1901.969936
10 Apr 2023 10:35:44.997,64.354,7.946,1999.973381
10 Apr 2023 12:07:48.509,276.825,7.908,1999.983656
10 Apr 2023 12:08:48.000,282.985,13.102,1653.173664
10 Apr 2023 12:09:48.000,292.702,19.648,1336.230458
10 Apr 2023 12:10:48.000,308.995,27.346,1083.171761
10 Apr 2023 12:11:48.000,335.320,33.225,947.868084
10 Apr 2023 12:12:48.000,6.016,31.648,980.821127
10 Apr 2023 12:13:48.000,28.450,24.454,1167.710201
10 Apr 2023 12:14:48.000,41.818,17.081,1449.616731
10 Apr 2023 12:15:48.000,49.971,11.071,1781.171667
10 Apr 2023 12:16:25.099,53.523,7.969,1999.972850
10 Apr 2023 13:49:34.504,302.880,7.960,1999.992845
10 Apr 2023 13:50:34.000,310.710,12.659,1682.336044
10 Apr 2023 13:51:34.000,322.361,18.035,1406.656284
10 Apr 2023 13:52:34.000,339.639,23.211,1208.227171
10 Apr 2023 13:53:34.000,2.560,25.747,1129.448143
10 Apr 2023 13:54:34.000,25.833,23.628,1194.540445
10 Apr 2023 13:55:34.000,43.731,18.578,1383.140699
10 Apr 2023 13:56:34.000,55.851,13.163,1652.959647
10 Apr 2023 13:57:34.000,64.027,8.355,1970.131571
10 Apr 2023 13:57:39.357,64.621,7.961,1999.981517
10 Apr 2023 15:30:26.965,304.415,7.970,1999.990665
10 Apr 2023 15:31:26.000,308.284,13.549,1631.086560
10 Apr 2023 15:32:26.000,314.723,21.259,1276.328868
10 Apr 2023 15:33:26.000,327.134,32.336,966.606783
10 Apr 2023 15:34:26.000,355.638,45.697,761.042923
10 Apr 2023 15:35:26.000,44.364,46.526,751.714798
10 Apr 2023 15:36:26.000,74.868,33.376,944.541697
10 Apr 2023 15:37:26.000,88.062,21.964,1248.713766
10 Apr 2023 15:38:26.000,94.789,14.024,1601.247121
10 Apr 2023 15:39:26.000,98.824,8.230,1975.476374
10 Apr 2023 15:39:29.859,99.030,7.907,1999.976392
10 Apr 2023 17:11:19.814,285.765,7.948,1999.983597
10 Apr 2023 17:12:19.000,280.336,13.259,1645.582712
10 Apr 2023 17:13:19.000,271.403,20.140,1316.732478
10 Apr 2023 17:14:19.000,255.628,28.611,1049.401790
10 Apr 2023 17:15:19.000,228.227,35.592,901.511919
10 Apr 2023 17:16:19.000,194.980,33.885,932.342729
10 Apr 2023 17:17:19.000,171.721,25.648,1127.180925
10 Apr 2023 17:18:19.000,158.717,17.594,1419.458519
10 Apr 2023 17:19:19.000,151.151,11.254,1760.455939
10 Apr 2023 17:19:58.637,147.765,7.835,1999.989511
11 Apr 2023 08:45:16.587,189.056,7.773,1999.986084
11 Apr 2023 08:46:16.000,179.640,11.794,1722.490047
11 Apr 2023 08:47:16.000,166.527,15.751,1503.282181
11 Apr 2023 08:48:16.000,149.446,18.534,1376.044081
11 Apr 2023 08:49:16.000,130.268,18.766,1367.328250
11 Apr 2023 08:50:16.000,112.710,16.310,1479.342683
11 Apr 2023 08:51:16.000,99.031,12.463,1687.918412
11 Apr 2023 08:52:16.000,89.107,8.395,1961.896305
11 Apr 2023 08:52:23.611,88.067,7.894,1999.988275
11 Apr 2023 10:24:35.588,244.418,7.839,1999.984198
11 Apr 2023 10:25:35.000,245.340,13.716,1613.746164
11 Apr 2023 10:26:35.000,246.861,22.214,1236.303213
11 Apr 2023 10:27:35.000,250.031,36.188,890.102015
11 Apr 2023 10:28:35.000,261.925,61.903,631.237315
11 Apr 2023 10:29:35.000,28.975,71.940,590.268785
11 Apr 2023 10:30:35.000,52.737,42.224,801.396136
11 Apr 2023 10:31:35.000,57.013,25.627,1130.780640
11 Apr 2023 10:32:35.000,58.864,15.960,1501.708097
11 Apr 2023 10:33:35.000,59.952,9.459,1888.841258
11 Apr 2023 10:33:51.996,60.190,7.950,1999.983666
11 Apr 2023 12:06:11.622,284.856,7.920,1999.986953
11 Apr 2023 12:07:11.000,291.886,12.863,1667.885105
11 Apr 2023 12:08:11.000,302.677,18.816,1371.136882
11 Apr 2023 12:09:11.000,319.651,25.156,1145.549269
11 Apr 2023 12:10:11.000,344.214,29.083,1039.571353
11 Apr 2023 12:11:11.000,10.612,27.166,1089.067025
11 Apr 2023 12:12:11.000,30.519,21.268,1275.868763
11 Apr 2023 12:13:11.000,43.312,15.030,1550.557827
11 Apr 2023 12:14:11.000,51.570,9.689,1874.074354
11 Apr 2023 12:14:32.972,53.867,7.967,1999.998730
11 Apr 2023 13:47:47.536,305.320,7.962,1999.974729
11 Apr 2023 13:48:47.000,312.751,12.791,1674.631587
11 Apr 2023 13:49:47.000,323.981,18.463,1387.951123
11 Apr 2023 13:50:47.000,341.141,24.222,1175.413595
11 Apr 2023 13:51:47.000,4.906,27.424,1082.637255
11 Apr 2023 13:52:47.000,29.705,25.390,1139.643772
11 Apr 2023 13:53:47.000,48.599,19.928,1327.111819
11 Apr 2023 13:54:47.000,61.071,14.108,1599.284559
11 Apr 2023 13:55:47.000,69.300,9.031,1919.703748
11 Apr 2023 13:56:01.193,70.829,7.951,1999.990550
11 Apr 2023 15:28:31.522,301.830,7.965,1999.978755
11 Apr 2023 15:29:31.000,303.982,13.784,1617.453646
11 Apr 2023 15:30:31.000,307.587,22.085,1246.092247
11 Apr 2023 15:31:31.000,315.040,35.258,909.665081
11 Apr 2023 15:32:31.000,338.686,56.460,665.810420
11 Apr 2023 15:33:31.000,58.677,61.668,633.855230
11 Apr 2023 15:34:31.000,92.887,39.556,838.538564
11 Apr 2023 15:35:31.000,102.221,24.614,1160.322541
11 Apr 2023 15:36:31.000,106.386,15.426,1526.097753
11 Apr 2023 15:37:31.000,108.771,9.106,1909.791031
11 Apr 2023 15:37:44.892,109.189,7.890,1999.974602
11 Apr 2023 17:09:42.864,277.863,7.934,1999.992321
11 Apr 2023 17:10:42.000,269.946,12.537,1686.776733
11 Apr 2023 17:11:42.000,258.048,17.707,1417.665405
11 Apr 2023 17:12:42.000,240.631,22.410,1231.279610
11 Apr 2023 17:13:42.000,218.292,24.288,1168.675664
11 Apr 2023 17:14:42.000,196.374,21.863,1248.773271
11 Apr 2023 17:15:42.000,179.715,16.966,1447.750274
11 Apr 2023 17:16:42.000,168.394,11.820,1724.273633
11 Apr 2023 17:17:33.730,161.625,7.824,2000.000087
12 Apr 2023 08:42:41.107,204.133,7.778,1999.975210
12 Apr 2023 08:43:41.000,197.075,12.771,1663.817919
12 Apr 2023 08:44:41.000,186.175,18.699,1368.175989
12 Apr 2023 08:45:41.000,168.973,24.874,1147.572995
12 Apr 2023 08:46:41.000,144.446,28.380,1051.512400
12 Apr 2023 08:47:41.000,118.822,26.110,1113.164225
12 Apr 2023 08:48:41.000,99.868,20.226,1310.301816
12 Apr 2023 08:49:41.000,87.785,14.144,1592.854262
12 Apr 2023 08:50:41.000,80.050,8.942,1922.732612
12 Apr 2023 08:50:54.319,78.722,7.909,1999.985385
12 Apr 2023 10:22:47.048,254.945,7.855,1999.991664
12 Apr 2023 10:23:47.000,257.835,13.663,1617.766537
12 Apr 2023 10:24:47.000,262.673,21.793,1252.018950
12 Apr 2023 10:25:47.000,272.506,34.262,925.375452
12 Apr 2023 10:26:47.000,299.852,52.127,697.215582
12 Apr 2023 10:27:47.000,3.517,54.768,676.923076
12 Apr 2023 10:28:47.000,36.729,36.971,878.995684
12 Apr 2023 10:29:47.000,48.102,23.559,1194.981172
12 Apr 2023 10:30:47.000,53.474,14.898,1556.147342
12 Apr 2023 10:31:47.000,56.620,8.802,1936.362720
12 Apr 2023 10:31:56.884,57.021,7.953,1999.990542
12 Apr 2023 12:04:34.242,291.799,7.930,1999.990679
12 Apr 2023 12:05:34.000,299.464,12.724,1676.705690
12 Apr 2023 12:06:34.000,310.924,18.258,1395.454327
12 Apr 2023 12:07:34.000,328.184,23.731,1190.171857
12 Apr 2023 12:08:34.000,351.563,26.582,1104.964037
12 Apr 2023 12:09:34.000,15.585,24.487,1166.735178
12 Apr 2023 12:10:34.000,33.952,19.233,1355.311894
12 Apr 2023 12:11:34.000,46.231,13.624,1626.607235
12 Apr 2023 12:12:34.000,54.428,8.690,1945.520729
12 Apr 2023 12:12:43.699,55.489,7.965,1999.981746
12 Apr 2023 13:45:56.939,306.416,7.962,1999.984146
12 Apr 2023 13:46:56.000,313.097,12.961,1664.563059
12 Apr 2023 13:47:56.000,323.495,19.119,1360.090666
12 Apr 2023 13:48:56.000,340.219,25.930,1123.786692
12 Apr 2023 13:49:56.000,5.377,30.522,1006.112834
12 Apr 2023 13:50:56.000,33.223,28.740,1048.330448
12 Apr 2023 13:51:56.000,54.057,22.424,1234.039762
12 Apr 2023 13:52:56.000,67.117,15.789,1510.729015
12 Apr 2023 13:53:56.000,75.376,10.200,1836.987430
12 Apr 2023 13:54:24.124,78.230,7.938,1999.977810
12 Apr 2023 15:26:36.947,298.269,7.959,1999.990617
12 Apr 2023 15:27:36.000,298.375,13.809,1615.562172
12 Apr 2023 15:28:36.000,298.439,22.327,1237.090052
12 Apr 2023 15:29:36.000,298.389,36.414,888.936374
12 Apr 2023 15:30:36.000,297.722,63.079,626.448143
12 Apr 2023 15:31:36.000,121.770,75.117,581.971000
12 Apr 2023 15:32:36.000,120.006,42.837,793.237601
12 Apr 2023 15:33:36.000,119.860,25.810,1123.816514
12 Apr 2023 15:34:36.000,119.877,16.010,1495.823640
12 Apr 2023 15:35:36.000,119.940,9.452,1883.892013
12 Apr 2023 15:35:53.712,119.963,7.871,1999.988348
12 Apr 2023 17:08:20.655,267.212,7.916,1999.979723
12 Apr 2023 17:09:20.000,256.910,11.419,1754.145200
12 Apr 2023 17:10:20.000,243.286,14.468,1575.069110
12 Apr 2023 17:11:20.000,226.848,16.073,1491.800329
12 Apr 2023 17:12:20.000,209.714,15.478,1520.398806
12 Apr 2023 17:13:20.000,194.544,12.981,1654.879322
12 Apr 2023 17:14:20.000,182.577,9.568,1872.031357
12 Apr 2023 17:14:49.258,177.863,7.818,1999.981007
13 Apr 2023 08:40:21.704,217.379,7.789,1999.993441
13 Apr 2023 08:41:21.000,212.910,13.297,1634.042346
13 Apr 2023 08:42:21.000,205.394,20.707,1288.329656
13 Apr 2023 08:43:21.000,191.227,30.720,995.415244
13 Apr 2023 08:44:21.000,162.520,40.917,816.060582
13 Apr 2023 08:45:21.000,122.032,40.077,828.507119
13 Apr 2023 08:46:21.000,95.440,29.508,1025.774096
13 Apr 2023 08:47:21.000,82.380,19.822,1327.371846
13 Apr 2023 08:48:21.000,75.367,12.683,1677.134437
13 Apr 2023 08:49:13.143,71.581,7.920,1999.990771
13 Apr 2023 10:21:03.711,264.843,7.872,1999.979763
13 Apr 2023 10:22:03.000,269.319,13.386,1634.446697
13 Apr 2023 10:23:03.000,276.695,20.842,1287.733036
13 Apr 2023 10:24:03.000,290.476,31.074,991.018288
13 Apr 2023 10:25:03.000,319.013,42.062,803.413531
13 Apr 2023 10:26:03.000,1.440,41.903,805.902724
13 Apr 2023 10:27:03.000,29.556,30.871,996.979665
13 Apr 2023 10:28:03.000,43.142,20.722,1295.169485
13 Apr 2023 10:29:03.000,50.448,13.329,1642.311300
13 Apr 2023 10:30:01.049,54.831,7.955,1999.984082
13 Apr 2023 12:02:54.779,297.483,7.937,2000.000047
13 Apr 2023 12:03:54.000,305.343,12.588,1685.194498
13 Apr 2023 12:04:54.000,317.050,17.903,1411.361330
13 Apr 2023 12:05:54.000,334.314,22.976,1215.223148
13 Apr 2023 12:06:54.000,357.057,25.413,1138.548221
13 Apr 2023 12:07:54.000,20.067,23.303,1204.643591
13 Apr 2023 12:08:54.000,37.808,18.335,1393.111871
13 Apr 2023 12:09:54.000,49.881,12.997,1662.279205
13 Apr 2023 12:10:54.000,58.059,8.240,1978.694003
13 Apr 2023 12:10:57.835,58.487,7.959,1999.996762
13 Apr 2023 13:44:03.426,306.283,7.961,1999.991905
13 Apr 2023 13:45:03.000,312.025,13.261,1646.997711
13 Apr 2023 13:46:03.000,321.172,20.069,1321.417602
13 Apr 2023 13:47:03.000,336.969,28.440,1055.834963
13 Apr 2023 13:48:03.000,4.077,35.463,906.129392
13 Apr 2023 13:49:03.000,37.331,34.117,930.715491
13 Apr 2023 13:50:03.000,61.152,26.092,1118.124543
13 Apr 2023 13:51:03.000,74.704,18.049,1404.142494
13 Apr 2023 13:52:03.000,82.707,11.673,1740.059848
13 Apr 2023 13:52:46.469,86.642,7.924,1999.981862
13 Apr 2023 15:24:44.734,293.686,7.951,1999.984465
13 Apr 2023 15:25:44.000,291.510,13.739,1618.823814
13 Apr 2023 15:26:44.000,287.623,21.987,1248.433421
13 Apr 2023 15:27:44.000,279.286,34.907,914.999621
13 Apr 2023 15:28:44.000,253.604,54.662,677.743866
13 Apr 2023 15:29:44.000,181.874,58.218,652.997819
13 Apr 2023 15:30:44.000,148.584,38.097,859.392179
13 Apr 2023 15:31:44.000,138.605,23.899,1180.913059
13 Apr 2023 15:32:44.000,134.171,14.983,1546.556199
13 Apr 2023 15:33:44.000,131.711,8.784,1930.410303
13 Apr 2023 15:33:54.713,131.385,7.854,1999.975660
13 Apr 2023 17:07:34.052,249.939,7.886,1999.988298
13 Apr 2023 17:08:34.000,237.625,9.556,1876.220929
13 Apr 2023 17:09:34.000,224.097,10.095,1837.778734
13 Apr 2023 17:10:34.000,210.681,9.326,1890.061924
13 Apr 2023 17:11:24.753,200.363,7.825,1999.992343
14 Apr 2023 07:00:34.593,161.940,7.767,2000.000002
14 Apr 2023 07:01:34.000,149.858,9.649,1863.311730
14 Apr 2023 07:02:34.000,136.230,10.458,1809.426142
14 Apr 2023 07:03:34.000,122.472,9.912,1847.808232
14 Apr 2023 07:04:34.000,109.969,8.193,1973.039448
14 Apr 2023 07:04:43.537,108.158,7.842,2000.000001
14 Apr 2023 08:38:13.930,229.522,7.803,1999.993186
14 Apr 2023 08:39:13.000,227.501,13.577,1619.057765
14 Apr 2023 08:40:13.000,223.906,21.851,1247.041885
14 Apr 2023 08:41:13.000,216.183,34.925,910.893526
14 Apr 2023 08:42:13.000,191.643,55.542,669.335962
14 Apr 2023 08:43:13.000,115.699,59.954,641.428920
14 Apr 2023 08:44:13.000,82.081,38.781,848.581693
14 Apr 2023 08:45:13.000,72.610,24.228,1171.640904
14 Apr 2023 08:46:13.000,68.491,15.199,1538.439271
14 Apr 2023 08:47:13.000,66.246,8.956,1923.102893
14 Apr 2023 08:47:24.817,65.923,7.927,1999.979728
14 Apr 2023 10:19:23.945,274.030,7.886,1999.983018
14 Apr 2023 10:20:23.000,279.783,13.120,1650.686749
14 Apr 2023 10:21:23.000,289.001,19.868,1326.162045
14 Apr 2023 10:22:23.000,304.835,28.106,1062.229258
14 Apr 2023 10:23:23.000,331.710,34.939,914.294069
14 Apr 2023 10:24:23.000,4.450,33.628,939.413112
14 Apr 2023 10:25:23.000,28.077,25.815,1125.920533
14 Apr 2023 10:26:23.000,41.660,17.916,1410.642178
14 Apr 2023 10:27:23.000,49.737,11.614,1745.344389
14 Apr 2023 10:28:05.731,53.667,7.955,1999.989535
14 Apr 2023 12:01:12.067,301.789,7.943,1999.999243
14 Apr 2023 12:02:12.000,309.753,12.655,1681.434718
14 Apr 2023 12:03:12.000,321.504,17.982,1407.993170
14 Apr 2023 12:04:12.000,338.839,23.055,1212.599109
14 Apr 2023 12:05:12.000,1.649,25.460,1137.119516
14 Apr 2023 12:06:12.000,24.662,23.300,1204.599264
14 Apr 2023 12:07:12.000,42.357,18.304,1394.221704
14 Apr 2023 12:08:12.000,54.382,12.957,1664.197042
14 Apr 2023 12:09:12.000,62.524,8.200,1981.163910
14 Apr 2023 12:09:15.388,62.901,7.952,1999.999803
14 Apr 2023 13:42:07.977,305.037,7.958,1999.998419
14 Apr 2023 13:43:07.000,309.398,13.458,1635.456562
14 Apr 2023 13:44:07.000,316.600,20.948,1287.298733
14 Apr 2023 13:45:07.000,330.108,31.316,987.885015
14 Apr 2023 13:46:07.000,358.592,42.720,796.116035
14 Apr 2023 13:47:07.000,42.075,42.779,795.124418
14 Apr 2023 13:48:07.000,70.721,31.384,985.544155
14 Apr 2023 13:49:07.000,84.296,20.977,1284.455473
14 Apr 2023 13:50:07.000,91.512,13.460,1632.575242
14 Apr 2023 13:51:06.444,95.889,7.907,1999.976202
14 Apr 2023 15:22:56.772,287.927,7.941,1999.990004
14 Apr 2023 15:23:56.000,283.303,13.414,1636.354153
14 Apr 2023 15:24:56.000,275.521,20.732,1293.666181
14 Apr 2023 15:25:56.000,260.995,30.447,1005.471933
14 Apr 2023 15:26:56.000,232.445,39.931,832.105898
14 Apr 2023 15:27:56.000,193.547,38.823,847.957044
14 Apr 2023 15:28:56.000,167.650,28.733,1044.357195
14 Apr 2023 15:29:56.000,154.554,19.364,1343.804726
14 Apr 2023 15:30:56.000,147.389,12.369,1691.604556
14 Apr 2023 15:31:46.061,143.600,7.838,1999.989657
15 Apr 2023 06:57:15.004,183.542,7.759,1999.993814
15 Apr 2023 06:58:15.000,173.277,11.415,1745.198874
15 Apr 2023 06:59:15.000,159.702,14.656,1558.564812
15 Apr 2023 07:00:15.000,143.097,16.493,1467.308559
15 Apr 2023 07:01:15.000,125.571,16.057,1489.532045
15 Apr 2023 07:02:15.000,109.981,13.585,1620.577235
15 Apr 2023 07:03:15.000,97.727,10.114,1836.937610
15 Apr 2023 07:03:51.770,91.807,7.871,1999.987675
15 Apr 2023 08:36:15.272,240.885,7.819,1999.971776
15 Apr 2023 08:37:15.000,241.123,13.743,1610.814536
15 Apr 2023 08:38:15.000,241.450,22.297,1232.189270
15 Apr 2023 08:39:15.000,242.021,36.476,884.232950
15 Apr 2023 08:40:15.000,243.939,63.361,623.099816
15 Apr 2023 08:41:15.000,55.868,74.602,582.149749
15 Apr 2023 08:42:15.000,59.918,42.565,796.177655
15 Apr 2023 08:43:15.000,60.662,25.691,1127.834698
15 Apr 2023 08:44:15.000,61.059,15.965,1500.220140
15 Apr 2023 08:45:15.000,61.351,9.446,1888.370550
15 Apr 2023 08:45:32.030,61.424,7.933,1999.978841
15 Apr 2023 10:17:46.025,282.367,7.900,1999.983592
15 Apr 2023 10:18:46.000,289.228,12.969,1660.274813
15 Apr 2023 10:19:46.000,299.771,19.105,1357.814517
15 Apr 2023 10:20:46.000,316.666,25.822,1124.875936
15 Apr 2023 10:21:46.000,341.818,30.214,1011.766136
15 Apr 2023 10:22:46.000,9.317,28.316,1058.035394
15 Apr 2023 10:23:46.000,29.832,22.072,1245.856745
15 Apr 2023 10:24:46.000,42.752,15.543,1523.171648
15 Apr 2023 10:25:46.000,50.968,10.031,1849.339937
15 Apr 2023 10:26:12.046,53.624,7.954,1999.977869
15 Apr 2023 11:59:25.536,304.678,7.945,1999.990890
15 Apr 2023 12:00:25.000,312.269,12.720,1677.674645
15 Apr 2023 12:01:25.000,323.671,18.272,1395.261018
15 Apr 2023 12:02:25.000,340.886,23.793,1188.261955
15 Apr 2023 12:03:25.000,4.313,26.718,1101.056112
15 Apr 2023 12:04:25.000,28.483,24.649,1161.307825
15 Apr 2023 12:05:25.000,46.969,19.362,1349.231037
15 Apr 2023 12:06:25.000,59.303,13.713,1620.473548
15 Apr 2023 12:07:25.000,67.515,8.749,1939.622847
15 Apr 2023 12:07:35.732,68.686,7.943,1999.979741
15 Apr 2023 13:40:11.727,302.771,7.953,1999.996775
15 Apr 2023 13:41:11.000,305.512,13.695,1621.683443
15 Apr 2023 13:42:11.000,310.113,21.824,1254.784522
15 Apr 2023 13:43:11.000,319.452,34.365,925.670644
15 Apr 2023 13:44:11.000,345.954,52.806,692.738768
15 Apr 2023 13:45:11.000,52.080,56.186,667.164664
15 Apr 2023 13:46:11.000,86.065,37.648,867.616814
15 Apr 2023 13:47:11.000,97.218,23.854,1183.951329
15 Apr 2023 13:48:11.000,102.400,15.038,1545.844897
15 Apr 2023 13:49:11.000,105.402,8.869,1926.839818
15 Apr 2023 13:49:22.335,105.836,7.889,1999.975386
15 Apr 2023 15:21:15.841,280.651,7.929,1999.989269
15 Apr 2023 15:22:15.000,273.530,12.799,1670.951679
15 Apr 2023 15:23:15.000,262.473,18.575,1379.538401
15 Apr 2023 15:24:15.000,245.249,24.447,1164.465684
15 Apr 2023 15:25:15.000,221.177,27.601,1073.612932
15 Apr 2023 15:26:15.000,196.310,25.290,1137.434164
15 Apr 2023 15:27:15.000,177.772,19.603,1333.637019
15 Apr 2023 15:28:15.000,165.775,13.697,1614.017275
15 Apr 2023 15:29:15.000,157.990,8.602,1941.574345
15 Apr 2023 15:29:25.155,156.953,7.825,1999.991241
16 Apr 2023 06:54:31.805,199.513,7.763,1999.996371
16 Apr 2023 06:55:31.000,191.756,12.434,1682.626307
16 Apr 2023 06:56:31.000,180.045,17.759,1407.876088
16 Apr 2023 06:57:31.000,162.664,22.762,1214.213705
16 Apr 2023 06:58:31.000,139.919,24.973,1144.558524
16 Apr 2023 06:59:31.000,117.326,22.629,1220.667225
16 Apr 2023 07:00:31.000,100.219,17.602,1419.086291
16 Apr 2023 07:01:31.000,88.734,12.312,1696.889294
16 Apr 2023 07:02:27.314,81.446,7.888,1999.997898
16 Apr 2023 08:34:23.906,251.604,7.835,1999.980028
16 Apr 2023 08:35:23.000,253.851,13.598,1619.974274
16 Apr 2023 08:36:23.000,257.661,21.844,1248.967864
16 Apr 2023 08:37:23.000,265.532,34.852,913.429282
16 Apr 2023 08:38:23.000,289.840,55.416,671.057363
16 Apr 2023 08:39:23.000,6.001,60.380,639.676322
16 Apr 2023 08:40:23.000,40.592,39.189,843.198802
16 Apr 2023 08:41:23.000,50.469,24.506,1163.792363
16 Apr 2023 08:42:23.000,54.924,15.405,1528.676128
16 Apr 2023 08:43:23.000,57.496,9.124,1911.639568
16 Apr 2023 08:43:36.634,57.941,7.936,1999.990614
16 Apr 2023 10:16:08.172,289.677,7.910,1999.990273
16 Apr 2023 10:17:08.000,297.197,12.759,1673.233286
16 Apr 2023 10:18:08.000,308.498,18.408,1387.754624
16 Apr 2023 10:19:08.000,325.719,24.106,1177.116252
16 Apr 2023 10:20:08.000,349.437,27.216,1086.696568
16 Apr 2023 10:21:08.000,14.057,25.148,1145.632866
16 Apr 2023 10:22:08.000,32.803,19.731,1334.055103
16 Apr 2023 10:23:08.000,45.209,13.967,1606.461637
16 Apr 2023 10:24:08.000,53.419,8.932,1926.752359
16 Apr 2023 10:24:20.965,54.820,7.951,1999.984720
16 Apr 2023 11:57:35.248,306.198,7.946,1999.983052
16 Apr 2023 11:58:35.000,313.234,12.933,1665.105123
16 Apr 2023 11:59:35.000,323.993,18.923,1367.363795
16 Apr 2023 12:00:35.000,340.978,25.335,1140.427187
16 Apr 2023 12:01:35.000,5.692,29.337,1033.203084
16 Apr 2023 12:02:35.000,32.321,27.394,1082.339343
16 Apr 2023 12:03:35.000,52.336,21.405,1269.686295
16 Apr 2023 12:04:35.000,65.135,15.097,1545.262244
16 Apr 2023 12:05:35.000,73.365,9.716,1869.696466
16 Apr 2023 12:05:57.669,75.716,7.931,1999.999628
16 Apr 2023 13:38:15.917,299.530,7.947,1999.990849
16 Apr 2023 13:39:15.000,300.323,13.789,1615.936539
16 Apr 2023 13:40:15.000,301.592,22.277,1238.264481
16 Apr 2023 13:41:15.000,304.172,36.251,891.322791
16 Apr 2023 13:42:15.000,313.819,62.212,630.612647
16 Apr 2023 13:43:15.000,89.803,73.142,586.993686
16 Apr 2023 13:44:15.000,110.346,42.515,797.114106
16 Apr 2023 13:45:15.000,113.836,25.709,1126.539072
16 Apr 2023 13:46:15.000,115.336,15.967,1497.751168
16 Apr 2023 13:47:15.000,116.210,9.431,1885.248313
16 Apr 2023 13:47:32.527,116.406,7.871,1999.991403
16 Apr 2023 15:19:46.932,271.088,7.912,2000.000097
16 Apr 2023 15:20:46.000,261.569,11.814,1729.226138
16 Apr 2023 15:21:46.000,248.355,15.589,1516.813842
16 Apr 2023 15:22:46.000,231.378,18.114,1397.323625
16 Apr 2023 15:23:46.000,212.598,18.141,1395.242683
16 Apr 2023 15:24:46.000,195.519,15.649,1510.972947
16 Apr 2023 15:25:46.000,182.169,11.875,1720.439840
16 Apr 2023 15:26:46.000,172.398,7.900,1993.579842
16 Apr 2023 15:26:47.296,172.220,7.816,1999.992780
17 Apr 2023 06:52:07.063,213.231,7.773,1999.999582
17 Apr 2023 06:53:07.000,207.880,13.192,1638.872762
17 Apr 2023 06:54:07.000,199.143,20.198,1306.843423
17 Apr 2023 06:55:07.000,183.529,28.989,1035.036165
17 Apr 2023 06:56:07.000,155.694,36.508,882.539581
17 Apr 2023 06:57:07.000,121.259,34.870,912.026688
17 Apr 2023 06:58:07.000,97.520,26.262,1109.011000
17 Apr 2023 06:59:07.000,84.552,17.964,1404.175930
17 Apr 2023 07:00:07.000,77.128,11.509,1747.669732
17 Apr 2023 07:00:48.479,73.709,7.901,1999.976614
17 Apr 2023 08:32:38.242,261.704,7.851,1999.987810
17 Apr 2023 08:33:38.000,265.726,13.492,1627.050712
17 Apr 2023 08:34:38.000,272.379,21.186,1273.659497
17 Apr 2023 08:35:38.000,285.180,32.156,966.789690
17 Apr 2023 08:36:38.000,314.029,45.027,766.317479
17 Apr 2023 08:37:38.000,1.441,45.418,762.293347
17 Apr 2023 08:38:38.000,31.189,32.694,957.132963
17 Apr 2023 08:39:38.000,44.371,21.606,1261.284750
17 Apr 2023 08:40:38.000,51.189,13.823,1613.242255
17 Apr 2023 08:41:38.000,55.319,8.111,1986.754129
17 Apr 2023 08:41:40.088,55.434,7.938,1999.982204
17 Apr 2023 10:14:28.723,295.782,7.919,1999.982084
17 Apr 2023 10:15:28.000,303.593,12.593,1683.575856
17 Apr 2023 10:16:28.000,315.244,17.952,1408.012931
17 Apr 2023 10:17:28.000,332.506,23.108,1209.766025
17 Apr 2023 10:18:28.000,355.381,25.633,1131.133264
17 Apr 2023 10:19:28.000,18.605,23.531,1196.217812
17 Apr 2023 10:20:28.000,36.482,18.508,1384.675598
17 Apr 2023 10:21:28.000,48.604,13.117,1654.304637
17 Apr 2023 10:22:28.000,56.790,8.325,1971.282182
17 Apr 2023 10:22:33.156,57.364,7.946,1999.993650
17 Apr 2023 11:55:41.777,306.450,7.945,1999.990889
17 Apr 2023 11:56:41.000,312.511,13.124,1653.826602
17 Apr 2023 11:57:41.000,322.110,19.702,1335.147527
17 Apr 2023 11:58:41.000,338.278,27.505,1079.291801
17 Apr 2023 11:59:41.000,4.693,33.594,940.413133
17 Apr 2023 12:00:41.000,35.844,32.088,970.729722
17 Apr 2023 12:01:41.000,58.581,24.756,1156.963941
17 Apr 2023 12:02:41.000,72.021,17.252,1439.341609
17 Apr 2023 12:03:41.000,80.161,11.165,1771.727549
17 Apr 2023 12:04:19.577,83.815,7.917,1999.982280
17 Apr 2023 13:36:21.950,295.292,7.940,1999.980970
17 Apr 2023 13:37:21.000,293.886,13.751,1617.420318
17 Apr 2023 13:38:21.000,291.309,22.143,1242.334159
17 Apr 2023 13:39:21.000,285.586,35.686,900.601581
17 Apr 2023 13:40:21.000,265.268,58.781,649.617599
17 Apr 2023 13:41:21.000,172.442,65.379,614.569004
17 Apr 2023 13:42:21.000,140.110,40.490,823.615290
17 Apr 2023 13:43:21.000,132.669,24.882,1150.121602
17 Apr 2023 13:44:21.000,129.563,15.510,1519.375397
17 Apr 2023 13:45:21.000,127.892,9.124,1905.691186
17 Apr 2023 13:45:35.440,127.601,7.852,1999.983972
17 Apr 2023 15:18:42.958,256.931,7.888,1999.990125
17 Apr 2023 15:19:42.000,245.333,10.269,1827.421815
17 Apr 2023 15:20:42.000,231.515,11.704,1733.145655
17 Apr 2023 15:21:42.000,216.860,11.671,1734.151147
17 Apr 2023 15:22:42.000,203.077,10.179,1830.169891
17 Apr 2023 15:23:39.946,191.716,7.815,1999.989880
18 Apr 2023 05:13:02.662,150.812,7.766,1999.997919
18 Apr 2023 05:14:02.000,138.366,8.699,1931.211423
18 Apr 2023 05:15:02.000,125.404,8.503,1947.037633
18 Apr 2023 05:15:39.438,117.655,7.813,1999.992013
18 Apr 2023 06:49:55.056,225.676,7.786,1999.991346
18 Apr 2023 06:50:55.000,222.828,13.588,1617.276146
18 Apr 2023 06:51:55.000,217.892,21.692,1251.714074
18 Apr 2023 06:52:55.000,207.630,34.020,926.911027
18 Apr 2023 06:53:55.000,179.461,51.069,703.912943
18 Apr 2023 06:54:55.000,119.142,52.696,690.795277
18 Apr 2023 06:55:55.000,87.351,35.775,896.846718
18 Apr 2023 06:56:55.000,76.084,22.872,1214.744147
18 Apr 2023 06:57:55.000,70.825,14.434,1577.454217
18 Apr 2023 06:58:55.000,67.858,8.447,1959.241474
18 Apr 2023 06:59:01.307,67.621,7.909,1999.990543
18 Apr 2023 08:30:56.686,271.129,7.867,1999.982290
18 Apr 2023 08:31:56.000,276.524,13.209,1644.183940
18 Apr 2023 08:32:56.000,285.230,20.187,1312.414598
18 Apr 2023 08:33:56.000,300.587,29.027,1038.133195
18 Apr 2023 08:34:56.000,328.135,36.950,878.382102
18 Apr 2023 08:35:56.000,3.346,35.867,897.202347
18 Apr 2023 08:36:56.000,28.203,27.240,1085.216572
18 Apr 2023 08:37:56.000,41.868,18.733,1374.097694
18 Apr 2023 08:38:56.000,49.767,12.120,1712.730511
18 Apr 2023 08:39:43.670,53.930,7.938,1999.982202
18 Apr 2023 10:12:46.342,300.541,7.925,2000.000052
18 Apr 2023 10:13:46.000,308.495,12.600,1683.461671
18 Apr 2023 10:14:46.000,320.260,17.896,1410.685119
18 Apr 2023 10:15:46.000,337.574,22.923,1216.058111
18 Apr 2023 10:16:46.000,0.294,25.292,1141.176291
18 Apr 2023 10:17:46.000,23.197,23.146,1208.782403
18 Apr 2023 10:18:46.000,40.837,18.192,1398.140088
18 Apr 2023 10:19:46.000,52.852,12.880,1667.727206
18 Apr 2023 10:20:46.000,61.001,8.145,1984.325974
18 Apr 2023 10:20:48.820,61.316,7.940,1999.984531
18 Apr 2023 11:53:46.036,305.555,7.943,1999.982813
18 Apr 2023 11:54:46.000,310.474,13.458,1634.408932
18 Apr 2023 11:55:46.000,318.435,20.754,1293.775778
18 Apr 2023 11:56:46.000,332.990,30.464,1006.217589
18 Apr 2023 11:57:46.000,1.412,40.129,830.549244
18 Apr 2023 11:58:46.000,40.764,39.398,840.966723
18 Apr 2023 11:59:46.000,67.418,29.337,1031.868353
18 Apr 2023 12:00:46.000,81.006,19.858,1327.073574
18 Apr 2023 12:01:46.000,88.523,12.777,1671.456301
18 Apr 2023 12:02:39.696,92.803,7.901,1999.974271
18 Apr 2023 13:34:31.550,289.944,7.931,1999.976198
18 Apr 2023 13:35:31.000,286.112,13.555,1627.674205
18 Apr 2023 13:36:31.000,279.542,21.254,1273.602978
18 Apr 2023 13:37:31.000,266.627,32.167,967.542807
18 Apr 2023 13:38:31.000,237.505,44.632,770.842851
18 Apr 2023 13:39:31.000,191.182,44.408,773.004656
18 Apr 2023 13:40:31.000,162.546,31.846,972.666655
18 Apr 2023 13:41:31.000,149.820,20.993,1280.001795
18 Apr 2023 13:42:31.000,143.304,13.341,1634.543255
18 Apr 2023 13:43:29.356,139.526,7.835,1999.989889
19 Apr 2023 05:09:14.069,177.485,7.751,1999.985038
19 Apr 2023 05:10:14.000,166.530,10.933,1775.505130
19 Apr 2023 05:11:14.000,152.707,13.426,1625.230638
19 Apr 2023 05:12:14.000,136.812,14.418,1571.730682
19 Apr 2023 05:13:14.000,120.910,13.474,1624.902252
19 Apr 2023 05:14:14.000,107.076,11.015,1775.084077
19 Apr 2023 05:15:13.970,96.115,7.850,1999.988045
19 Apr 2023 06:47:52.852,237.263,7.802,1999.981936
19 Apr 2023 06:48:52.000,236.787,13.653,1614.648088
19 Apr 2023 06:49:52.000,235.867,22.154,1236.124561
19 Apr 2023 06:50:52.000,233.707,36.183,888.413153
19 Apr 2023 06:51:52.000,224.794,62.368,627.487894
19 Apr 2023 06:52:52.000,86.489,73.121,585.554519
19 Apr 2023 06:53:52.000,67.523,42.363,797.996338
19 Apr 2023 06:54:52.000,64.537,25.622,1128.844482
19 Apr 2023 06:55:52.000,63.411,15.926,1500.929866
19 Apr 2023 06:56:52.000,62.870,9.418,1889.022891
19 Apr 2023 06:57:08.930,62.771,7.915,1999.985059
19 Apr 2023 08:29:17.541,279.755,7.881,1999.985339
19 Apr 2023 08:30:17.000,286.257,12.978,1658.393069
19 Apr 2023 08:31:17.000,296.410,19.295,1348.791426
19 Apr 2023 08:32:17.000,313.021,26.452,1105.968108
19 Apr 2023 08:33:17.000,338.686,31.508,981.944901
19 Apr 2023 08:34:17.000,7.588,29.775,1021.398367
19 Apr 2023 08:35:17.000,28.995,23.138,1208.241398
19 Apr 2023 08:36:17.000,42.162,16.242,1487.369162
19 Apr 2023 08:37:17.000,50.379,10.507,1815.902814
19 Apr 2023 08:37:48.538,53.512,7.937,1999.999505
19 Apr 2023 10:11:00.263,303.888,7.928,1999.998841
19 Apr 2023 10:12:00.000,311.650,12.681,1678.797239
19 Apr 2023 10:13:00.000,323.211,18.135,1400.176886
19 Apr 2023 10:14:00.000,340.492,23.459,1198.174146
19 Apr 2023 10:15:00.000,3.663,26.149,1116.145074
19 Apr 2023 10:16:00.000,27.323,24.033,1179.715436
19 Apr 2023 10:17:00.000,45.457,18.875,1368.554486
19 Apr 2023 10:18:00.000,57.652,13.361,1639.394331
19 Apr 2023 10:19:00.000,65.832,8.491,1957.720209
19 Apr 2023 10:19:07.549,66.663,7.931,1999.984979
19 Apr 2023 11:51:49.111,303.616,7.939,1999.983263
19 Apr 2023 11:52:49.000,306.969,13.684,1621.315655
19 Apr 2023 11:53:49.000,312.535,21.653,1260.086512
19 Apr 2023 11:54:49.000,323.606,33.563,940.418086
19 Apr 2023 11:55:49.000,351.919,49.404,721.942582
19 Apr 2023 11:56:49.000,48.351,51.032,706.945963
19 Apr 2023 11:57:49.000,80.449,35.373,905.693655
19 Apr 2023 11:58:49.000,92.701,22.828,1217.203819
19 Apr 2023 11:59:49.000,98.674,14.471,1575.190879
19 Apr 2023 12:00:49.000,102.195,8.502,1953.313320
19 Apr 2023 12:00:56.283,102.528,7.883,1999.980417
19 Apr 2023 13:32:47.118,283.223,7.919,1999.984825
19 Apr 2023 13:33:47.000,276.821,13.086,1653.550207
19 Apr 2023 13:34:47.000,266.672,19.436,1343.140867
19 Apr 2023 13:35:47.000,249.855,26.540,1102.588669
19 Apr 2023 13:36:47.000,223.996,31.256,985.618074
19 Apr 2023 13:37:47.000,195.596,29.071,1035.411490
19 Apr 2023 13:38:47.000,175.039,22.322,1231.691394
19 Apr 2023 13:39:47.000,162.537,15.499,1518.059217
19 Apr 2023 13:40:47.000,154.808,9.850,1852.335085
19 Apr 2023 13:41:12.012,152.445,7.820,1999.982169
20 Apr 2023 05:06:21.589,194.637,7.753,1999.999956
20 Apr 2023 05:07:21.000,186.053,12.143,1699.480237
20 Apr 2023 05:08:21.000,173.580,16.828,1449.706197
20 Apr 2023 05:09:21.000,156.197,20.711,1286.949593
20 Apr 2023 05:10:21.000,135.178,21.837,1246.588469
20 Apr 2023 05:11:21.000,115.207,19.410,1339.957891
20 Apr 2023 05:12:21.000,99.857,15.028,1542.722907
20 Apr 2023 05:13:21.000,89.115,10.394,1818.071460
20 Apr 2023 05:13:55.937,84.453,7.870,1999.984202
20 Apr 2023 06:45:58.484,248.178,7.819,1999.981049
20 Apr 2023 06:46:58.000,249.814,13.670,1614.755097
20 Apr 2023 06:47:58.000,252.568,22.069,1239.967351
20 Apr 2023 06:48:58.000,258.342,35.650,898.283086
20 Apr 2023 06:49:58.000,278.278,58.995,646.805204
20 Apr 2023 06:50:58.000,13.450,66.040,610.946893
20 Apr 2023 06:51:58.000,45.930,40.779,819.552146
20 Apr 2023 06:52:58.000,53.432,25.071,1145.560389
20 Apr 2023 06:53:58.000,56.711,15.669,1514.128091
20 Apr 2023 06:54:58.000,58.601,9.274,1899.623358
20 Apr 2023 06:55:13.403,58.970,7.919,1999.990399
20 Apr 2023 08:27:39.042,287.415,7.893,1999.977020
20 Apr 2023 08:28:39.000,294.767,12.811,1668.918300
20 Apr 2023 08:29:39.000,305.873,18.597,1378.529062
20 Apr 2023 08:30:39.000,323.038,24.570,1161.610470
20 Apr 2023 08:31:39.000,347.168,28.003,1065.031566
20 Apr 2023 08:32:39.000,12.538,25.967,1120.680401
20 Apr 2023 08:33:39.000,31.747,20.338,1309.071333
20 Apr 2023 08:34:39.000,44.296,14.377,1582.930967
20 Apr 2023 08:35:39.000,52.513,9.218,1904.942466
20 Apr 2023 08:35:55.710,54.291,7.935,1999.999493
20 Apr 2023 10:09:10.347,305.844,7.930,1999.990811
20 Apr 2023 10:10:10.000,313.093,12.837,1669.610274
20 Apr 2023 10:11:10.000,324.106,18.660,1377.439548
20 Apr 2023 10:12:10.000,341.200,24.726,1157.872588
20 Apr 2023 10:13:10.000,5.430,28.295,1058.201113
20 Apr 2023 10:14:10.000,31.084,26.298,1111.582510
