aer_data/WS_AER.csv

Time (UTCG),Azimuth (deg),Elevation (deg),Range (km)
31 Mar 2023 17:32:53.499,308.524,7.953,1999.984375
31 Mar 2023 17:33:53.000,316.526,12.586,1685.901802
31 Mar 2023 17:34:53.000,328.349,17.820,1415.164110
31 Mar 2023 17:35:53.000,345.653,22.740,1222.936493
31 Mar 2023 17:36:53.000,8.203,25.002,1150.190067
31 Mar 2023 17:37:53.000,30.852,22.847,1218.819522
31 Mar 2023 17:38:53.000,48.332,17.956,1408.114588
31 Mar 2023 17:39:53.000,60.288,12.706,1677.176254
31 Mar 2023 17:40:53.000,68.425,8.011,1993.197809
31 Mar 2023 17:40:54.227,68.562,7.922,1999.990535
31 Mar 2023 19:13:35.004,303.899,7.944,1999.984420
31 Mar 2023 19:14:35.000,306.537,13.775,1616.280011
31 Mar 2023 19:15:35.000,310.932,21.975,1248.354803
31 Mar 2023 19:16:35.000,319.929,34.733,917.791413
31 Mar 2023 19:17:35.000,346.276,53.864,683.458011
31 Mar 2023 19:18:35.000,55.442,57.240,659.004677
31 Mar 2023 19:19:35.000,89.137,37.870,862.611195
31 Mar 2023 19:20:35.000,99.791,23.873,1181.296286
31 Mar 2023 19:21:35.000,104.705,15.010,1544.657205
31 Mar 2023 19:22:35.000,107.547,8.829,1926.624938
31 Mar 2023 19:22:46.349,107.958,7.847,2000.000033
31 Mar 2023 20:54:44.086,279.247,7.900,2000.000040
31 Mar 2023 20:55:44.000,271.441,12.643,1677.831388
31 Mar 2023 20:56:44.000,259.716,17.991,1402.476302
31 Mar 2023 20:57:44.000,242.245,23.006,1208.547530
31 Mar 2023 20:58:44.000,219.349,25.170,1139.249643
31 Mar 2023 20:59:44.000,196.659,22.720,1216.269455
31 Mar 2023 21:00:44.000,179.543,17.601,1415.609639
31 Mar 2023 21:01:44.000,168.071,12.258,1693.973738
31 Mar 2023 21:02:40.805,160.731,7.773,1999.999786
1 Apr 2023 12:27:22.982,207.838,7.793,1999.981125
1 Apr 2023 12:28:22.000,201.683,12.916,1656.268839
1 Apr 2023 12:29:22.000,191.804,19.354,1341.733847
1 Apr 2023 12:30:22.000,175.280,26.727,1094.750306
1 Apr 2023 12:31:22.000,149.263,31.945,969.745211
1 Apr 2023 12:32:22.000,119.992,30.004,1013.489319
1 Apr 2023 12:33:22.000,98.799,23.083,1207.685976
1 Apr 2023 12:34:22.000,86.091,16.056,1494.270524
1 Apr 2023 12:35:22.000,78.344,10.277,1829.543762
1 Apr 2023 12:35:50.729,75.681,7.917,1999.998079
1 Apr 2023 14:07:43.067,258.378,7.869,1999.984115
1 Apr 2023 14:08:43.000,262.113,13.574,1623.679362
1 Apr 2023 14:09:43.000,268.310,21.401,1266.822212
1 Apr 2023 14:10:43.000,280.431,32.795,954.477546
1 Apr 2023 14:11:43.000,309.233,46.883,746.628603
1 Apr 2023 14:12:43.000,0.111,47.708,738.475771
1 Apr 2023 14:13:43.000,30.832,33.837,935.202208
1 Apr 2023 14:14:43.000,43.676,22.156,1242.500404
1 Apr 2023 14:15:43.000,50.162,14.134,1596.945035
1 Apr 2023 14:16:43.000,54.053,8.315,1972.272147
1 Apr 2023 14:16:47.353,54.276,7.950,1999.969717
1 Apr 2023 15:49:40.372,295.501,7.935,1999.980340
1 Apr 2023 15:50:40.000,303.808,12.476,1691.584150
1 Apr 2023 15:51:40.000,315.918,17.487,1429.737884
1 Apr 2023 15:52:40.000,333.253,21.998,1248.665227
1 Apr 2023 15:53:40.000,355.184,23.838,1186.711607
1 Apr 2023 15:54:40.000,16.821,21.638,1261.751368
1 Apr 2023 15:55:40.000,33.612,17.004,1452.443852
1 Apr 2023 15:56:40.000,45.285,12.019,1720.167765
1 Apr 2023 15:57:33.793,52.643,7.950,1999.976440
1 Apr 2023 17:31:04.536,309.356,7.954,1999.998066
1 Apr 2023 17:32:04.000,316.636,12.824,1671.788658
1 Apr 2023 17:33:04.000,327.698,18.600,1381.044463
1 Apr 2023 17:34:04.000,344.793,24.576,1163.209311
1 Apr 2023 17:35:04.000,8.876,28.043,1065.096984
1 Apr 2023 17:36:04.000,34.288,26.042,1119.089526
1 Apr 2023 17:37:04.000,53.571,20.408,1306.333465
1 Apr 2023 17:38:04.000,66.166,14.424,1579.634709
1 Apr 2023 17:39:04.000,74.401,9.243,1901.492615
1 Apr 2023 17:39:21.306,76.241,7.910,1999.976927
1 Apr 2023 19:11:41.890,300.119,7.939,1999.983407
1 Apr 2023 19:12:41.000,300.635,13.784,1615.341830
1 Apr 2023 19:13:41.000,301.420,22.284,1237.055543
1 Apr 2023 19:14:41.000,302.951,36.325,889.134991
1 Apr 2023 19:15:41.000,308.610,62.767,626.945546
1 Apr 2023 19:16:41.000,102.635,74.435,582.612144
1 Apr 2023 19:17:41.000,115.273,42.680,793.707148
1 Apr 2023 19:18:41.000,117.321,25.728,1124.102099
1 Apr 2023 19:19:41.000,118.227,15.953,1495.977612
1 Apr 2023 19:20:41.000,118.774,9.407,1883.951676
1 Apr 2023 19:20:58.707,118.900,7.830,1999.994119
1 Apr 2023 20:53:23.162,268.575,7.882,1999.981682
1 Apr 2023 20:54:23.000,258.342,11.510,1745.724370
1 Apr 2023 20:55:23.000,244.766,14.718,1559.147615
1 Apr 2023 20:56:23.000,228.163,16.507,1468.090004
1 Apr 2023 20:57:23.000,210.652,16.022,1490.435671
1 Apr 2023 20:58:23.000,195.080,13.513,1621.330942
1 Apr 2023 20:59:23.000,182.827,10.022,1837.204200
1 Apr 2023 20:59:59.812,176.890,7.770,1999.993051
2 Apr 2023 12:25:09.446,220.873,7.804,1999.979181
2 Apr 2023 12:26:09.000,217.224,13.468,1625.343093
2 Apr 2023 12:27:09.000,210.985,21.261,1268.513921
2 Apr 2023 12:28:09.000,198.602,32.500,957.908752
2 Apr 2023 12:29:09.000,169.554,45.933,754.900210
2 Apr 2023 12:30:09.000,120.701,46.137,753.240315
2 Apr 2023 12:31:09.000,91.231,32.793,953.992942
2 Apr 2023 12:32:09.000,78.700,21.510,1263.621222
2 Apr 2023 12:33:09.000,72.427,13.682,1620.062376
2 Apr 2023 12:34:09.000,68.767,7.960,1997.417915
2 Apr 2023 12:34:09.404,68.748,7.927,1999.999385
2 Apr 2023 14:06:04.513,268.370,7.886,1999.999576
2 Apr 2023 14:07:04.000,273.669,13.270,1641.952854
2 Apr 2023 14:08:04.000,282.229,20.319,1308.411469
2 Apr 2023 14:09:04.000,297.444,29.337,1031.549579
2 Apr 2023 14:10:04.000,325.184,37.585,868.805991
2 Apr 2023 14:11:04.000,1.144,36.559,886.097499
2 Apr 2023 14:12:04.000,26.338,27.672,1074.642821
2 Apr 2023 14:13:04.000,39.998,18.980,1364.666321
2 Apr 2023 14:14:04.000,47.830,12.276,1704.309265
2 Apr 2023 14:14:52.937,52.033,7.952,1999.987160
2 Apr 2023 15:48:04.157,301.131,7.942,1999.993112
2 Apr 2023 15:49:04.000,309.719,12.403,1696.432465
2 Apr 2023 15:50:04.000,322.068,17.210,1442.658262
2 Apr 2023 15:51:04.000,339.405,21.371,1271.419297
2 Apr 2023 15:52:04.000,0.810,22.868,1218.755268
2 Apr 2023 15:53:04.000,21.629,20.626,1299.350139
2 Apr 2023 15:54:04.000,37.850,16.183,1491.492608
2 Apr 2023 15:55:04.000,49.270,11.404,1758.414137
2 Apr 2023 15:55:50.960,55.746,7.946,1999.979869
2 Apr 2023 17:29:12.463,308.943,7.953,1999.990331
2 Apr 2023 17:30:12.000,315.202,13.120,1654.386714
2 Apr 2023 17:31:12.000,325.031,19.600,1339.306618
2 Apr 2023 17:32:12.000,341.405,27.152,1088.600051
2 Apr 2023 17:33:12.000,7.573,32.810,955.715960
2 Apr 2023 17:34:12.000,37.831,31.173,989.922838
2 Apr 2023 17:35:12.000,60.016,24.098,1176.685341
2 Apr 2023 17:36:12.000,73.331,16.827,1458.045158
2 Apr 2023 17:37:12.000,81.485,10.874,1789.177405
2 Apr 2023 17:37:47.790,84.931,7.896,1999.990978
2 Apr 2023 19:09:51.207,295.342,7.932,1999.977322
2 Apr 2023 19:10:51.000,293.505,13.800,1613.923075
2 Apr 2023 19:11:51.000,290.212,22.150,1241.184321
2 Apr 2023 19:12:51.000,283.013,35.455,903.811319
2 Apr 2023 19:13:51.000,259.116,56.916,660.770223
2 Apr 2023 19:14:51.000,178.274,61.360,633.465443
2 Apr 2023 19:15:51.000,145.448,39.050,843.214738
2 Apr 2023 19:16:51.000,136.653,24.236,1168.168850
2 Apr 2023 19:17:51.000,132.847,15.135,1536.085940
2 Apr 2023 19:18:51.000,130.759,8.866,1921.444814
2 Apr 2023 19:19:03.054,130.450,7.814,1999.975413
2 Apr 2023 20:52:36.012,251.679,7.852,1999.993871
2 Apr 2023 20:53:36.000,239.439,9.669,1865.631901
2 Apr 2023 20:54:36.000,225.827,10.371,1816.237417
2 Apr 2023 20:55:36.000,212.160,9.729,1858.716082
2 Apr 2023 20:56:36.000,199.782,7.951,1986.922141
2 Apr 2023 20:56:40.643,198.904,7.779,1999.999941
3 Apr 2023 10:44:59.540,168.589,7.775,1999.990028
3 Apr 2023 10:45:59.000,156.950,10.241,1823.181078
3 Apr 2023 10:46:59.000,143.117,11.769,1725.520604
3 Apr 2023 10:47:59.000,128.376,11.826,1723.271422
3 Apr 2023 10:48:59.000,114.466,10.393,1816.898802
3 Apr 2023 10:49:59.000,102.627,7.958,1992.696891
3 Apr 2023 10:50:01.072,102.261,7.863,1999.998162
3 Apr 2023 12:23:07.016,232.937,7.819,1999.990874
3 Apr 2023 12:24:07.000,231.757,13.749,1610.544290
3 Apr 2023 12:25:07.000,229.630,22.236,1234.359528
3 Apr 2023 12:26:07.000,224.868,36.083,891.009958
3 Apr 2023 12:27:07.000,206.959,60.492,638.304425
3 Apr 2023 12:28:07.000,102.725,67.627,604.737991
3 Apr 2023 12:29:07.000,73.329,40.939,817.819389
3 Apr 2023 12:30:07.000,67.204,25.048,1146.975307
3 Apr 2023 12:31:07.000,64.708,15.618,1517.663152
3 Apr 2023 12:32:07.000,63.400,9.218,1904.773824
3 Apr 2023 12:32:21.562,63.177,7.934,1999.996846
3 Apr 2023 14:04:29.375,277.658,7.901,1999.977960
3 Apr 2023 14:05:29.000,284.244,12.999,1658.577588
3 Apr 2023 14:06:29.000,294.488,19.279,1350.688111
3 Apr 2023 14:07:29.000,311.171,26.337,1110.248918
3 Apr 2023 14:08:29.000,336.723,31.233,988.886246
3 Apr 2023 14:09:29.000,5.287,29.452,1030.010791
3 Apr 2023 14:10:29.000,26.474,22.906,1217.073179
3 Apr 2023 14:11:29.000,39.579,16.094,1495.719416
3 Apr 2023 14:12:29.000,47.793,10.410,1823.626777
3 Apr 2023 14:12:59.285,50.819,7.953,1999.990715
3 Apr 2023 15:46:24.094,305.298,7.947,2000.000055
3 Apr 2023 15:47:24.000,313.857,12.428,1695.181629
3 Apr 2023 15:48:24.000,326.174,17.268,1440.152005
3 Apr 2023 15:49:24.000,343.521,21.483,1267.390981
3 Apr 2023 15:50:24.000,5.018,23.028,1213.331389
3 Apr 2023 15:51:24.000,25.967,20.786,1293.155166
3 Apr 2023 15:52:24.000,42.274,16.308,1485.184211
3 Apr 2023 15:53:24.000,53.729,11.493,1752.350291
3 Apr 2023 15:54:12.036,60.341,7.940,1999.986950
3 Apr 2023 17:27:18.382,307.423,7.951,1999.999895
3 Apr 2023 17:28:18.000,312.332,13.423,1636.788796
3 Apr 2023 17:29:18.000,320.306,20.688,1296.383690
3 Apr 2023 17:30:18.000,334.849,30.339,1009.003577
3 Apr 2023 17:31:18.000,3.138,39.930,833.190000
3 Apr 2023 17:32:18.000,42.277,39.249,842.821686
3 Apr 2023 17:33:18.000,68.931,29.276,1032.757299
3 Apr 2023 17:34:18.000,82.572,19.830,1327.284854
3 Apr 2023 17:35:18.000,90.128,12.759,1671.256050
3 Apr 2023 17:36:11.767,94.434,7.880,1999.991737
3 Apr 2023 19:08:04.837,289.417,7.924,1999.972608
3 Apr 2023 19:09:04.000,285.101,13.435,1633.748101
3 Apr 2023 19:10:04.000,277.775,20.888,1286.346937
3 Apr 2023 19:11:04.000,263.831,31.043,990.783190
3 Apr 2023 19:12:04.000,235.026,41.590,807.849768
3 Apr 2023 19:13:04.000,193.588,40.810,817.825048
3 Apr 2023 19:14:04.000,166.615,29.882,1014.975922
3 Apr 2023 19:15:04.000,153.569,19.971,1317.252558
3 Apr 2023 19:16:04.000,146.604,12.728,1667.614696
3 Apr 2023 19:16:57.599,142.755,7.799,1999.999391
4 Apr 2023 10:41:55.237,188.093,7.770,1999.986307
4 Apr 2023 10:42:55.000,178.536,11.775,1723.413366
4 Apr 2023 10:43:55.000,165.352,15.658,1507.697067
4 Apr 2023 10:44:55.000,148.296,18.332,1384.451008
4 Apr 2023 10:45:55.000,129.287,18.477,1379.305098
4 Apr 2023 10:46:55.000,111.952,16.011,1493.582203
4 Apr 2023 10:47:55.000,98.437,12.204,1703.103744
4 Apr 2023 10:48:55.000,88.603,8.186,1977.218418
4 Apr 2023 10:48:59.568,87.978,7.887,1999.998309
4 Apr 2023 12:21:13.454,244.301,7.835,1999.981932
4 Apr 2023 12:22:13.000,245.415,13.718,1613.282763
4 Apr 2023 12:23:13.000,247.271,22.199,1236.470839
4 Apr 2023 12:24:13.000,251.163,36.099,891.331357
4 Apr 2023 12:25:13.000,265.561,61.294,634.255976
4 Apr 2023 12:26:13.000,22.578,70.466,594.737321
4 Apr 2023 12:27:13.000,49.667,41.882,805.507990
4 Apr 2023 12:28:13.000,54.868,25.493,1134.202188
4 Apr 2023 12:29:13.000,57.113,15.888,1504.607702
4 Apr 2023 12:30:13.000,58.420,9.412,1891.355836
4 Apr 2023 12:30:29.626,58.697,7.940,1999.985602
4 Apr 2023 14:02:55.810,286.076,7.913,1999.989541
4 Apr 2023 14:03:55.000,293.542,12.692,1677.430726
4 Apr 2023 14:04:55.000,304.841,18.300,1392.641485
4 Apr 2023 14:05:55.000,322.003,23.937,1182.652598
4 Apr 2023 14:06:55.000,345.566,27.010,1092.418090
4 Apr 2023 14:07:55.000,10.031,24.983,1150.758431
4 Apr 2023 14:08:55.000,28.725,19.633,1338.151114
4 Apr 2023 14:09:55.000,41.144,13.914,1609.561030
4 Apr 2023 14:10:55.000,49.382,8.903,1929.038099
4 Apr 2023 14:11:07.590,50.750,7.953,1999.990922
4 Apr 2023 15:44:39.673,307.976,7.950,1999.980287
4 Apr 2023 15:45:39.000,316.113,12.510,1690.371655
4 Apr 2023 15:46:39.000,328.084,17.614,1424.431038
4 Apr 2023 15:47:39.000,345.385,22.302,1238.097955
4 Apr 2023 15:48:39.000,7.568,24.334,1170.881626
4 Apr 2023 15:49:39.000,29.647,22.167,1242.544944
4 Apr 2023 15:50:39.000,46.754,17.428,1432.185171
4 Apr 2023 15:51:39.000,58.568,12.328,1700.236889
4 Apr 2023 15:52:36.291,66.370,7.931,1999.982055
4 Apr 2023 17:25:23.513,304.901,7.948,1999.992243
4 Apr 2023 17:26:23.000,308.112,13.660,1623.100532
4 Apr 2023 17:27:23.000,313.474,21.645,1260.548180
4 Apr 2023 17:28:23.000,324.175,33.657,938.567529
4 Apr 2023 17:29:23.000,352.076,49.995,716.315066
4 Apr 2023 17:30:23.000,50.174,52.056,697.942992
4 Apr 2023 17:31:23.000,82.839,35.884,896.202164
4 Apr 2023 17:32:23.000,94.959,23.068,1208.372701
4 Apr 2023 17:33:23.000,100.802,14.603,1567.054620
4 Apr 2023 17:34:23.000,104.230,8.585,1945.746020
4 Apr 2023 17:34:31.451,104.604,7.863,1999.976938
4 Apr 2023 19:06:25.518,282.008,7.912,1999.989365
4 Apr 2023 19:07:25.000,275.080,12.877,1664.987573
4 Apr 2023 19:08:25.000,264.271,18.820,1367.712204
4 Apr 2023 19:09:25.000,247.124,25.040,1144.939566
4 Apr 2023 19:10:25.000,222.514,28.606,1046.423453
4 Apr 2023 19:11:25.000,196.680,26.315,1106.203414
4 Apr 2023 19:12:25.000,177.575,20.345,1302.411688
4 Apr 2023 19:13:25.000,165.417,14.190,1584.535002
4 Apr 2023 19:14:25.000,157.633,8.942,1914.089169
4 Apr 2023 19:14:39.811,156.152,7.788,1999.982970
5 Apr 2023 10:39:20.023,203.417,7.775,1999.990823
5 Apr 2023 10:40:20.000,196.315,12.764,1663.968828
5 Apr 2023 10:41:20.000,185.375,18.668,1369.183947
5 Apr 2023 10:42:20.000,168.153,24.795,1149.692435
5 Apr 2023 10:43:20.000,143.690,28.242,1054.755024
5 Apr 2023 10:44:20.000,118.194,25.964,1117.039030
5 Apr 2023 10:45:20.000,99.318,20.116,1314.228334
5 Apr 2023 10:46:20.000,87.257,14.069,1596.561252
5 Apr 2023 10:47:20.000,79.522,8.888,1926.161803
5 Apr 2023 10:47:32.741,78.247,7.903,1999.982386
5 Apr 2023 12:19:27.054,255.073,7.852,1999.973521
5 Apr 2023 12:20:27.000,258.227,13.628,1619.421153
5 Apr 2023 12:21:27.000,263.499,21.668,1256.194532
5 Apr 2023 12:22:27.000,274.099,33.812,933.652614
5 Apr 2023 12:23:27.000,302.127,50.447,711.464393
5 Apr 2023 12:24:27.000,1.193,52.439,694.785312
5 Apr 2023 12:25:27.000,33.739,35.998,895.146589
5 Apr 2023 12:26:27.000,45.677,23.133,1208.506477
5 Apr 2023 12:27:27.000,51.433,14.667,1567.685968
5 Apr 2023 12:28:27.000,54.826,8.655,1946.470816
5 Apr 2023 12:28:35.339,55.193,7.944,1999.976799
5 Apr 2023 14:01:21.912,293.422,7.924,1999.991002
5 Apr 2023 14:02:21.000,301.501,12.474,1691.058980
5 Apr 2023 14:03:21.000,313.437,17.594,1424.351838
5 Apr 2023 14:04:21.000,330.717,22.315,1237.108866
5 Apr 2023 14:05:21.000,352.923,24.389,1168.965279
5 Apr 2023 14:06:21.000,15.063,22.246,1239.936368
5 Apr 2023 14:07:21.000,32.226,17.506,1429.191234
5 Apr 2023 14:08:21.000,44.073,12.399,1697.028850
5 Apr 2023 14:09:18.906,51.965,7.951,1999.985408
5 Apr 2023 15:42:51.085,309.232,7.951,1999.999317
5 Apr 2023 15:43:51.000,316.842,12.778,1674.421264
5 Apr 2023 15:44:51.000,328.226,18.367,1391.074581
5 Apr 2023 15:45:51.000,345.474,23.947,1183.027396
5 Apr 2023 15:46:51.000,9.037,26.918,1095.094963
5 Apr 2023 15:47:51.000,33.371,24.819,1155.418390
5 Apr 2023 15:48:51.000,51.927,19.466,1344.027638
5 Apr 2023 15:49:51.000,64.260,13.767,1616.102704
5 Apr 2023 15:50:51.000,72.449,8.775,1936.013251
5 Apr 2023 15:51:02.349,73.680,7.920,1999.994766
5 Apr 2023 17:23:29.143,301.425,7.943,1999.990930
5 Apr 2023 17:24:29.000,302.649,13.855,1611.781484
5 Apr 2023 17:25:29.000,304.653,22.338,1235.549855
5 Apr 2023 17:26:29.000,308.829,36.227,891.174955
5 Apr 2023 17:27:29.000,324.186,61.240,635.304165
5 Apr 2023 17:28:29.000,78.232,69.788,597.035031
5 Apr 2023 17:29:29.000,105.927,41.615,808.070096
5 Apr 2023 17:30:29.000,111.391,25.321,1136.715539
5 Apr 2023 17:31:29.000,113.739,15.746,1507.145462
5 Apr 2023 17:32:29.000,115.085,9.281,1894.028185
5 Apr 2023 17:32:45.209,115.359,7.846,1999.980836
5 Apr 2023 19:04:58.129,272.367,7.896,1999.986690
5 Apr 2023 19:05:58.000,262.873,11.935,1720.363711
5 Apr 2023 19:06:58.000,249.719,15.859,1501.845460
5 Apr 2023 19:07:58.000,232.600,18.578,1375.777630
5 Apr 2023 19:08:58.000,213.430,18.727,1368.395937
5 Apr 2023 19:09:58.000,195.920,16.209,1481.414729
5 Apr 2023 19:10:58.000,182.285,12.331,1690.405252
5 Apr 2023 19:11:58.000,172.376,8.254,1964.244058
5 Apr 2023 19:12:05.157,171.397,7.782,1999.999553
6 Apr 2023 10:37:01.509,216.852,7.785,1999.980257
6 Apr 2023 10:38:01.000,212.393,13.316,1632.602703
6 Apr 2023 10:39:01.000,204.910,20.747,1286.559074
6 Apr 2023 10:40:01.000,190.777,30.811,993.140164
6 Apr 2023 10:41:01.000,161.995,41.107,813.239726
6 Apr 2023 10:42:01.000,121.245,40.263,825.622444
6 Apr 2023 10:43:01.000,94.586,29.599,1023.311190
6 Apr 2023 10:44:01.000,81.552,19.864,1325.330180
6 Apr 2023 10:45:01.000,74.568,12.705,1675.382637
6 Apr 2023 10:45:53.396,70.787,7.914,1999.999225
6 Apr 2023 12:17:46.244,265.259,7.868,1999.974362
6 Apr 2023 12:18:46.000,270.111,13.371,1634.996808
6 Apr 2023 12:19:46.000,278.012,20.678,1293.631913
6 Apr 2023 12:20:46.000,292.495,30.427,1005.239888
6 Apr 2023 12:21:46.000,320.893,40.193,828.672612
6 Apr 2023 12:22:46.000,0.414,39.539,838.541550
6 Apr 2023 12:23:46.000,27.180,29.453,1029.390822
6 Apr 2023 12:24:46.000,40.792,19.950,1324.631519
6 Apr 2023 12:25:46.000,48.320,12.860,1668.931371
6 Apr 2023 12:26:40.136,52.641,7.946,1999.990408
6 Apr 2023 13:59:45.883,299.491,7.932,1999.985329
6 Apr 2023 14:00:45.000,307.909,12.355,1698.694126
6 Apr 2023 14:01:45.000,320.161,17.201,1442.592140
6 Apr 2023 14:02:45.000,337.441,21.447,1268.285760
6 Apr 2023 14:03:45.000,358.921,23.051,1212.333075
6 Apr 2023 14:04:45.000,19.931,20.857,1290.413044
6 Apr 2023 14:05:45.000,36.320,16.393,1481.217294
6 Apr 2023 14:06:45.000,47.837,11.574,1747.630926
6 Apr 2023 14:07:33.985,54.597,7.947,1999.986941
6 Apr 2023 15:40:59.082,309.200,7.951,1999.984315
6 Apr 2023 15:41:59.000,315.874,13.059,1657.852022
6 Apr 2023 15:42:59.000,326.189,19.310,1351.141562
6 Apr 2023 15:43:59.000,342.933,26.301,1112.147769
6 Apr 2023 15:44:59.000,8.446,31.086,992.333391
6 Apr 2023 15:45:59.000,36.832,29.250,1034.520494
6 Apr 2023 15:46:59.000,57.886,22.729,1221.960695
6 Apr 2023 15:47:59.000,70.937,15.952,1500.697526
6 Apr 2023 15:48:59.000,79.128,10.289,1828.704868
6 Apr 2023 15:49:28.412,82.066,7.906,1999.999840
6 Apr 2023 17:21:36.695,296.978,7.936,1999.991011
6 Apr 2023 17:22:36.000,295.928,13.789,1614.899954
6 Apr 2023 17:23:36.000,293.973,22.243,1238.345775
6 Apr 2023 17:24:36.000,289.547,36.036,893.997635
6 Apr 2023 17:25:36.000,272.777,60.547,638.756378
6 Apr 2023 17:26:36.000,165.808,68.530,601.168399
6 Apr 2023 17:27:36.000,136.487,41.265,812.173168
6 Apr 2023 17:28:36.000,130.600,25.154,1140.851230
6 Apr 2023 17:29:36.000,128.204,15.637,1511.515220
6 Apr 2023 17:30:36.000,126.934,9.197,1898.741534
6 Apr 2023 17:30:51.476,126.701,7.829,1999.994535
6 Apr 2023 19:03:54.966,258.308,7.871,1999.990934
6 Apr 2023 19:04:54.000,246.815,10.359,1819.963000
6 Apr 2023 19:05:54.000,232.978,11.936,1717.208511
6 Apr 2023 19:06:54.000,218.137,12.031,1710.149649
6 Apr 2023 19:07:54.000,204.065,10.604,1799.833186
6 Apr 2023 19:08:54.000,192.059,8.145,1972.696079
6 Apr 2023 19:09:01.733,190.687,7.785,1999.996277
7 Apr 2023 08:57:21.275,160.186,7.764,1999.999209
7 Apr 2023 08:58:21.000,147.961,9.527,1871.603591
7 Apr 2023 08:59:21.000,134.397,10.188,1827.451366
7 Apr 2023 09:00:21.000,120.855,9.524,1874.606807
7 Apr 2023 09:01:18.655,109.079,7.836,1999.997729
7 Apr 2023 10:34:55.036,229.177,7.798,1999.976258
7 Apr 2023 10:35:55.000,227.217,13.680,1612.978425
7 Apr 2023 10:36:55.000,223.761,22.024,1240.642476
7 Apr 2023 10:37:55.000,216.276,35.286,904.142576
7 Apr 2023 10:38:55.000,191.843,56.450,662.830807
7 Apr 2023 10:39:55.000,113.034,60.632,637.383207
7 Apr 2023 10:40:55.000,80.175,38.835,847.525653
7 Apr 2023 10:41:55.000,71.157,24.198,1172.267375
7 Apr 2023 10:42:55.000,67.250,15.163,1539.931584
7 Apr 2023 10:43:55.000,65.123,8.924,1925.070289
7 Apr 2023 10:44:06.505,64.825,7.922,1999.975804
7 Apr 2023 12:16:09.389,274.780,7.883,1999.983313
7 Apr 2023 12:17:09.000,280.994,13.075,1653.006864
7 Apr 2023 12:18:09.000,290.773,19.592,1336.941090
7 Apr 2023 12:19:09.000,307.125,27.219,1085.220517
7 Apr 2023 12:20:09.000,333.389,32.979,951.580872
7 Apr 2023 12:21:09.000,3.844,31.363,985.755052
7 Apr 2023 12:22:09.000,26.121,24.241,1172.994038
7 Apr 2023 12:23:09.000,39.448,16.937,1454.788161
7 Apr 2023 12:24:09.000,47.600,10.969,1786.114231
7 Apr 2023 12:24:45.301,51.090,7.947,1999.990029
7 Apr 2023 13:58:06.323,304.129,7.938,1999.985062
7 Apr 2023 13:59:06.000,312.693,12.383,1697.284378
7 Apr 2023 14:00:06.000,325.032,17.187,1443.414942
7 Apr 2023 14:01:06.000,342.355,21.348,1271.984431
7 Apr 2023 14:02:06.000,3.747,22.851,1219.034576
7 Apr 2023 14:03:06.000,24.567,20.619,1299.328460
7 Apr 2023 14:04:06.000,40.796,16.181,1491.242721
7 Apr 2023 14:05:06.000,52.225,11.404,1758.028026
7 Apr 2023 14:05:53.043,58.715,7.941,1999.986237
7 Apr 2023 15:39:04.702,308.020,7.948,2000.000007
7 Apr 2023 15:40:04.000,313.364,13.295,1643.971751
7 Apr 2023 15:41:04.000,321.983,20.300,1311.321319
7 Apr 2023 15:42:04.000,337.232,29.224,1035.356364
7 Apr 2023 15:43:04.000,4.847,37.332,873.195568
7 Apr 2023 15:44:04.000,40.505,36.297,890.174520
7 Apr 2023 15:45:04.000,65.605,27.504,1077.867032
7 Apr 2023 15:46:04.000,79.285,18.864,1367.237931
7 Apr 2023 15:47:04.000,87.139,12.179,1706.588754
7 Apr 2023 15:47:52.569,91.324,7.890,1999.990177
7 Apr 2023 17:19:47.894,291.447,7.928,1999.991092
7 Apr 2023 17:20:47.000,287.948,13.553,1627.464034
7 Apr 2023 17:21:47.000,281.883,21.355,1269.447147
7 Apr 2023 17:22:47.000,269.757,32.664,956.816366
7 Apr 2023 17:23:47.000,240.865,46.404,750.567309
7 Apr 2023 17:24:47.000,191.070,46.791,745.927417
7 Apr 2023 17:25:47.000,161.204,33.113,945.861665
7 Apr 2023 17:26:47.000,148.691,21.627,1255.676646
7 Apr 2023 17:27:47.000,142.455,13.708,1612.420430
7 Apr 2023 17:28:47.000,138.808,7.944,1990.005551
7 Apr 2023 17:28:48.560,138.733,7.813,1999.985042
8 Apr 2023 08:53:59.064,182.538,7.753,1999.997364
8 Apr 2023 08:54:59.000,172.208,11.358,1748.433809
8 Apr 2023 08:55:59.000,158.604,14.521,1565.373280
8 Apr 2023 08:56:59.000,142.070,16.267,1477.837130
8 Apr 2023 08:57:59.000,124.718,15.777,1503.061623
8 Apr 2023 08:58:59.000,109.319,13.310,1635.833989
8 Apr 2023 08:59:59.000,97.198,9.878,1852.809496
8 Apr 2023 09:00:32.361,91.828,7.866,1999.998867
8 Apr 2023 10:32:58.041,240.739,7.814,1999.982578
8 Apr 2023 10:33:58.000,241.153,13.761,1609.475708
8 Apr 2023 10:34:58.000,241.790,22.320,1231.085982
8 Apr 2023 10:35:58.000,243.043,36.504,883.527287
8 Apr 2023 10:36:58.000,247.749,63.312,623.169610
8 Apr 2023 10:37:58.000,47.128,74.119,583.243395
8 Apr 2023 10:38:58.000,56.975,42.435,797.624257
8 Apr 2023 10:39:58.000,58.638,25.633,1129.240111
8 Apr 2023 10:40:58.000,59.409,15.932,1501.508571
8 Apr 2023 10:41:58.000,59.904,9.425,1889.531740
8 Apr 2023 10:42:14.860,60.019,7.928,1999.983679
8 Apr 2023 12:14:34.709,283.490,7.896,1999.987670
8 Apr 2023 12:15:34.000,290.706,12.767,1671.836568
8 Apr 2023 12:16:34.000,301.719,18.571,1380.022780
8 Apr 2023 12:17:34.000,318.785,24.603,1160.976768
8 Apr 2023 12:18:34.000,342.919,28.148,1061.721989
8 Apr 2023 12:19:34.000,8.458,26.181,1115.048612
8 Apr 2023 12:20:34.000,27.831,20.533,1302.124145
8 Apr 2023 12:21:34.000,40.466,14.530,1575.427950
8 Apr 2023 12:22:34.000,48.721,9.338,1897.243949
8 Apr 2023 12:22:52.054,50.641,7.946,1999.997794
8 Apr 2023 13:56:22.487,307.277,7.941,1999.993981
8 Apr 2023 13:57:22.000,315.580,12.464,1692.525039
8 Apr 2023 13:58:22.000,327.693,17.460,1430.953491
8 Apr 2023 13:59:22.000,345.014,21.952,1250.085297
8 Apr 2023 14:00:22.000,6.912,23.781,1188.189718
8 Apr 2023 14:01:22.000,28.517,21.585,1263.128966
8 Apr 2023 14:02:22.000,45.293,16.961,1453.671199
8 Apr 2023 14:03:22.000,56.963,11.983,1721.297782
8 Apr 2023 14:04:15.592,64.296,7.933,1999.999787
8 Apr 2023 15:37:09.142,305.811,7.945,1999.992838
8 Apr 2023 15:38:09.000,309.625,13.624,1624.978017
8 Apr 2023 15:39:09.000,315.925,21.412,1269.004767
8 Apr 2023 15:40:09.000,328.178,32.700,957.681184
8 Apr 2023 15:41:09.000,356.961,46.523,750.802033
8 Apr 2023 15:42:09.000,47.133,47.268,742.641086
8 Apr 2023 15:43:09.000,77.711,33.604,938.485917
8 Apr 2023 15:44:09.000,90.632,22.010,1245.099243
8 Apr 2023 15:45:09.000,97.171,14.017,1599.249408
8 Apr 2023 15:46:09.000,101.083,8.208,1974.578402
8 Apr 2023 15:46:12.992,101.288,7.873,1999.984915
8 Apr 2023 17:18:05.126,284.570,7.917,1999.978677
8 Apr 2023 17:19:05.000,278.416,13.142,1650.004117
8 Apr 2023 17:20:05.000,268.579,19.646,1334.248307
8 Apr 2023 17:21:05.000,251.982,27.124,1086.129394
8 Apr 2023 17:22:05.000,225.637,32.400,960.803254
8 Apr 2023 17:23:05.000,196.012,30.300,1005.736308
8 Apr 2023 17:24:05.000,174.766,23.178,1201.785868
8 Apr 2023 17:25:05.000,162.115,16.043,1489.852234
8 Apr 2023 17:26:05.000,154.416,10.215,1826.042166
8 Apr 2023 17:26:34.265,151.720,7.800,1999.997981
9 Apr 2023 08:51:15.917,198.784,7.756,1999.981750
9 Apr 2023 08:52:15.000,191.007,12.403,1684.000113
9 Apr 2023 08:53:15.000,179.269,17.697,1410.242158
9 Apr 2023 08:54:15.000,161.899,22.648,1217.730317
9 Apr 2023 08:55:15.000,139.246,24.814,1149.038312
9 Apr 2023 08:56:15.000,116.775,22.478,1225.504928
9 Apr 2023 08:57:15.000,99.736,17.492,1423.739673
9 Apr 2023 08:58:15.000,88.268,12.236,1701.144791
9 Apr 2023 08:59:10.625,81.051,7.884,1999.984875
9 Apr 2023 10:31:08.715,251.688,7.830,1999.980085
9 Apr 2023 10:32:08.000,254.190,13.592,1619.972565
9 Apr 2023 10:33:08.000,258.423,21.781,1250.911855
9 Apr 2023 10:34:08.000,267.113,34.556,918.641403
9 Apr 2023 10:35:08.000,292.788,53.989,681.433187
9 Apr 2023 10:36:08.000,3.185,58.004,653.812779
9 Apr 2023 10:37:08.000,37.474,38.315,856.308782
9 Apr 2023 10:38:08.000,48.077,24.142,1174.907851
9 Apr 2023 10:39:08.000,52.944,15.212,1538.265618
9 Apr 2023 10:40:08.000,55.767,9.002,1920.122855
9 Apr 2023 10:40:20.355,56.212,7.932,1999.981035
9 Apr 2023 12:13:00.305,291.197,7.908,1999.992480
9 Apr 2023 12:14:00.000,299.205,12.569,1684.281713
9 Apr 2023 12:15:00.000,311.023,17.826,1413.039272
9 Apr 2023 12:16:00.000,328.347,22.777,1220.440966
9 Apr 2023 12:17:00.000,350.954,25.065,1147.620090
9 Apr 2023 12:18:00.000,13.660,22.910,1216.512791
9 Apr 2023 12:19:00.000,31.164,18.008,1406.188631
9 Apr 2023 12:20:00.000,43.124,12.750,1675.536693
9 Apr 2023 12:21:00.000,51.261,8.053,1991.685210
9 Apr 2023 12:21:01.496,51.429,7.945,1999.973408
9 Apr 2023 13:54:34.364,308.975,7.942,1999.988351
9 Apr 2023 13:55:34.000,316.774,12.666,1680.462344
9 Apr 2023 13:56:34.000,328.380,18.076,1403.291681
9 Apr 2023 13:57:34.000,345.659,23.321,1203.034392
9 Apr 2023 13:58:34.000,8.704,25.928,1122.598868
9 Apr 2023 13:59:34.000,32.167,23.807,1186.944129
9 Apr 2023 14:00:34.000,50.178,18.701,1375.729989
9 Apr 2023 14:01:34.000,62.331,13.237,1646.164145
9 Apr 2023 14:02:34.000,70.503,8.398,1964.044706
9 Apr 2023 14:02:40.432,71.213,7.922,1999.982614
9 Apr 2023 15:35:13.658,302.641,7.940,1999.991083
9 Apr 2023 15:36:13.000,304.521,13.756,1617.155316
9 Apr 2023 15:37:13.000,307.667,22.098,1243.941367
9 Apr 2023 15:38:13.000,314.204,35.473,904.424256
9 Apr 2023 15:39:13.000,335.882,57.823,655.671876
9 Apr 2023 15:40:13.000,63.532,64.142,620.293635
9 Apr 2023 15:41:13.000,97.287,40.303,826.332200
9 Apr 2023 15:42:13.000,105.678,24.883,1150.227306
9 Apr 2023 15:43:13.000,109.359,15.550,1517.553097
9 Apr 2023 15:44:13.000,111.459,9.174,1902.351143
9 Apr 2023 15:44:28.003,111.855,7.856,1999.988650
9 Apr 2023 17:16:32.323,275.776,7.902,1999.998991
9 Apr 2023 17:17:32.000,267.098,12.283,1699.659363
9 Apr 2023 17:18:32.000,254.547,16.899,1452.408801
9 Apr 2023 17:19:32.000,237.141,20.651,1292.953684
9 Apr 2023 17:20:32.000,216.253,21.630,1255.813192
9 Apr 2023 17:21:32.000,196.510,19.135,1351.166388
9 Apr 2023 17:22:32.000,181.325,14.762,1554.433943
9 Apr 2023 17:23:32.000,170.652,10.159,1829.299849
9 Apr 2023 17:24:04.940,166.238,7.791,1999.982741
10 Apr 2023 08:48:51.958,212.695,7.765,1999.982901
10 Apr 2023 08:49:51.000,207.462,13.095,1643.887512
10 Apr 2023 08:50:51.000,198.823,20.081,1310.908038
10 Apr 2023 08:51:51.000,183.384,28.881,1037.283583
10 Apr 2023 08:52:51.000,155.727,36.538,881.710526
10 Apr 2023 08:53:51.000,121.110,35.086,907.798110
10 Apr 2023 08:54:51.000,97.093,26.477,1102.674274
10 Apr 2023 08:55:51.000,83.995,18.121,1396.894850
10 Apr 2023 08:56:51.000,76.516,11.625,1739.983274
10 Apr 2023 08:57:33.747,72.987,7.896,1999.989698
10 Apr 2023 10:29:25.474,262.060,7.846,1999.982673
10 Apr 2023 10:30:25.000,266.378,13.411,1631.266339
10 Apr 2023 10:31:25.000,273.503,20.953,1282.049844
10 Apr 2023 10:32:25.000,286.962,31.448,981.608736
10 Apr 2023 10:33:25.000,315.666,43.074,789.446617
10 Apr 2023 10:34:25.000,359.744,43.077,789.825553
10 Apr 2023 10:35:25.000,28.419,31.479,982.440358
10 Apr 2023 10:36:25.000,41.875,21.011,1282.904958
10 Apr 2023 10:37:25.000,49.014,13.486,1631.874190
10 Apr 2023 10:38:24.496,53.355,7.934,1999.976423
10 Apr 2023 12:11:24.316,297.691,7.916,1999.992773
10 Apr 2023 12:12:24.000,306.128,12.413,1694.105431
10 Apr 2023 12:13:24.000,318.354,17.323,1436.085123
10 Apr 2023 12:14:24.000,335.690,21.662,1259.715103
10 Apr 2023 12:15:24.000,357.361,23.335,1202.236300
10 Apr 2023 12:16:24.000,18.593,21.120,1279.956379
10 Apr 2023 12:17:24.000,35.104,16.587,1471.337598
10 Apr 2023 12:18:24.000,46.656,11.709,1738.661917
10 Apr 2023 12:19:14.509,53.595,7.941,1999.987819
10 Apr 2023 13:52:42.544,309.340,7.941,1999.980265
10 Apr 2023 13:53:42.000,316.284,12.912,1665.825980
10 Apr 2023 13:54:42.000,326.960,18.927,1366.586689
10 Apr 2023 13:55:42.000,343.875,25.411,1137.518989
10 Apr 2023 13:56:42.000,8.655,29.531,1027.842763
10 Apr 2023 13:57:42.000,35.516,27.631,1075.228069
10 Apr 2023 13:58:42.000,55.704,21.587,1261.999537
10 Apr 2023 13:59:42.000,68.566,15.219,1537.687740
10 Apr 2023 14:00:42.000,76.807,9.797,1862.469818
10 Apr 2023 14:01:05.880,79.273,7.909,1999.982851
10 Apr 2023 15:33:19.617,298.514,7.933,1999.991375
10 Apr 2023 15:34:19.000,298.214,13.814,1613.409335
10 Apr 2023 15:35:19.000,297.569,22.335,1235.106630
10 Apr 2023 15:36:19.000,295.964,36.418,887.493699
10 Apr 2023 15:37:19.000,289.085,62.859,626.495220
10 Apr 2023 15:38:19.000,141.488,73.747,584.498103
10 Apr 2023 15:39:19.000,126.593,42.428,797.064942
10 Apr 2023 15:40:19.000,124.333,25.602,1128.015690
10 Apr 2023 15:41:19.000,123.485,15.876,1500.173765
10 Apr 2023 15:42:19.000,123.073,9.353,1888.343725
10 Apr 2023 15:42:36.030,122.996,7.838,1999.982082
10 Apr 2023 17:15:18.104,263.597,7.881,1999.994621
10 Apr 2023 17:16:18.000,252.558,10.974,1780.133718
10 Apr 2023 17:17:18.000,238.712,13.331,1635.419207
10 Apr 2023 17:18:18.000,222.931,14.169,1587.607601
10 Apr 2023 17:19:18.000,207.261,13.120,1645.250539
10 Apr 2023 17:20:18.000,193.667,10.632,1797.932347
10 Apr 2023 17:21:12.367,183.764,7.789,1999.992486
11 Apr 2023 07:09:59.287,148.113,7.760,1999.999390
11 Apr 2023 07:10:59.000,135.561,8.485,1946.552701
11 Apr 2023 07:11:59.000,122.795,8.084,1978.046514
11 Apr 2023 07:12:14.609,119.592,7.802,1999.994920
11 Apr 2023 08:46:41.169,225.317,7.777,1999.991216
11 Apr 2023 08:47:41.000,222.563,13.573,1617.507190
11 Apr 2023 08:48:41.000,217.778,21.695,1251.096989
11 Apr 2023 08:49:41.000,207.795,34.112,924.783297
11 Apr 2023 08:50:41.000,179.939,51.570,699.327746
11 Apr 2023 08:51:41.000,118.127,53.490,684.234474
11 Apr 2023 08:52:41.000,86.020,36.135,890.302951
11 Apr 2023 08:53:41.000,74.901,23.040,1208.783179
11 Apr 2023 08:54:41.000,69.752,14.530,1571.971288
11 Apr 2023 08:55:41.000,66.859,8.512,1954.092586
11 Apr 2023 08:55:48.098,66.600,7.905,1999.990368
11 Apr 2023 10:27:46.722,271.801,7.862,1999.982381
11 Apr 2023 10:28:46.000,277.569,13.116,1649.196789
11 Apr 2023 10:29:46.000,286.791,19.871,1324.562572
11 Apr 2023 10:30:46.000,302.647,28.119,1060.617595
11 Apr 2023 10:31:46.000,329.578,34.952,912.937587
11 Apr 2023 10:32:46.000,2.351,33.610,938.651508
11 Apr 2023 10:33:46.000,25.953,25.777,1125.788901
11 Apr 2023 10:34:46.000,39.507,17.877,1410.961996
11 Apr 2023 10:35:46.000,47.564,11.581,1745.958643
11 Apr 2023 10:36:28.606,51.475,7.935,1999.991040
11 Apr 2023 12:09:45.191,302.798,7.923,1999.980799
11 Apr 2023 12:10:45.000,311.398,12.372,1696.949387
11 Apr 2023 12:11:45.000,323.760,17.163,1443.652697
11 Apr 2023 12:12:45.000,341.093,21.301,1272.997805
11 Apr 2023 12:13:45.000,2.460,22.778,1220.885208
11 Apr 2023 12:14:45.000,23.226,20.539,1301.815636
11 Apr 2023 12:15:45.000,39.411,16.113,1494.061516
11 Apr 2023 12:16:45.000,50.817,11.350,1760.962193
11 Apr 2023 12:17:31.494,57.232,7.936,1999.987119
11 Apr 2023 13:50:47.996,308.515,7.939,1999.983162
11 Apr 2023 13:51:47.000,314.259,13.162,1651.093312
11 Apr 2023 13:52:47.000,323.455,19.906,1326.378946
11 Apr 2023 13:53:47.000,339.253,28.150,1061.842969
11 Apr 2023 13:54:47.000,6.129,35.018,912.884020
11 Apr 2023 13:55:47.000,38.973,33.718,937.058656
11 Apr 2023 13:56:47.000,62.676,25.859,1123.221866
11 Apr 2023 13:57:47.000,76.270,17.917,1408.067203
11 Apr 2023 13:58:47.000,84.331,11.590,1743.132266
11 Apr 2023 13:59:30.038,88.267,7.894,1999.989856
11 Apr 2023 15:31:28.617,293.354,7.925,1999.991074
11 Apr 2023 15:32:28.000,290.644,13.673,1620.596026
11 Apr 2023 15:33:28.000,285.872,21.771,1254.381698
11 Apr 2023 15:34:28.000,275.895,34.123,928.172087
11 Apr 2023 15:35:28.000,248.159,51.441,702.287264
11 Apr 2023 15:36:28.000,186.734,53.427,685.577938
11 Apr 2023 15:37:28.000,154.478,36.147,889.945380
11 Apr 2023 15:38:28.000,143.245,23.029,1207.428048
11 Apr 2023 15:39:28.000,138.021,14.495,1570.040481
11 Apr 2023 15:40:28.000,135.061,8.460,1951.785317
11 Apr 2023 15:40:35.460,134.782,7.821,1999.990306
11 Apr 2023 17:15:04.236,239.965,7.842,1999.993136
11 Apr 2023 17:16:04.000,227.399,8.492,1949.681873
11 Apr 2023 17:17:04.000,214.675,8.015,1984.262893
11 Apr 2023 17:17:15.218,212.378,7.806,1999.995480
12 Apr 2023 07:06:03.665,176.419,7.739,1999.987271
12 Apr 2023 07:07:03.000,165.513,10.834,1781.107480
12 Apr 2023 07:08:03.000,151.702,13.254,1634.333055
12 Apr 2023 07:09:03.000,135.911,14.176,1584.143326
12 Apr 2023 07:10:03.000,120.177,13.203,1639.728692
12 Apr 2023 07:11:03.000,106.501,10.760,1791.160085
12 Apr 2023 07:11:59.074,96.268,7.842,1999.985354
12 Apr 2023 08:44:40.552,237.093,7.792,1999.981391
12 Apr 2023 08:45:40.000,236.772,13.678,1612.594272
12 Apr 2023 08:46:40.000,236.128,22.202,1233.928743
12 Apr 2023 08:47:40.000,234.572,36.302,885.983439
12 Apr 2023 08:48:40.000,227.942,62.833,624.849788
12 Apr 2023 08:49:40.000,79.150,73.785,583.489951
12 Apr 2023 08:50:40.000,64.799,42.422,796.960797
12 Apr 2023 08:51:40.000,62.650,25.627,1128.389171
12 Apr 2023 08:52:40.000,61.865,15.923,1500.746580
12 Apr 2023 08:53:40.000,61.510,9.415,1888.963145
12 Apr 2023 08:53:56.937,61.450,7.911,1999.984923
12 Apr 2023 10:26:10.727,280.785,7.876,1999.987203
12 Apr 2023 10:27:10.000,287.698,12.833,1666.541224
12 Apr 2023 10:28:10.000,298.363,18.848,1367.071435
12 Apr 2023 10:29:10.000,315.266,25.333,1137.922499
12 Apr 2023 10:30:10.000,340.022,29.462,1028.286734
12 Apr 2023 10:31:10.000,6.860,27.588,1075.718013
12 Apr 2023 10:32:10.000,27.046,21.573,1262.428851
12 Apr 2023 10:33:10.000,39.921,15.227,1537.930642
12 Apr 2023 10:34:10.000,48.181,9.820,1862.414442
12 Apr 2023 10:34:33.918,50.660,7.934,1999.998454
12 Apr 2023 12:08:01.949,306.422,7.926,1999.997697
12 Apr 2023 12:09:01.000,314.753,12.371,1697.171973
12 Apr 2023 12:10:01.000,326.930,17.278,1438.433647
12 Apr 2023 12:11:01.000,344.207,21.632,1260.870213
12 Apr 2023 12:12:01.000,5.855,23.344,1201.814559
12 Apr 2023 12:13:01.000,27.130,21.164,1278.033086
12 Apr 2023 12:14:01.000,43.705,16.638,1468.377911
12 Apr 2023 12:15:01.000,55.304,11.753,1735.134773
12 Apr 2023 12:15:52.200,62.349,7.928,1999.973178
12 Apr 2023 13:48:51.875,306.628,7.936,1999.982517
12 Apr 2023 13:49:51.000,310.923,13.454,1634.057988
12 Apr 2023 13:50:51.000,318.019,20.974,1284.796911
12 Apr 2023 13:51:51.000,331.389,31.447,983.742044
12 Apr 2023 13:52:51.000,359.933,43.119,789.966864
12 Apr 2023 13:53:51.000,44.125,43.249,788.068791
12 Apr 2023 13:54:51.000,73.007,31.610,979.231236
12 Apr 2023 13:55:51.000,86.521,21.070,1279.214124
12 Apr 2023 13:56:51.000,93.661,13.500,1628.202632
12 Apr 2023 13:57:51.000,98.011,7.880,1999.765097
12 Apr 2023 13:57:51.034,98.013,7.877,1999.976394
12 Apr 2023 15:29:42.769,286.956,7.915,1999.984520
12 Apr 2023 15:30:42.000,281.712,13.264,1642.953132
12 Apr 2023 15:31:42.000,273.041,20.247,1310.518439
12 Apr 2023 15:32:42.000,257.523,29.007,1037.902951
12 Apr 2023 15:33:42.000,229.809,36.531,883.786958
12 Apr 2023 15:34:42.000,195.352,34.942,911.064755
12 Apr 2023 15:35:42.000,171.490,26.320,1106.266755
12 Apr 2023 15:36:42.000,158.431,17.982,1400.281220
12 Apr 2023 15:37:42.000,150.937,11.497,1742.962305
12 Apr 2023 15:38:24.319,147.412,7.807,1999.975661
13 Apr 2023 07:03:10.931,193.896,7.739,1999.986168
13 Apr 2023 07:04:10.000,185.327,12.083,1702.165329
13 Apr 2023 07:05:10.000,172.845,16.730,1453.448823
13 Apr 2023 07:06:10.000,155.502,20.565,1291.775951
13 Apr 2023 07:07:10.000,134.589,21.663,1252.139762
13 Apr 2023 07:08:10.000,114.728,19.256,1345.594975
13 Apr 2023 07:09:10.000,99.433,14.915,1547.979591
13 Apr 2023 07:10:10.000,88.703,10.315,1822.794322
13 Apr 2023 07:10:44.115,84.138,7.863,1999.986121
13 Apr 2023 08:42:48.131,248.224,7.808,1999.972687
13 Apr 2023 08:43:48.000,250.105,13.684,1613.308293
13 Apr 2023 08:44:48.000,253.269,22.055,1239.902697
13 Apr 2023 08:45:48.000,259.894,35.494,900.628930
13 Apr 2023 08:46:48.000,282.002,57.906,653.297420
13 Apr 2023 08:47:48.000,9.466,63.762,621.070806
13 Apr 2023 08:48:48.000,42.717,40.058,829.430994
13 Apr 2023 08:49:48.000,51.097,24.775,1154.199196
13 Apr 2023 08:50:48.000,54.806,15.511,1521.763774
13 Apr 2023 08:51:48.000,56.944,9.174,1906.509832
13 Apr 2023 08:52:02.371,57.334,7.915,1999.984079
13 Apr 2023 10:24:35.624,288.833,7.888,1999.988689
13 Apr 2023 10:25:35.000,296.588,12.592,1681.551741
13 Apr 2023 10:26:35.000,308.176,18.002,1404.059739
13 Apr 2023 10:27:35.000,325.434,23.252,1203.515110
13 Apr 2023 10:28:35.000,348.459,25.876,1122.808740
13 Apr 2023 10:29:35.000,11.920,23.781,1186.902737
13 Apr 2023 10:30:35.000,29.945,18.697,1375.457116
13 Apr 2023 10:31:35.000,42.115,13.247,1645.652625
13 Apr 2023 10:32:35.000,50.306,8.418,1963.257647
13 Apr 2023 10:32:41.579,51.035,7.933,1999.990382
13 Apr 2023 12:06:14.356,308.576,7.928,2000.000079
13 Apr 2023 12:07:14.000,316.577,12.580,1684.617271
13 Apr 2023 12:08:14.000,328.388,17.833,1413.248562
13 Apr 2023 12:09:14.000,345.703,22.785,1220.327667
13 Apr 2023 12:10:14.000,8.314,25.077,1147.053517
13 Apr 2023 12:11:14.000,31.041,22.922,1215.565713
13 Apr 2023 12:12:14.000,48.564,18.011,1405.082126
13 Apr 2023 12:13:14.000,60.531,12.743,1674.477292
13 Apr 2023 12:14:14.000,68.666,8.038,1990.818866
13 Apr 2023 12:14:15.654,68.851,7.918,1999.991604
13 Apr 2023 13:46:55.417,303.765,7.931,1999.991384
13 Apr 2023 13:47:55.000,306.301,13.723,1618.458027
13 Apr 2023 13:48:55.000,310.546,21.923,1249.727761
13 Apr 2023 13:49:55.000,319.242,34.724,917.725498
13 Apr 2023 13:50:55.000,345.007,54.201,680.813392
13 Apr 2023 13:51:55.000,55.768,58.073,653.646790
13 Apr 2023 13:52:55.000,89.872,38.264,856.562561
13 Apr 2023 13:53:55.000,100.379,24.067,1175.480011
13 Apr 2023 13:54:55.000,105.187,15.128,1539.156586
13 Apr 2023 13:55:55.000,107.960,8.913,1921.384056
13 Apr 2023 13:56:07.149,108.387,7.859,1999.990138
13 Apr 2023 15:28:05.338,278.879,7.901,1999.983895
13 Apr 2023 15:29:05.000,271.011,12.590,1681.249447
13 Apr 2023 15:30:05.000,259.204,17.862,1408.642926
13 Apr 2023 15:31:05.000,241.749,22.740,1218.076610
13 Apr 2023 15:32:05.000,219.093,24.775,1151.822677
13 Apr 2023 15:33:05.000,196.745,22.336,1230.306028
13 Apr 2023 15:34:05.000,179.833,17.318,1429.560177
13 Apr 2023 15:35:05.000,168.428,12.064,1707.151177
13 Apr 2023 15:35:59.607,161.333,7.795,1999.986839
14 Apr 2023 07:00:40.932,208.384,7.746,1999.982972
14 Apr 2023 07:01:40.000,202.324,12.893,1654.315064
14 Apr 2023 07:02:40.000,192.571,19.388,1337.401329
14 Apr 2023 07:03:40.000,176.133,26.911,1087.183619
14 Apr 2023 07:04:40.000,149.905,32.361,958.772557
14 Apr 2023 07:05:40.000,120.110,30.455,1000.805990
14 Apr 2023 07:06:40.000,98.633,23.378,1195.342577
14 Apr 2023 07:07:40.000,85.875,16.227,1483.020462
14 Apr 2023 07:08:40.000,78.150,10.382,1819.392034
14 Apr 2023 07:09:10.332,75.371,7.876,1999.989848
14 Apr 2023 08:41:02.284,258.777,7.825,1999.992768
14 Apr 2023 08:42:02.000,262.563,13.489,1625.344009
14 Apr 2023 08:43:02.000,268.854,21.271,1268.956543
14 Apr 2023 08:44:02.000,281.109,32.549,957.387699
14 Apr 2023 08:45:02.000,309.868,46.359,750.540810
14 Apr 2023 08:46:02.000,359.911,47.139,742.718464
14 Apr 2023 08:47:02.000,30.483,33.554,938.849293
14 Apr 2023 08:48:02.000,43.440,22.009,1245.513702
14 Apr 2023 08:49:02.000,50.015,14.044,1599.528426
14 Apr 2023 08:50:02.000,53.965,8.252,1974.578264
14 Apr 2023 08:50:05.996,54.174,7.918,1999.984838
14 Apr 2023 10:22:59.518,295.736,7.897,1999.985927
14 Apr 2023 10:23:59.000,304.032,12.419,1692.481294
14 Apr 2023 10:24:59.000,316.144,17.414,1430.783954
14 Apr 2023 10:25:59.000,333.467,21.908,1249.898987
14 Apr 2023 10:26:59.000,355.364,23.740,1188.100545
14 Apr 2023 10:27:59.000,16.965,21.552,1263.188888
14 Apr 2023 10:28:59.000,33.738,16.938,1453.842379
14 Apr 2023 10:29:59.000,45.409,11.970,1721.501448
14 Apr 2023 10:30:52.558,52.742,7.930,1999.979342
14 Apr 2023 12:04:22.828,309.356,7.927,1999.999013
14 Apr 2023 12:05:22.000,316.558,12.781,1672.605031
14 Apr 2023 12:06:22.000,327.558,18.577,1380.625108
14 Apr 2023 12:07:22.000,344.602,24.609,1161.093915
14 Apr 2023 12:08:22.000,8.731,28.165,1061.079039
14 Apr 2023 12:09:22.000,34.306,26.204,1113.699530
14 Apr 2023 12:10:22.000,53.716,20.543,1300.428727
14 Apr 2023 12:11:22.000,66.367,14.523,1573.731082
14 Apr 2023 12:12:22.000,74.620,9.318,1895.775725
14 Apr 2023 12:12:40.287,76.561,7.906,1999.973082
14 Apr 2023 13:44:59.944,299.953,7.924,1999.991388
14 Apr 2023 13:45:59.000,300.383,13.765,1615.586750
14 Apr 2023 13:46:59.000,301.018,22.265,1237.149305
14 Apr 2023 13:47:59.000,302.220,36.315,888.999757
14 Apr 2023 13:48:59.000,306.579,62.842,626.435217
14 Apr 2023 13:49:59.000,106.604,74.753,581.770464
14 Apr 2023 13:50:59.000,116.465,42.750,792.902408
14 Apr 2023 13:51:59.000,118.062,25.760,1123.414494
14 Apr 2023 13:52:59.000,118.783,15.975,1495.375438
14 Apr 2023 13:53:59.000,119.229,9.425,1883.404942
14 Apr 2023 13:54:16.787,119.335,7.841,1999.979968
14 Apr 2023 15:26:42.723,268.082,7.883,1999.987624
14 Apr 2023 15:27:42.000,257.873,11.428,1751.213980
14 Apr 2023 15:28:42.000,244.289,14.558,1568.078225
14 Apr 2023 15:29:42.000,227.784,16.262,1480.482274
14 Apr 2023 15:30:42.000,210.466,15.734,1505.449157
14 Apr 2023 15:31:42.000,195.088,13.243,1637.653210
14 Apr 2023 15:32:42.000,182.965,9.799,1853.767691
14 Apr 2023 15:33:15.276,177.596,7.789,1999.979403
15 Apr 2023 06:58:25.516,221.348,7.758,1999.973585
15 Apr 2023 06:59:25.000,217.800,13.419,1624.819817
15 Apr 2023 07:00:25.000,211.717,21.237,1266.541918
15 Apr 2023 07:01:25.000,199.578,32.593,953.678605
15 Apr 2023 07:02:25.000,170.593,46.433,747.610604
15 Apr 2023 07:03:25.000,120.589,46.813,744.163648
15 Apr 2023 07:04:25.000,90.769,33.102,945.570893
15 Apr 2023 07:05:25.000,78.331,21.635,1256.410507
15 Apr 2023 07:06:25.000,72.158,13.739,1613.843585
15 Apr 2023 07:07:25.000,68.571,7.991,1991.948307
15 Apr 2023 07:07:26.255,68.513,7.886,1999.986613
15 Apr 2023 08:39:21.449,268.725,7.841,1999.981831
15 Apr 2023 08:40:21.000,274.084,13.215,1641.983285
15 Apr 2023 08:41:21.000,282.722,20.229,1309.186291
15 Apr 2023 08:42:21.000,298.028,29.161,1033.545318
15 Apr 2023 08:43:21.000,325.716,37.242,872.462442
15 Apr 2023 08:44:21.000,1.316,36.160,891.021075
15 Apr 2023 08:45:21.000,26.315,27.395,1079.866032
15 Apr 2023 08:46:21.000,39.955,18.804,1369.734863
15 Apr 2023 08:47:21.000,47.807,12.155,1709.157017
15 Apr 2023 08:48:09.172,51.974,7.919,1999.975312
15 Apr 2023 10:21:20.724,301.302,7.904,1999.997193
15 Apr 2023 10:22:20.000,309.796,12.316,1699.038849
15 Apr 2023 10:23:20.000,322.105,17.119,1444.604363
15 Apr 2023 10:24:20.000,339.395,21.290,1272.411785
15 Apr 2023 10:25:20.000,0.776,22.820,1218.579394
15 Apr 2023 10:26:20.000,21.620,20.613,1298.103112
15 Apr 2023 10:27:20.000,37.885,16.188,1489.511353
15 Apr 2023 10:28:20.000,49.343,11.414,1756.015218
15 Apr 2023 10:29:07.444,55.897,7.924,2000.000023
15 Apr 2023 12:02:28.238,308.901,7.926,1999.982848
15 Apr 2023 12:03:28.000,315.143,13.124,1652.367244
15 Apr 2023 12:04:28.000,324.932,19.636,1336.406488
15 Apr 2023 12:05:28.000,341.294,27.258,1084.609246
15 Apr 2023 12:06:28.000,7.584,33.011,950.772415
15 Apr 2023 12:07:28.000,38.073,31.370,984.845981
15 Apr 2023 12:08:28.000,60.357,24.217,1172.220884
15 Apr 2023 12:09:28.000,73.670,16.892,1454.329917
15 Apr 2023 12:10:28.000,81.800,10.913,1786.089587
15 Apr 2023 12:11:04.254,85.270,7.891,1999.990390
15 Apr 2023 13:43:06.955,295.146,7.916,1999.991712
15 Apr 2023 13:44:06.000,293.249,13.692,1618.999431
15 Apr 2023 13:45:06.000,289.830,21.981,1246.517088
15 Apr 2023 13:46:06.000,282.413,35.122,909.416103
15 Apr 2023 13:47:06.000,258.384,56.104,666.118733
15 Apr 2023 13:48:06.000,180.189,60.765,636.665221
15 Apr 2023 13:49:06.000,146.620,39.010,843.842700
15 Apr 2023 13:50:06.000,137.415,24.269,1167.345541
15 Apr 2023 13:51:06.000,133.418,15.174,1534.493674
15 Apr 2023 13:52:06.000,131.224,8.903,1919.403258
15 Apr 2023 13:52:18.381,130.891,7.823,1999.999955
15 Apr 2023 15:25:55.399,250.767,7.854,1999.993836
15 Apr 2023 15:26:55.000,238.559,9.571,1872.842402
15 Apr 2023 15:27:55.000,225.004,10.178,1829.811397
15 Apr 2023 15:28:55.000,211.491,9.466,1877.925839
15 Apr 2023 15:29:51.289,200.007,7.794,1999.999523
16 Apr 2023 05:18:10.440,169.467,7.729,1999.986460
16 Apr 2023 05:19:10.000,157.874,10.268,1817.902805
16 Apr 2023 05:20:10.000,144.023,11.887,1714.800919
16 Apr 2023 05:21:10.000,129.159,12.026,1707.468001
16 Apr 2023 05:22:10.000,115.058,10.636,1797.207335
16 Apr 2023 05:23:10.000,103.036,8.202,1970.577576
16 Apr 2023 05:23:18.291,101.567,7.818,1999.992808
16 Apr 2023 06:56:21.055,233.359,7.773,1999.990849
16 Apr 2023 06:57:21.000,232.267,13.693,1610.364700
16 Apr 2023 06:58:21.000,230.291,22.179,1233.552052
16 Apr 2023 06:59:21.000,225.847,36.061,889.207713
16 Apr 2023 07:00:21.000,208.900,60.792,634.988851
16 Apr 2023 07:01:21.000,101.032,68.308,600.563391
16 Apr 2023 07:02:21.000,72.499,41.046,814.364082
16 Apr 2023 07:03:21.000,66.747,25.052,1144.335056
16 Apr 2023 07:04:21.000,64.419,15.600,1515.596886
16 Apr 2023 07:05:21.000,63.207,9.197,1903.118963
16 Apr 2023 07:05:35.802,62.997,7.893,1999.995685
16 Apr 2023 08:37:43.944,277.967,7.856,1999.974952
16 Apr 2023 08:38:43.000,284.514,12.884,1662.103624
16 Apr 2023 08:39:43.000,294.760,19.120,1354.413347
16 Apr 2023 08:40:43.000,311.399,26.116,1114.109474
16 Apr 2023 08:41:43.000,336.806,30.970,992.540748
16 Apr 2023 08:42:43.000,5.219,29.242,1032.937934
16 Apr 2023 08:43:43.000,26.383,22.777,1219.116250
16 Apr 2023 08:44:43.000,39.521,16.016,1497.073752
16 Apr 2023 08:45:43.000,47.773,10.358,1824.520511
16 Apr 2023 08:46:13.162,50.803,7.919,1999.990680
16 Apr 2023 10:19:38.064,305.407,7.909,2000.000055
16 Apr 2023 10:20:38.000,313.964,12.392,1694.707831
16 Apr 2023 10:21:38.000,326.277,17.235,1439.322406
16 Apr 2023 10:22:38.000,343.629,21.459,1266.210178
16 Apr 2023 10:23:38.000,5.146,23.015,1211.921197
16 Apr 2023 10:24:38.000,26.122,20.776,1291.730992
16 Apr 2023 10:25:38.000,42.444,16.297,1483.909525
16 Apr 2023 10:26:38.000,53.905,11.482,1751.282554
16 Apr 2023 10:27:26.203,60.538,7.918,1999.986913
16 Apr 2023 12:00:31.687,307.347,7.922,1999.999725
16 Apr 2023 12:01:31.000,312.170,13.370,1637.922712
16 Apr 2023 12:02:31.000,320.042,20.649,1296.358018
16 Apr 2023 12:03:31.000,334.440,30.369,1007.170231
16 Apr 2023 12:04:31.000,2.698,40.171,828.873714
16 Apr 2023 12:05:31.000,42.289,39.621,836.570065
16 Apr 2023 12:06:31.000,69.225,29.522,1026.116535
16 Apr 2023 12:07:31.000,82.903,19.971,1320.979893
16 Apr 2023 12:08:31.000,90.441,12.848,1665.388891
16 Apr 2023 12:09:25.650,94.784,7.874,1999.977587
16 Apr 2023 13:41:18.346,289.186,7.907,1999.978358
16 Apr 2023 13:42:18.000,284.735,13.454,1631.602897
16 Apr 2023 13:43:18.000,277.238,20.884,1285.773562
16 Apr 2023 13:44:18.000,263.039,30.927,992.878767
16 Apr 2023 13:45:18.000,234.156,41.119,813.924300
16 Apr 2023 13:46:18.000,193.518,40.124,827.289018
16 Apr 2023 13:47:18.000,167.004,29.439,1025.400579
16 Apr 2023 13:48:18.000,154.004,19.718,1327.429238
16 Apr 2023 13:49:18.000,147.004,12.570,1677.319177
16 Apr 2023 13:50:10.118,143.207,7.807,1999.976389
17 Apr 2023 05:15:05.426,188.686,7.726,1999.986112
17 Apr 2023 05:16:05.000,179.247,11.754,1721.438656
17 Apr 2023 05:17:05.000,166.129,15.711,1501.964760
17 Apr 2023 05:18:05.000,149.035,18.494,1374.502071
17 Apr 2023 05:19:05.000,129.837,18.726,1365.698219
17 Apr 2023 05:20:05.000,112.261,16.270,1477.791059
17 Apr 2023 05:21:05.000,98.572,12.423,1686.545908
17 Apr 2023 05:22:05.000,88.643,8.357,1960.729900
17 Apr 2023 05:22:12.836,87.573,7.842,1999.986230
17 Apr 2023 06:54:25.359,244.679,7.789,1999.983004
17 Apr 2023 06:55:25.000,245.869,13.672,1612.606631
17 Apr 2023 06:56:25.000,247.854,22.139,1235.790351
17 Apr 2023 06:57:25.000,252.025,36.004,890.777556
17 Apr 2023 06:58:25.000,267.362,61.010,634.179012
17 Apr 2023 06:59:25.000,20.938,69.777,595.560993
17 Apr 2023 07:00:25.000,48.961,41.628,806.897006
17 Apr 2023 07:01:25.000,54.493,25.352,1135.819052
17 Apr 2023 07:02:25.000,56.885,15.793,1506.354775
17 Apr 2023 07:03:25.000,58.274,9.341,1893.204328
17 Apr 2023 07:03:41.340,58.563,7.897,1999.985101
17 Apr 2023 08:36:07.940,286.335,7.868,1999.989260
17 Apr 2023 08:37:07.000,293.807,12.621,1678.396652
17 Apr 2023 08:38:07.000,305.123,18.203,1393.975122
17 Apr 2023 08:39:07.000,322.282,23.801,1184.496280
17 Apr 2023 08:40:07.000,345.786,26.838,1094.786218
17 Apr 2023 08:41:07.000,10.162,24.818,1153.429357
17 Apr 2023 08:42:07.000,28.808,19.504,1340.867939
17 Apr 2023 08:43:07.000,41.215,13.818,1612.211710
17 Apr 2023 08:44:07.000,49.455,8.831,1931.608873
17 Apr 2023 08:44:19.140,50.777,7.918,1999.990971
17 Apr 2023 10:17:51.054,308.030,7.911,2000.000040
17 Apr 2023 10:18:51.000,316.251,12.524,1686.822500
17 Apr 2023 10:19:51.000,328.253,17.641,1420.840599
17 Apr 2023 10:20:51.000,345.614,22.339,1234.772759
17 Apr 2023 10:21:51.000,7.870,24.357,1168.307111
17 Apr 2023 10:22:51.000,29.977,22.157,1241.082725
17 Apr 2023 10:23:51.000,47.066,17.396,1431.811526
17 Apr 2023 10:24:51.000,58.850,12.290,1700.719416
17 Apr 2023 10:25:48.093,66.603,7.908,1999.980464
17 Apr 2023 11:58:34.397,304.796,7.917,1999.992094
17 Apr 2023 11:59:34.000,307.952,13.646,1621.853066
17 Apr 2023 12:00:34.000,313.218,21.656,1258.591570
17 Apr 2023 12:01:34.000,323.761,33.752,935.563299
17 Apr 2023 12:02:34.000,351.587,50.381,712.001331
17 Apr 2023 12:03:34.000,50.702,52.541,693.246714
17 Apr 2023 12:04:34.000,83.484,36.059,892.423049
17 Apr 2023 12:05:34.000,95.464,23.130,1205.533416
17 Apr 2023 12:06:34.000,101.212,14.630,1564.873250
17 Apr 2023 12:07:34.000,104.580,8.600,1944.020954
17 Apr 2023 12:07:42.710,104.958,7.856,1999.975773
17 Apr 2023 13:39:36.885,281.731,7.894,1999.989321
17 Apr 2023 13:40:36.000,274.770,12.800,1668.378694
17 Apr 2023 13:41:36.000,263.893,18.679,1372.867496
17 Apr 2023 13:42:36.000,246.748,24.777,1152.336368
17 Apr 2023 13:43:36.000,222.355,28.215,1055.873823
17 Apr 2023 13:44:36.000,196.854,25.946,1116.427549
17 Apr 2023 13:45:36.000,177.917,20.092,1312.177735
17 Apr 2023 13:46:36.000,165.788,14.029,1593.429809
17 Apr 2023 13:47:36.000,157.986,8.835,1922.142671
17 Apr 2023 13:47:49.462,156.629,7.793,1999.983150
18 Apr 2023 05:12:28.588,203.891,7.733,1999.991202
18 Apr 2023 05:13:28.000,196.956,12.688,1665.309163
18 Apr 2023 05:14:28.000,186.160,18.637,1367.658075
18 Apr 2023 05:15:28.000,169.049,24.891,1144.193368
18 Apr 2023 05:16:28.000,144.452,28.537,1044.840535
18 Apr 2023 05:17:28.000,118.560,26.329,1104.095412
18 Apr 2023 05:18:28.000,99.395,20.399,1300.312603
18 Apr 2023 05:19:28.000,87.219,14.261,1582.819514
18 Apr 2023 05:20:28.000,79.452,9.021,1912.969798
18 Apr 2023 05:20:42.975,77.963,7.857,1999.995691
18 Apr 2023 06:52:36.740,255.412,7.806,1999.980549
18 Apr 2023 06:53:36.000,258.581,13.491,1623.864975
18 Apr 2023 06:54:36.000,263.915,21.466,1260.664991
18 Apr 2023 06:55:36.000,274.585,33.467,938.054355
18 Apr 2023 06:56:36.000,302.411,49.830,715.240300
18 Apr 2023 06:57:36.000,0.462,51.989,696.730698
18 Apr 2023 06:58:36.000,33.209,35.866,895.262050
18 Apr 2023 06:59:36.000,45.373,23.079,1207.633970
18 Apr 2023 07:00:36.000,51.249,14.635,1566.334987
18 Apr 2023 07:01:36.000,54.713,8.632,1944.885321
18 Apr 2023 07:01:44.589,55.098,7.901,1999.975160
18 Apr 2023 08:34:31.539,293.627,7.878,1999.990382
18 Apr 2023 08:35:31.000,301.781,12.448,1689.353302
18 Apr 2023 08:36:31.000,313.761,17.553,1423.269289
18 Apr 2023 08:37:31.000,331.081,22.243,1237.031187
18 Apr 2023 08:38:31.000,353.280,24.271,1170.201506
18 Apr 2023 08:39:31.000,15.355,22.105,1242.415023
18 Apr 2023 08:40:31.000,32.449,17.376,1432.536370
18 Apr 2023 08:41:31.000,44.254,12.289,1700.893329
18 Apr 2023 08:42:28.147,52.037,7.915,1999.980894
18 Apr 2023 10:15:59.917,309.241,7.911,1999.999372
18 Apr 2023 10:16:59.000,316.698,12.670,1678.050875
18 Apr 2023 10:17:59.000,327.988,18.266,1393.060814
18 Apr 2023 10:18:59.000,345.135,23.896,1182.631536
18 Apr 2023 10:19:59.000,8.692,26.972,1091.796364
18 Apr 2023 10:20:59.000,33.176,24.950,1149.654350
18 Apr 2023 10:21:59.000,51.895,19.597,1336.887491
18 Apr 2023 10:22:59.000,64.323,13.872,1608.421063
18 Apr 2023 10:23:59.000,72.559,8.857,1928.208291
18 Apr 2023 10:24:11.723,73.940,7.896,1999.999434
18 Apr 2023 11:56:37.647,301.297,7.911,1999.990968
18 Apr 2023 11:57:37.000,302.439,13.765,1614.729842
18 Apr 2023 11:58:37.000,304.314,22.223,1237.951552
18 Apr 2023 11:59:37.000,308.204,36.077,892.583545
18 Apr 2023 12:00:37.000,322.497,61.207,634.697820
18 Apr 2023 12:01:37.000,79.518,70.558,593.753084
18 Apr 2023 12:02:37.000,106.765,41.882,803.786789
18 Apr 2023 12:03:37.000,111.953,25.440,1132.413443
18 Apr 2023 12:04:37.000,114.173,15.814,1502.997127
18 Apr 2023 12:05:37.000,115.444,9.328,1890.041632
18 Apr 2023 12:05:53.809,115.713,7.838,1999.971005
18 Apr 2023 13:38:07.541,272.013,7.877,1999.986903
18 Apr 2023 13:39:07.000,262.520,11.851,1724.392465
18 Apr 2023 13:40:07.000,249.344,15.711,1508.343346
18 Apr 2023 13:41:07.000,232.291,18.349,1384.924202
18 Apr 2023 13:42:07.000,213.289,18.452,1379.644402
18 Apr 2023 13:43:07.000,195.961,15.952,1493.683306
18 Apr 2023 13:44:07.000,182.442,12.125,1702.776363
18 Apr 2023 13:45:07.000,172.586,8.096,1976.248330
18 Apr 2023 13:45:11.774,171.931,7.784,1999.998061
19 Apr 2023 05:10:08.160,217.256,7.744,1999.980827
19 Apr 2023 05:11:08.000,212.846,13.319,1629.512252
19 Apr 2023 05:12:08.000,205.458,20.791,1282.222093
19 Apr 2023 05:13:08.000,191.420,30.981,987.093036
19 Apr 2023 05:14:08.000,162.449,41.538,805.470486
19 Apr 2023 05:15:08.000,121.002,40.680,817.748164
19 Apr 2023 05:16:08.000,94.180,29.768,1016.907304
19 Apr 2023 05:17:08.000,81.229,19.914,1320.434993
19 Apr 2023 05:18:08.000,74.329,12.713,1671.617494
19 Apr 2023 05:19:00.871,70.576,7.868,1999.969285
19 Apr 2023 06:50:53.639,265.558,7.823,1999.971602
19 Apr 2023 06:51:53.000,270.418,13.268,1637.607884
19 Apr 2023 06:52:53.000,278.359,20.528,1296.488805
19 Apr 2023 06:53:53.000,292.864,30.182,1008.427627
19 Apr 2023 06:54:53.000,321.112,39.813,832.049918
19 Apr 2023 06:55:53.000,0.274,39.198,841.501127
19 Apr 2023 06:56:53.000,26.981,29.261,1031.579314
19 Apr 2023 06:57:53.000,40.655,19.838,1326.224225
19 Apr 2023 06:58:53.000,48.238,12.785,1670.160286
19 Apr 2023 06:59:46.970,52.584,7.902,1999.990473
19 Apr 2023 08:32:52.960,299.642,7.886,2000.000049
19 Apr 2023 08:33:52.000,308.051,12.296,1698.988381
19 Apr 2023 08:34:52.000,320.303,17.133,1442.759579
19 Apr 2023 08:35:52.000,337.578,21.372,1268.352858
19 Apr 2023 08:36:52.000,359.050,22.975,1212.357739
19 Apr 2023 08:37:52.000,20.054,20.787,1290.470469
19 Apr 2023 08:38:52.000,36.440,16.334,1481.362214
19 Apr 2023 08:39:52.000,47.959,11.526,1747.886928
19 Apr 2023 08:40:40.920,54.711,7.910,1999.986957
19 Apr 2023 10:14:05.405,309.172,7.910,1999.984187
19 Apr 2023 10:15:05.000,315.768,12.992,1658.907146
19 Apr 2023 10:16:05.000,326.015,19.255,1350.976145
19 Apr 2023 10:17:05.000,342.690,26.296,1110.263299
19 Apr 2023 10:18:05.000,8.233,31.184,988.437660
19 Apr 2023 10:19:05.000,36.808,29.401,1029.176804
19 Apr 2023 10:20:05.000,58.010,22.847,1216.169631
19 Apr 2023 10:21:05.000,71.117,16.029,1495.025695
19 Apr 2023 10:22:05.000,79.322,10.340,1823.325631
19 Apr 2023 10:22:35.291,82.341,7.882,1999.976908
19 Apr 2023 11:54:42.860,296.828,7.904,1999.991058
19 Apr 2023 11:55:42.000,295.709,13.731,1615.987157
19 Apr 2023 11:56:42.000,293.633,22.161,1239.495584
19 Apr 2023 11:57:42.000,288.956,35.889,895.309873
19 Apr 2023 11:58:42.000,271.481,60.126,640.319159
19 Apr 2023 11:59:42.000,167.632,67.953,602.654714
19 Apr 2023 12:00:42.000,137.417,41.128,813.222036
19 Apr 2023 12:01:42.000,131.197,25.098,1141.609157
19 Apr 2023 12:02:42.000,128.654,15.607,1512.126336
19 Apr 2023 12:03:42.000,127.303,9.179,1899.278844
19 Apr 2023 12:03:57.396,127.055,7.819,1999.994664
19 Apr 2023 13:37:03.040,257.761,7.854,1999.987956
19 Apr 2023 13:38:03.000,246.014,10.316,1821.667083
19 Apr 2023 13:39:03.000,232.161,11.800,1724.723412
19 Apr 2023 13:40:03.000,217.417,11.804,1723.394920
19 Apr 2023 13:41:03.000,203.522,10.327,1817.786101
19 Apr 2023 13:42:03.000,191.700,7.862,1993.917109
19 Apr 2023 13:42:04.726,191.395,7.782,1999.993348
20 Apr 2023 03:30:22.368,161.094,7.726,1999.999005
20 Apr 2023 03:31:22.000,148.934,9.562,1866.214341
20 Apr 2023 03:32:22.000,135.327,10.310,1816.134104
20 Apr 2023 03:33:22.000,121.651,9.716,1857.991199
20 Apr 2023 03:34:22.000,109.258,7.977,1985.930781
20 Apr 2023 03:34:26.988,108.314,7.795,1999.996976
20 Apr 2023 05:07:59.620,229.531,7.759,1999.977034
20 Apr 2023 05:08:59.000,227.668,13.571,1616.200349
20 Apr 2023 05:09:59.000,224.356,21.887,1242.923254
20 Apr 2023 05:10:59.000,217.180,35.137,904.739154
20 Apr 2023 05:11:59.000,193.547,56.580,660.315246
20 Apr 2023 05:12:59.000,112.974,61.419,631.442933
20 Apr 2023 05:13:59.000,79.709,39.151,840.696925
20 Apr 2023 05:14:59.000,70.844,24.321,1165.729252
20 Apr 2023 05:15:59.000,67.037,15.219,1533.816338
20 Apr 2023 05:16:59.000,64.975,8.954,1919.334863
20 Apr 2023 05:17:11.373,64.666,7.876,1999.975051
20 Apr 2023 06:49:14.421,275.039,7.838,1999.983002
20 Apr 2023 06:50:14.000,281.284,13.011,1653.464893
20 Apr 2023 06:51:14.000,291.105,19.497,1337.855461
20 Apr 2023 06:52:14.000,307.489,27.063,1086.861137
20 Apr 2023 06:53:14.000,333.692,32.738,954.134294
20 Apr 2023 06:54:14.000,3.971,31.108,988.970278
20 Apr 2023 06:55:14.000,26.150,24.048,1176.401866
20 Apr 2023 06:56:14.000,39.459,16.800,1458.162296
20 Apr 2023 06:57:14.000,47.619,10.868,1789.415871
20 Apr 2023 06:57:49.756,51.069,7.903,1999.989919
20 Apr 2023 08:31:10.835,304.229,7.892,1999.988253
20 Apr 2023 08:32:10.000,312.701,12.293,1699.416281
20 Apr 2023 08:33:10.000,324.999,17.095,1444.673827
20 Apr 2023 08:34:10.000,342.281,21.272,1272.075264
20 Apr 2023 08:35:10.000,3.668,22.811,1217.819163
20 Apr 2023 08:36:10.000,24.532,20.611,1297.042749
20 Apr 2023 08:37:10.000,40.817,16.185,1488.329043
20 Apr 2023 08:38:10.000,52.285,11.410,1754.839926
20 Apr 2023 08:38:57.650,58.868,7.904,1999.986381
20 Apr 2023 10:12:08.562,307.964,7.907,1999.976721
20 Apr 2023 10:13:08.000,313.281,13.272,1642.457871
20 Apr 2023 10:14:08.000,321.853,20.298,1308.963183
20 Apr 2023 10:15:08.000,337.064,29.286,1031.899907
20 Apr 2023 10:16:08.000,4.778,37.510,868.672921
20 Apr 2023 10:17:08.000,40.725,36.482,885.453697
20 Apr 2023 10:18:08.000,65.934,27.592,1073.838788
