aer_data/WS_AER.csv

Time (UTCG),Azimuth (deg),Elevation (deg),Range (km)
1 Mar 2024 16:57:51.819,301.830,7.817,1999.995151
1 Mar 2024 16:58:51.000,310.313,12.203,1699.257903
1 Mar 2024 16:59:51.000,322.619,16.983,1444.495213
1 Mar 2024 17:00:51.000,339.902,21.134,1271.980299
1 Mar 2024 17:01:51.000,1.274,22.654,1217.934627
1 Mar 2024 17:02:51.000,22.112,20.452,1297.446088
1 Mar 2024 17:03:51.000,38.378,16.041,1489.016171
1 Mar 2024 17:04:51.000,49.838,11.283,1755.771053
1 Mar 2024 17:05:38.446,56.395,7.804,1999.987175
1 Mar 2024 18:38:53.202,308.758,7.815,1999.983171
1 Mar 2024 18:39:53.000,314.862,13.030,1649.633717
1 Mar 2024 18:40:53.000,324.471,19.605,1330.139999
1 Mar 2024 18:41:53.000,340.694,27.420,1073.568808
1 Mar 2024 18:42:53.000,7.264,33.507,934.689438
1 Mar 2024 18:43:53.000,38.541,31.924,966.318065
1 Mar 2024 18:44:53.000,61.252,24.536,1154.484973
1 Mar 2024 18:45:53.000,74.631,17.034,1438.555502
1 Mar 2024 18:46:53.000,82.721,10.966,1772.256234
1 Mar 2024 18:47:31.375,86.334,7.747,1999.989767
1 Mar 2024 20:19:28.053,294.557,7.787,1999.991107
1 Mar 2024 20:20:28.000,292.351,13.618,1613.748583
1 Mar 2024 20:21:28.000,288.442,21.856,1242.615935
1 Mar 2024 20:22:28.000,280.029,34.802,908.443475
1 Mar 2024 20:23:28.000,253.960,54.638,671.231911
1 Mar 2024 20:24:28.000,181.955,57.782,649.176079
1 Mar 2024 20:25:28.000,149.191,37.581,859.081559
1 Mar 2024 20:26:28.000,139.336,23.500,1182.831293
1 Mar 2024 20:27:28.000,134.942,14.673,1549.853741
1 Mar 2024 20:28:28.000,132.498,8.531,1934.671776
1 Mar 2024 20:28:38.039,132.193,7.666,1999.990023
1 Mar 2024 22:02:23.544,248.033,7.699,1999.990077
1 Mar 2024 22:03:23.000,235.718,9.125,1892.521192
1 Mar 2024 22:04:23.000,222.337,9.427,1869.692265
1 Mar 2024 22:05:23.000,209.287,8.493,1935.861231
1 Mar 2024 22:05:53.031,203.252,7.638,2000.000070
2 Mar 2024 11:53:43.097,171.358,7.686,1999.985880
2 Mar 2024 11:54:43.000,159.851,10.389,1806.422292
2 Mar 2024 11:55:43.000,145.976,12.205,1691.845312
2 Mar 2024 11:56:43.000,130.850,12.527,1673.593202
2 Mar 2024 11:57:43.000,116.335,11.228,1754.850092
2 Mar 2024 11:58:43.000,103.909,8.787,1922.850107
2 Mar 2024 11:59:04.436,100.085,7.764,1999.996908
2 Mar 2024 13:31:56.768,234.282,7.727,1999.978723
2 Mar 2024 13:32:56.000,233.394,13.559,1614.378734
2 Mar 2024 13:33:56.000,231.760,22.007,1236.436926
2 Mar 2024 13:34:56.000,228.063,35.867,889.928794
2 Mar 2024 13:35:56.000,213.700,61.067,631.396366
2 Mar 2024 13:36:56.000,97.716,70.146,591.895173
2 Mar 2024 13:37:56.000,70.748,41.569,804.453643
2 Mar 2024 13:38:56.000,65.774,25.237,1134.842637
2 Mar 2024 13:39:56.000,63.802,15.680,1506.637477
2 Mar 2024 13:40:56.000,62.793,9.235,1894.603985
2 Mar 2024 13:41:12.084,62.607,7.815,1999.993149
2 Mar 2024 15:13:17.149,278.626,7.793,1999.980794
2 Mar 2024 15:14:17.000,285.361,12.860,1658.774722
2 Mar 2024 15:15:17.000,295.767,19.040,1353.250837
2 Mar 2024 15:16:17.000,312.573,25.892,1116.293421
2 Mar 2024 15:17:17.000,337.924,30.498,999.064563
2 Mar 2024 15:18:17.000,5.916,28.646,1043.153526
2 Mar 2024 15:19:17.000,26.735,22.275,1231.159001
2 Mar 2024 15:20:17.000,39.736,15.638,1509.672223
2 Mar 2024 15:21:17.000,47.949,10.066,1837.168447
2 Mar 2024 15:21:45.024,50.779,7.822,1999.989889
2 Mar 2024 16:55:06.206,305.625,7.822,1999.991147
2 Mar 2024 16:56:06.000,314.139,12.285,1694.576945
2 Mar 2024 16:57:06.000,326.424,17.126,1438.054190
2 Mar 2024 16:58:06.000,343.767,21.363,1263.622900
2 Mar 2024 16:59:06.000,5.324,22.942,1208.163486
2 Mar 2024 17:00:06.000,26.373,20.714,1287.365266
2 Mar 2024 17:01:06.000,42.753,16.231,1479.519138
2 Mar 2024 17:02:06.000,54.243,11.413,1747.189570
2 Mar 2024 17:02:54.901,60.969,7.798,1999.986609
2 Mar 2024 18:35:54.582,307.184,7.814,1999.997919
2 Mar 2024 18:36:54.000,311.907,13.271,1635.644393
2 Mar 2024 18:37:54.000,319.624,20.580,1291.774607
2 Mar 2024 18:38:54.000,333.838,30.439,999.318061
2 Mar 2024 18:39:54.000,2.242,40.602,817.273275
2 Mar 2024 18:40:54.000,42.770,40.136,823.407780
2 Mar 2024 18:41:54.000,70.073,29.724,1014.362140
2 Mar 2024 18:42:54.000,83.706,19.999,1311.300675
2 Mar 2024 18:43:54.000,91.154,12.813,1657.470202
2 Mar 2024 18:44:49.710,95.496,7.732,1999.976719
2 Mar 2024 20:16:37.603,288.752,7.779,1999.985726
2 Mar 2024 20:17:37.000,284.156,13.245,1634.200526
2 Mar 2024 20:18:37.000,276.427,20.549,1290.051663
2 Mar 2024 20:19:37.000,261.952,30.293,999.946887
2 Mar 2024 20:20:37.000,233.298,39.895,824.717781
2 Mar 2024 20:21:37.000,194.034,38.786,840.374806
2 Mar 2024 20:22:37.000,168.027,28.586,1038.235855
2 Mar 2024 20:23:37.000,154.960,19.187,1339.304388
2 Mar 2024 20:24:37.000,147.832,12.200,1688.414798
2 Mar 2024 20:25:27.428,144.045,7.652,1999.990480
3 Mar 2024 11:49:41.536,189.349,7.686,1999.986195
3 Mar 2024 11:50:41.000,180.028,11.746,1718.920026
3 Mar 2024 11:51:41.000,166.986,15.783,1495.419869
3 Mar 2024 11:52:41.000,149.852,18.687,1363.363614
3 Mar 2024 11:53:41.000,130.445,19.016,1350.511975
3 Mar 2024 11:54:41.000,112.598,16.567,1460.150219
3 Mar 2024 11:55:41.000,98.714,12.670,1668.009310
3 Mar 2024 11:56:41.000,88.681,8.549,1942.214968
3 Mar 2024 11:56:52.478,87.117,7.786,1999.999996
3 Mar 2024 13:28:59.475,245.078,7.743,1999.979809
3 Mar 2024 13:29:59.000,246.343,13.598,1613.353858
3 Mar 2024 13:30:59.000,248.460,22.030,1236.521340
3 Mar 2024 13:31:59.000,252.906,35.816,891.469666
3 Mar 2024 13:32:59.000,269.070,60.545,634.735505
3 Mar 2024 13:33:59.000,18.990,69.149,595.764270
3 Mar 2024 13:34:59.000,48.182,41.426,806.809353
3 Mar 2024 13:35:59.000,54.085,25.228,1135.630559
3 Mar 2024 13:36:59.000,56.638,15.700,1506.154904
3 Mar 2024 13:37:59.000,58.116,9.264,1893.033034
3 Mar 2024 13:38:15.362,58.423,7.822,1999.972659
3 Mar 2024 15:10:38.288,286.582,7.805,1999.990309
3 Mar 2024 15:11:38.000,294.176,12.594,1675.237635
3 Mar 2024 15:12:38.000,305.567,18.149,1391.757008
3 Mar 2024 15:13:38.000,322.807,23.687,1183.820608
3 Mar 2024 15:14:38.000,346.313,26.628,1096.222527
3 Mar 2024 15:15:38.000,10.568,24.549,1156.920540
3 Mar 2024 15:16:38.000,29.084,19.250,1345.765696
3 Mar 2024 15:17:38.000,41.415,13.603,1617.915845
3 Mar 2024 15:18:38.000,49.619,8.649,1937.776205
3 Mar 2024 15:18:49.041,50.821,7.823,1999.990206
3 Mar 2024 16:52:16.580,308.064,7.826,2000.000077
3 Mar 2024 16:53:16.000,316.181,12.386,1688.648490
3 Mar 2024 16:54:16.000,328.124,17.497,1421.182052
3 Mar 2024 16:55:16.000,345.435,22.215,1233.177658
3 Mar 2024 16:56:16.000,7.707,24.284,1164.657904
3 Mar 2024 16:57:16.000,29.912,22.120,1235.947969
3 Mar 2024 16:58:16.000,47.098,17.363,1426.032560
3 Mar 2024 16:59:16.000,58.939,12.250,1694.868004
3 Mar 2024 17:00:14.126,66.840,7.790,1999.999802
3 Mar 2024 18:32:55.340,304.704,7.812,1999.992193
3 Mar 2024 18:33:55.000,307.811,13.530,1620.661998
3 Mar 2024 18:34:55.000,312.994,21.528,1256.250431
3 Mar 2024 18:35:55.000,323.398,33.660,931.558902
3 Mar 2024 18:36:55.000,351.145,50.526,705.937681
3 Mar 2024 18:37:55.000,51.146,52.773,686.561666
3 Mar 2024 18:38:55.000,84.029,36.006,887.178529
3 Mar 2024 18:39:55.000,95.887,23.003,1201.833071
3 Mar 2024 18:40:55.000,101.556,14.499,1562.335076
3 Mar 2024 18:41:55.000,104.872,8.478,1942.370195
3 Mar 2024 18:42:03.949,105.254,7.716,1999.976677
3 Mar 2024 20:13:53.868,281.552,7.768,1999.990211
3 Mar 2024 20:14:53.000,274.533,12.636,1668.743943
3 Mar 2024 20:15:53.000,263.588,18.448,1374.079833
3 Mar 2024 20:16:53.000,246.410,24.434,1154.909150
3 Mar 2024 20:17:53.000,222.126,27.751,1060.148647
3 Mar 2024 20:18:53.000,196.852,25.468,1122.084344
3 Mar 2024 20:19:53.000,178.059,19.695,1318.558329
3 Mar 2024 20:20:53.000,165.977,13.717,1600.132756
3 Mar 2024 20:21:53.000,158.180,8.583,1929.026444
3 Mar 2024 20:22:05.275,156.936,7.641,1999.991340
4 Mar 2024 11:46:04.804,203.848,7.694,1999.983497
4 Mar 2024 11:47:04.000,196.937,12.619,1666.479016
4 Mar 2024 11:48:04.000,186.152,18.550,1368.669523
4 Mar 2024 11:49:04.000,169.068,24.785,1144.915493
4 Mar 2024 11:50:04.000,144.513,28.429,1045.112804
4 Mar 2024 11:51:04.000,118.639,26.242,1103.883123
4 Mar 2024 11:52:04.000,99.461,20.332,1299.757037
4 Mar 2024 11:53:04.000,87.268,14.207,1582.079309
4 Mar 2024 11:54:04.000,79.487,8.975,1912.146835
4 Mar 2024 11:54:19.114,77.982,7.801,1999.976229
4 Mar 2024 13:26:08.586,255.339,7.760,1999.986340
4 Mar 2024 13:27:08.000,258.505,13.452,1622.651670
4 Mar 2024 13:28:08.000,263.825,21.423,1259.131587
4 Mar 2024 13:29:08.000,274.478,33.433,936.080996
4 Mar 2024 13:30:08.000,302.342,49.850,712.840695
4 Mar 2024 13:31:08.000,0.613,51.976,694.549972
4 Mar 2024 13:32:08.000,33.325,35.776,893.861882
4 Mar 2024 13:33:08.000,45.442,22.984,1206.877687
4 Mar 2024 13:34:08.000,51.293,14.550,1566.020816
4 Mar 2024 13:35:08.000,54.741,8.556,1944.893590
4 Mar 2024 13:35:16.583,55.125,7.827,1999.982836
4 Mar 2024 15:07:58.984,293.547,7.816,1999.994055
4 Mar 2024 15:08:58.000,301.620,12.339,1691.141365
4 Mar 2024 15:09:58.000,313.558,17.433,1424.100102
4 Mar 2024 15:10:58.000,330.833,22.129,1236.564108
4 Mar 2024 15:11:58.000,353.026,24.189,1168.283892
4 Mar 2024 15:12:58.000,15.153,22.052,1239.357343
4 Mar 2024 15:13:58.000,32.311,17.332,1428.888908
4 Mar 2024 15:14:58.000,44.158,12.246,1697.067188
4 Mar 2024 15:15:55.841,52.044,7.822,1999.999200
4 Mar 2024 16:49:23.171,309.214,7.828,1999.998427
4 Mar 2024 16:50:23.000,316.791,12.633,1673.970997
4 Mar 2024 16:51:23.000,328.147,18.212,1389.449388
4 Mar 2024 16:52:23.000,345.381,23.801,1180.041597
4 Mar 2024 16:53:23.000,8.988,26.801,1090.935887
4 Mar 2024 16:54:23.000,33.411,24.715,1150.819380
4 Mar 2024 16:55:23.000,52.029,19.358,1339.711517
4 Mar 2024 16:56:23.000,64.387,13.659,1612.382034
4 Mar 2024 16:57:23.000,72.582,8.672,1932.940648
4 Mar 2024 16:57:34.868,73.867,7.779,1999.994062
4 Mar 2024 18:29:56.602,301.355,7.809,1999.990737
4 Mar 2024 18:30:56.000,302.531,13.642,1614.023141
4 Mar 2024 18:31:56.000,304.464,22.066,1236.709142
4 Mar 2024 18:32:56.000,308.479,35.875,890.618151
4 Mar 2024 18:33:56.000,323.198,60.948,631.899538
4 Mar 2024 18:34:56.000,78.678,70.132,591.078320
4 Mar 2024 18:35:56.000,106.340,41.574,802.317874
4 Mar 2024 18:36:56.000,111.675,25.204,1131.928077
4 Mar 2024 18:37:56.000,113.960,15.626,1503.204063
4 Mar 2024 18:38:56.000,115.269,9.171,1890.784745
4 Mar 2024 18:39:12.679,115.543,7.699,1999.991402
4 Mar 2024 20:11:21.294,272.266,7.752,1999.992911
4 Mar 2024 20:12:21.000,262.778,11.749,1721.331759
4 Mar 2024 20:13:21.000,249.618,15.635,1503.122138
4 Mar 2024 20:14:21.000,232.518,18.315,1377.546324
4 Mar 2024 20:15:21.000,213.397,18.448,1370.744378
4 Mar 2024 20:16:21.000,195.940,15.946,1484.287552
4 Mar 2024 20:17:21.000,182.339,12.101,1693.691312
4 Mar 2024 20:18:21.000,172.444,8.056,1967.859656
4 Mar 2024 20:18:27.431,171.564,7.635,1999.994000
5 Mar 2024 11:42:43.051,216.666,7.706,1999.992170
5 Mar 2024 11:43:43.000,212.127,13.263,1629.887832
5 Mar 2024 11:44:43.000,204.557,20.670,1284.242136
5 Mar 2024 11:45:43.000,190.278,30.674,991.733933
5 Mar 2024 11:46:43.000,161.389,40.793,813.635282
5 Mar 2024 11:47:43.000,120.969,39.793,828.253008
5 Mar 2024 11:48:43.000,94.572,29.221,1027.373534
5 Mar 2024 11:49:43.000,81.596,19.592,1330.068151
5 Mar 2024 11:50:43.000,74.615,12.499,1680.477404
5 Mar 2024 11:51:34.553,70.877,7.812,1999.990110
5 Mar 2024 13:23:22.736,265.064,7.776,1999.992060
5 Mar 2024 13:24:22.000,269.836,13.215,1637.233497
5 Mar 2024 13:25:22.000,277.656,20.495,1294.594602
5 Mar 2024 13:26:22.000,292.004,30.245,1004.226769
5 Mar 2024 13:27:22.000,320.293,40.137,824.906403
5 Mar 2024 13:28:22.000,0.085,39.627,832.526635
5 Mar 2024 13:29:22.000,27.104,29.489,1022.823544
5 Mar 2024 13:30:22.000,40.784,19.932,1318.395997
5 Mar 2024 13:31:22.000,48.322,12.819,1663.217515
5 Mar 2024 13:32:16.977,52.695,7.830,1999.989645
5 Mar 2024 15:05:17.679,299.343,7.824,1999.996690
5 Mar 2024 15:06:17.000,307.786,12.249,1697.113899
5 Mar 2024 15:07:17.000,320.046,17.083,1440.502281
5 Mar 2024 15:08:17.000,337.346,21.320,1265.805481
5 Mar 2024 15:09:17.000,358.858,22.915,1209.802608
5 Mar 2024 15:10:17.000,19.892,20.714,1288.263153
5 Mar 2024 15:11:17.000,36.285,16.252,1479.690522
5 Mar 2024 15:12:17.000,47.798,11.442,1746.756678
5 Mar 2024 15:13:06.055,54.560,7.819,1999.981761
5 Mar 2024 16:46:26.636,309.191,7.828,1999.991568
5 Mar 2024 16:47:26.000,315.812,12.857,1660.749366
5 Mar 2024 16:48:26.000,326.110,19.055,1353.527212
5 Mar 2024 16:49:26.000,342.800,25.986,1113.802857
5 Mar 2024 16:50:26.000,8.201,30.751,993.006678
5 Mar 2024 16:51:26.000,36.515,28.969,1034.245932
5 Mar 2024 16:52:26.000,57.589,22.516,1221.136856
5 Mar 2024 16:53:26.000,70.682,15.784,1499.702645
5 Mar 2024 16:54:26.000,78.908,10.150,1827.753785
5 Mar 2024 16:54:55.560,81.872,7.767,1999.990294
5 Mar 2024 18:26:59.612,297.120,7.803,1999.991294
5 Mar 2024 18:27:59.000,296.135,13.642,1613.621154
5 Mar 2024 18:28:59.000,294.296,22.072,1236.060948
5 Mar 2024 18:29:59.000,290.113,35.873,890.242545
5 Mar 2024 18:30:59.000,274.059,60.675,633.057687
5 Mar 2024 18:31:59.000,164.037,68.889,595.081286
5 Mar 2024 18:32:59.000,135.608,41.112,807.980636
5 Mar 2024 18:33:59.000,130.037,24.963,1138.316951
5 Mar 2024 18:34:59.000,127.779,15.469,1510.114121
5 Mar 2024 18:35:59.000,126.586,9.052,1898.169424
5 Mar 2024 18:36:14.533,126.367,7.683,1999.979818
5 Mar 2024 20:09:10.758,258.958,7.729,1999.983495
5 Mar 2024 20:10:10.000,247.486,10.280,1814.602289
5 Mar 2024 20:11:10.000,233.632,11.935,1706.819221
5 Mar 2024 20:12:10.000,218.675,12.104,1695.171260
5 Mar 2024 20:13:10.000,204.426,10.719,1781.484061
5 Mar 2024 20:14:10.000,192.250,8.266,1952.407582
5 Mar 2024 20:14:23.374,189.871,7.638,1999.991579
6 Mar 2024 10:02:09.901,158.504,7.692,1999.992884
6 Mar 2024 10:03:09.000,146.341,9.294,1882.452485
6 Mar 2024 10:04:09.000,132.868,9.805,1847.900277
6 Mar 2024 10:05:09.000,119.559,9.032,1903.606607
6 Mar 2024 10:05:53.807,110.476,7.752,1999.990158
6 Mar 2024 11:39:32.288,228.467,7.720,1999.997968
6 Mar 2024 11:40:32.000,226.371,13.545,1614.860027
6 Mar 2024 11:41:32.000,222.677,21.817,1242.942164
6 Mar 2024 11:42:32.000,214.738,34.888,907.235646
6 Mar 2024 11:43:32.000,189.601,55.364,667.168054
6 Mar 2024 11:44:32.000,114.529,59.235,642.250042
6 Mar 2024 11:45:32.000,81.404,38.291,851.643281
6 Mar 2024 11:46:32.000,71.894,23.913,1175.712005
6 Mar 2024 11:47:32.000,67.730,14.973,1543.016468
6 Mar 2024 11:48:32.000,65.451,8.779,1927.996299
6 Mar 2024 11:48:43.059,65.143,7.821,1999.984151
6 Mar 2024 13:20:40.506,274.186,7.792,1999.970197
6 Mar 2024 13:21:40.000,280.305,12.975,1652.129402
6 Mar 2024 13:22:40.000,289.971,19.517,1333.844402
6 Mar 2024 13:23:40.000,306.226,27.244,1079.092212
6 Mar 2024 13:24:40.000,332.622,33.198,942.159093
6 Mar 2024 13:25:40.000,3.522,31.635,974.545537
6 Mar 2024 13:26:40.000,26.065,24.393,1162.017918
6 Mar 2024 13:27:40.000,39.447,16.993,1444.861591
6 Mar 2024 13:28:40.000,47.587,10.977,1777.297916
6 Mar 2024 13:29:17.665,51.177,7.833,1999.980978
6 Mar 2024 15:02:33.157,303.837,7.830,1999.986321
6 Mar 2024 15:03:33.000,312.430,12.271,1696.113564
6 Mar 2024 15:04:33.000,324.782,17.055,1442.019728
6 Mar 2024 15:05:33.000,342.121,21.195,1270.530538
6 Mar 2024 15:06:33.000,3.522,22.679,1217.814692
6 Mar 2024 15:07:33.000,24.335,20.441,1298.618144
6 Mar 2024 15:08:33.000,40.551,16.014,1491.138845
6 Mar 2024 15:09:33.000,51.968,11.253,1758.492883
6 Mar 2024 15:10:19.885,58.433,7.814,1999.999873
6 Mar 2024 16:43:27.892,308.118,7.828,1999.970329
6 Mar 2024 16:44:27.000,313.533,13.114,1645.663613
6 Mar 2024 16:45:27.000,322.270,20.031,1313.955249
6 Mar 2024 16:46:27.000,337.629,28.777,1039.502932
6 Mar 2024 16:47:27.000,5.074,36.598,879.267839
6 Mar 2024 16:48:27.000,40.108,35.518,897.465846
6 Mar 2024 16:49:27.000,64.930,26.956,1085.164175
6 Mar 2024 16:50:27.000,78.614,18.494,1374.127990
6 Mar 2024 16:51:27.000,86.524,11.910,1713.121562
6 Mar 2024 16:52:14.539,90.676,7.752,1999.989544
6 Mar 2024 18:24:05.866,291.901,7.797,1999.982727
6 Mar 2024 18:25:05.000,288.585,13.423,1625.384038
6 Mar 2024 18:26:05.000,282.816,21.263,1264.517796
6 Mar 2024 18:27:05.000,271.155,32.786,947.483139
6 Mar 2024 18:28:05.000,242.386,47.314,735.376222
6 Mar 2024 18:29:05.000,190.247,48.019,727.703850
6 Mar 2024 18:30:05.000,159.762,33.587,929.551523
6 Mar 2024 18:31:05.000,147.477,21.761,1242.165620
6 Mar 2024 18:32:05.000,141.452,13.730,1601.119612
6 Mar 2024 18:33:05.000,137.954,7.925,1980.365149
6 Mar 2024 18:33:08.053,137.815,7.669,1999.972871
7 Mar 2024 09:57:42.227,180.701,7.683,1999.978350
7 Mar 2024 09:58:42.000,170.182,11.129,1757.795026
7 Mar 2024 09:59:42.000,156.495,14.055,1585.350879
7 Mar 2024 10:00:42.000,140.173,15.531,1509.004365
7 Mar 2024 10:01:42.000,123.328,14.879,1543.490891
7 Mar 2024 10:02:42.000,108.480,12.423,1681.973545
7 Mar 2024 10:03:42.000,96.759,9.099,1901.482068
7 Mar 2024 10:04:04.627,93.126,7.780,2000.000018
7 Mar 2024 11:36:30.259,239.560,7.736,1999.985548
7 Mar 2024 11:37:30.000,239.737,13.643,1610.408888
7 Mar 2024 11:38:30.000,239.960,22.171,1231.309872
7 Mar 2024 11:39:30.000,240.305,36.322,882.629447
7 Mar 2024 11:40:30.000,241.315,63.249,620.455299
7 Mar 2024 11:41:30.000,57.411,74.582,579.122066
7 Mar 2024 11:42:30.000,59.480,42.411,793.976289
7 Mar 2024 11:43:30.000,59.921,25.548,1126.402013
7 Mar 2024 11:44:30.000,60.192,15.844,1499.322331
7 Mar 2024 11:45:30.000,60.415,9.343,1887.871890
7 Mar 2024 11:45:47.092,60.474,7.828,1999.981833
7 Mar 2024 13:18:00.338,282.578,7.805,1999.986542
7 Mar 2024 13:19:00.000,289.746,12.724,1667.694819
7 Mar 2024 13:20:00.000,300.675,18.584,1373.222091
7 Mar 2024 13:21:00.000,317.737,24.745,1150.952060
7 Mar 2024 13:22:00.000,342.120,28.439,1048.855094
7 Mar 2024 13:23:00.000,8.066,26.466,1101.225338
7 Mar 2024 13:24:00.000,27.661,20.699,1289.161023
7 Mar 2024 13:25:00.000,40.343,14.603,1563.960138
7 Mar 2024 13:26:00.000,48.581,9.360,1887.241675
7 Mar 2024 13:26:19.713,50.657,7.834,1999.981165
7 Mar 2024 14:59:44.736,306.972,7.835,1999.986728
7 Mar 2024 15:00:44.000,315.268,12.307,1694.140827
7 Mar 2024 15:01:44.000,327.395,17.253,1432.996615
7 Mar 2024 15:02:44.000,344.696,21.685,1252.698919
7 Mar 2024 15:03:44.000,6.510,23.471,1191.363181
7 Mar 2024 15:04:44.000,28.013,21.289,1266.642296
7 Mar 2024 15:05:44.000,44.732,16.711,1457.296653
7 Mar 2024 15:06:44.000,56.386,11.779,1724.938717
7 Mar 2024 15:07:36.922,63.643,7.807,1999.998946
7 Mar 2024 16:40:27.960,306.099,7.826,1999.990555
7 Mar 2024 16:41:27.000,310.040,13.366,1631.038503
7 Mar 2024 16:42:27.000,316.594,21.005,1276.418394
7 Mar 2024 16:43:27.000,329.181,31.936,967.154230
7 Mar 2024 16:44:27.000,357.719,44.975,762.592130
7 Mar 2024 16:45:27.000,45.598,45.662,754.473975
7 Mar 2024 16:46:27.000,75.812,32.795,947.955959
7 Mar 2024 16:47:27.000,89.070,21.577,1252.427354
7 Mar 2024 16:48:27.000,95.870,13.738,1605.189433
7 Mar 2024 16:49:27.000,99.960,8.002,1979.652621
7 Mar 2024 16:49:30.200,100.133,7.737,1999.978744
7 Mar 2024 18:21:17.389,285.481,7.787,1999.984686
7 Mar 2024 18:22:17.000,279.669,13.037,1646.713779
7 Mar 2024 18:23:17.000,270.254,19.696,1323.787565
7 Mar 2024 18:24:17.000,254.010,27.620,1065.534729
7 Mar 2024 18:25:17.000,227.110,33.658,928.903424
7 Mar 2024 18:26:17.000,195.818,31.716,967.408650
7 Mar 2024 18:27:17.000,173.639,24.107,1163.624227
7 Mar 2024 18:28:17.000,160.810,16.580,1454.484827
7 Mar 2024 18:29:17.000,153.164,10.541,1793.676291
7 Mar 2024 18:29:51.366,150.106,7.657,1999.977354
8 Mar 2024 09:53:53.832,196.615,7.686,1999.999658
8 Mar 2024 09:54:53.000,188.466,12.199,1691.189554
8 Mar 2024 09:55:53.000,176.370,17.195,1428.173292
8 Mar 2024 09:56:53.000,158.973,21.620,1249.193468
8 Mar 2024 09:57:53.000,137.103,23.264,1193.583083
8 Mar 2024 09:58:53.000,115.863,20.887,1277.842912
8 Mar 2024 09:59:53.000,99.639,16.219,1478.031758
8 Mar 2024 10:00:53.000,88.503,11.285,1754.346868
8 Mar 2024 10:01:39.376,82.395,7.798,1999.993421
8 Mar 2024 11:33:35.353,250.087,7.752,1999.990600
8 Mar 2024 11:34:35.000,252.311,13.563,1615.950937
8 Mar 2024 11:35:35.000,256.060,21.825,1244.381117
8 Mar 2024 11:36:35.000,263.841,34.906,908.157777
8 Mar 2024 11:37:35.000,288.184,55.733,665.435721
8 Mar 2024 11:38:35.000,5.668,60.510,635.625258
8 Mar 2024 11:39:35.000,39.794,39.002,841.678568
8 Mar 2024 11:40:35.000,49.438,24.320,1163.921072
8 Mar 2024 11:41:35.000,53.786,15.249,1529.791869
8 Mar 2024 11:42:35.000,56.299,8.992,1913.409588
8 Mar 2024 11:42:48.342,56.725,7.833,1999.979119
8 Mar 2024 13:15:20.590,290.075,7.817,1999.984653
8 Mar 2024 13:16:20.000,297.941,12.473,1683.329248
8 Mar 2024 13:17:20.000,309.641,17.784,1408.632496
8 Mar 2024 13:18:20.000,326.923,22.862,1211.707219
8 Mar 2024 13:19:20.000,349.721,25.306,1134.657733
8 Mar 2024 13:20:20.000,12.789,23.189,1201.034903
8 Mar 2024 13:21:20.000,30.553,18.215,1390.200578
8 Mar 2024 13:22:20.000,42.625,12.881,1660.120969
8 Mar 2024 13:23:20.000,50.795,8.133,1977.190301
8 Mar 2024 13:23:24.097,51.252,7.834,1999.990562
8 Mar 2024 14:56:52.352,308.776,7.837,1999.977463
8 Mar 2024 14:57:52.000,316.673,12.511,1682.000410
8 Mar 2024 14:58:52.000,328.379,17.826,1407.178879
8 Mar 2024 14:59:52.000,345.680,22.910,1210.044488
8 Mar 2024 15:00:52.000,8.521,25.352,1132.855051
8 Mar 2024 15:01:52.000,31.630,23.214,1199.331618
8 Mar 2024 15:02:52.000,49.406,18.215,1388.817830
8 Mar 2024 15:03:52.000,61.469,12.862,1659.166989
8 Mar 2024 15:04:52.000,69.624,8.103,1976.714257
8 Mar 2024 15:04:56.177,70.088,7.798,1999.996731
8 Mar 2024 16:37:27.941,303.199,7.823,1999.991176
8 Mar 2024 16:38:27.000,305.385,13.560,1619.728623
8 Mar 2024 16:39:27.000,309.065,21.783,1247.741886
8 Mar 2024 16:40:27.000,316.652,34.812,910.374654
8 Mar 2024 16:41:27.000,340.402,55.743,665.009972
8 Mar 2024 16:42:27.000,58.795,61.056,631.544951
8 Mar 2024 16:43:27.000,93.410,39.233,835.997136
8 Mar 2024 16:44:27.000,102.989,24.376,1158.148485
8 Mar 2024 16:45:27.000,107.265,15.235,1524.372727
8 Mar 2024 16:46:27.000,109.712,8.947,1908.504750
8 Mar 2024 16:46:41.077,110.146,7.720,1999.989859
8 Mar 2024 18:18:37.392,277.405,7.774,1999.991343
8 Mar 2024 18:19:37.000,269.147,12.292,1689.711630
8 Mar 2024 18:20:37.000,256.961,17.225,1428.560048
8 Mar 2024 18:21:37.000,239.498,21.522,1252.443186
8 Mar 2024 18:22:37.000,217.710,23.002,1200.122168
8 Mar 2024 18:23:37.000,196.683,20.538,1286.906741
8 Mar 2024 18:24:37.000,180.636,15.875,1488.307615
8 Mar 2024 18:25:37.000,169.580,10.976,1764.840153
8 Mar 2024 18:26:21.513,163.700,7.649,1999.998364
9 Mar 2024 09:50:24.162,210.174,7.695,1999.990210
9 Mar 2024 09:51:24.000,204.360,12.987,1645.114942
9 Mar 2024 09:52:24.000,194.994,19.697,1321.580513
9 Mar 2024 09:53:24.000,178.806,27.737,1062.226522
9 Mar 2024 09:54:24.000,151.817,33.964,924.231339
9 Mar 2024 09:55:24.000,120.220,32.102,961.972879
9 Mar 2024 09:56:24.000,97.877,24.429,1158.318915
9 Mar 2024 09:57:24.000,85.038,16.838,1449.685380
9 Mar 2024 09:58:24.000,77.436,10.760,1789.453514
9 Mar 2024 09:58:59.004,74.363,7.811,1999.982256
9 Mar 2024 11:30:46.187,260.089,7.769,1999.990520
9 Mar 2024 11:31:46.000,264.104,13.399,1626.335093
9 Mar 2024 11:32:46.000,270.746,21.075,1272.461010
9 Mar 2024 11:33:46.000,283.534,32.030,964.951612
9 Mar 2024 11:34:46.000,312.394,44.916,763.822411
9 Mar 2024 11:35:46.000,359.875,45.302,759.765985
9 Mar 2024 11:36:46.000,29.629,32.556,955.232886
9 Mar 2024 11:37:46.000,42.798,21.478,1260.024926
9 Mar 2024 11:38:46.000,49.605,13.712,1612.474890
9 Mar 2024 11:39:46.000,53.727,8.015,1986.368313
9 Mar 2024 11:39:48.147,53.845,7.837,1999.982233
9 Mar 2024 13:12:39.621,296.493,7.826,1999.984667
9 Mar 2024 13:13:39.000,304.813,12.310,1693.689266
9 Mar 2024 13:14:39.000,316.955,17.256,1432.905435
9 Mar 2024 13:15:39.000,334.267,21.679,1253.168288
9 Mar 2024 13:16:39.000,356.070,23.453,1192.481463
9 Mar 2024 13:17:39.000,17.539,21.266,1268.255724
9 Mar 2024 13:18:39.000,34.229,16.696,1459.124702
9 Mar 2024 13:19:39.000,45.868,11.775,1726.756814
9 Mar 2024 13:20:31.606,53.084,7.832,1999.975613
9 Mar 2024 14:53:56.460,309.344,7.838,1999.978404
9 Mar 2024 14:54:56.000,316.486,12.743,1668.222906
9 Mar 2024 14:55:56.000,327.385,18.605,1373.226723
9 Mar 2024 14:56:56.000,344.419,24.783,1149.991321
9 Mar 2024 14:57:56.000,8.826,28.515,1046.632059
9 Mar 2024 14:58:56.000,34.868,26.551,1098.007399
9 Mar 2024 14:59:56.000,54.538,20.753,1285.582757
9 Mar 2024 15:00:56.000,67.247,14.623,1560.498145
9 Mar 2024 15:01:56.000,75.483,9.356,1884.153834
9 Mar 2024 15:02:16.219,77.605,7.787,1999.982904
9 Mar 2024 16:34:29.004,299.432,7.818,1999.991904
9 Mar 2024 16:35:29.000,299.598,13.747,1608.869500
9 Mar 2024 16:36:29.000,299.765,22.279,1229.849144
9 Mar 2024 16:37:29.000,299.943,36.448,881.224616
9 Mar 2024 16:38:29.000,300.205,63.441,619.273775
9 Mar 2024 16:39:29.000,119.818,74.347,578.766811
9 Mar 2024 16:40:29.000,120.203,42.197,794.497323
9 Mar 2024 16:41:29.000,120.373,25.368,1127.464457
9 Mar 2024 16:42:29.000,120.515,15.683,1500.797297
9 Mar 2024 16:43:29.000,120.646,9.192,1889.736578
9 Mar 2024 16:43:45.790,120.681,7.704,1999.976546
9 Mar 2024 18:16:12.325,266.597,7.756,1999.987746
9 Mar 2024 18:17:12.000,256.055,11.146,1759.616199
9 Mar 2024 18:18:12.000,242.345,13.993,1589.294921
9 Mar 2024 18:19:12.000,226.060,15.370,1515.448183
9 Mar 2024 18:20:12.000,209.322,14.639,1552.103927
9 Mar 2024 18:21:12.000,194.594,12.151,1691.870707
9 Mar 2024 18:22:12.000,182.953,8.828,1911.716696
9 Mar 2024 18:22:32.362,179.681,7.647,1999.988617
10 Mar 2024 09:47:07.188,222.441,7.708,1999.999952
10 Mar 2024 09:48:07.000,219.094,13.421,1621.049788
10 Mar 2024 09:49:07.000,213.349,21.323,1260.152225
10 Mar 2024 09:50:07.000,201.729,32.983,943.139748
10 Mar 2024 09:51:07.000,172.793,47.767,731.548870
10 Mar 2024 09:52:07.000,119.955,48.429,725.498412
10 Mar 2024 09:53:07.000,89.527,33.798,929.036402
10 Mar 2024 09:54:07.000,77.407,21.917,1242.631541
10 Mar 2024 09:55:07.000,71.501,13.870,1602.111050
10 Mar 2024 09:56:07.000,68.100,8.060,1981.662577
10 Mar 2024 09:56:09.849,67.974,7.821,1999.970656
10 Mar 2024 11:28:01.381,269.529,7.784,1999.999559
10 Mar 2024 11:29:01.000,275.012,13.128,1642.813332
10 Mar 2024 11:30:01.000,283.817,20.062,1311.896283
10 Mar 2024 11:31:01.000,299.298,28.797,1039.086649
10 Mar 2024 11:32:01.000,326.822,36.512,881.509445
10 Mar 2024 11:33:01.000,1.631,35.331,902.311886
10 Mar 2024 11:34:01.000,26.227,26.829,1091.206663
10 Mar 2024 11:35:01.000,39.838,18.444,1380.274379
10 Mar 2024 11:36:01.000,47.743,11.906,1718.880149
10 Mar 2024 11:36:47.676,51.846,7.840,1999.980809
10 Mar 2024 13:09:56.008,301.673,7.833,1999.996230
10 Mar 2024 13:10:56.000,310.291,12.287,1695.474826
10 Mar 2024 13:11:56.000,322.655,17.072,1441.627037
10 Mar 2024 13:12:56.000,340.006,21.208,1270.495068
10 Mar 2024 13:13:56.000,1.408,22.684,1218.196334
10 Mar 2024 13:14:56.000,22.206,20.439,1299.348155
10 Mar 2024 13:15:56.000,38.405,16.011,1492.070919
10 Mar 2024 13:16:56.000,49.811,11.252,1759.502798
10 Mar 2024 13:17:42.694,56.248,7.828,1999.984443
10 Mar 2024 14:50:57.862,308.801,7.838,1999.982832
10 Mar 2024 14:51:57.000,314.866,12.982,1654.092665
10 Mar 2024 14:52:57.000,324.478,19.519,1335.146668
10 Mar 2024 14:53:57.000,340.649,27.266,1079.027353
10 Mar 2024 14:54:57.000,7.021,33.299,939.997125
10 Mar 2024 14:55:57.000,38.086,31.792,970.422118
10 Mar 2024 14:56:57.000,60.785,24.505,1156.972780
10 Mar 2024 14:57:57.000,74.223,17.046,1439.724230
10 Mar 2024 14:58:57.000,82.368,10.992,1772.481550
10 Mar 2024 14:59:35.414,86.011,7.773,1999.991073
10 Mar 2024 16:31:32.490,294.744,7.813,1999.975580
10 Mar 2024 16:32:32.000,292.644,13.605,1616.279657
10 Mar 2024 16:33:32.000,288.896,21.846,1244.545138
10 Mar 2024 16:34:32.000,280.816,34.834,909.116402
10 Mar 2024 16:35:32.000,255.445,55.031,669.340853
10 Mar 2024 16:36:32.000,181.602,58.734,644.181898
10 Mar 2024 16:37:32.000,148.439,38.046,852.930662
10 Mar 2024 16:38:32.000,138.752,23.740,1176.589219
10 Mar 2024 16:39:32.000,134.472,14.822,1543.702800
10 Mar 2024 16:40:32.000,132.103,8.638,1928.612734
10 Mar 2024 16:40:42.968,131.781,7.689,1999.999987
10 Mar 2024 18:14:23.897,248.983,7.725,1999.990788
10 Mar 2024 18:15:23.000,236.789,9.241,1886.161166
10 Mar 2024 18:16:23.000,223.348,9.653,1855.743858
10 Mar 2024 18:17:23.000,210.132,8.800,1915.140479
10 Mar 2024 18:18:02.594,202.131,7.659,1999.994490
11 Mar 2024 08:05:49.460,170.566,7.678,1999.986116
11 Mar 2024 08:06:49.000,159.069,10.303,1811.751892
11 Mar 2024 08:07:49.000,145.210,12.040,1701.621925
11 Mar 2024 08:08:49.000,130.195,12.291,1687.574520
11 Mar 2024 08:09:49.000,115.851,10.960,1772.053353
11 Mar 2024 08:10:49.000,103.587,8.528,1942.037996
11 Mar 2024 08:11:05.207,100.703,7.765,1999.989589
11 Mar 2024 09:43:59.985,233.868,7.722,1999.988113
11 Mar 2024 09:44:59.000,232.902,13.528,1615.955859
11 Mar 2024 09:45:59.000,231.126,21.955,1238.230445
11 Mar 2024 09:46:59.000,227.132,35.749,892.058351
11 Mar 2024 09:47:59.000,211.868,60.638,633.893567
11 Mar 2024 09:48:59.000,100.024,69.579,594.027055
11 Mar 2024 09:49:59.000,71.628,41.504,805.631140
11 Mar 2024 09:50:59.000,66.241,25.236,1135.396723
11 Mar 2024 09:51:59.000,64.093,15.690,1506.839889
11 Mar 2024 09:52:59.000,62.986,9.248,1894.590262
11 Mar 2024 09:53:15.093,62.781,7.828,1999.996589
11 Mar 2024 11:25:19.462,278.314,7.798,1999.990443
11 Mar 2024 11:26:19.000,284.967,12.849,1659.937682
11 Mar 2024 11:27:19.000,295.301,19.052,1353.340930
11 Mar 2024 11:28:19.000,312.034,25.968,1114.772306
11 Mar 2024 11:29:19.000,337.418,30.684,995.530930
11 Mar 2024 11:30:19.000,5.607,28.886,1038.005291
11 Mar 2024 11:31:19.000,26.582,22.473,1225.302430
11 Mar 2024 11:32:19.000,39.643,15.782,1503.679420
11 Mar 2024 11:33:19.000,47.872,10.174,1831.246720
11 Mar 2024 11:33:48.019,50.795,7.841,1999.989870
11 Mar 2024 13:07:08.783,305.513,7.838,1999.984682
11 Mar 2024 13:08:08.000,313.936,12.256,1697.603188
11 Mar 2024 13:09:08.000,326.185,17.093,1440.819362
11 Mar 2024 13:10:08.000,343.474,21.337,1265.806677
11 Mar 2024 13:11:08.000,4.988,22.943,1209.386241
11 Mar 2024 13:12:08.000,26.040,20.748,1287.466299
11 Mar 2024 13:13:08.000,42.452,16.281,1478.653683
11 Mar 2024 13:14:08.000,53.976,11.465,1745.615075
11 Mar 2024 13:14:57.271,60.768,7.822,1999.986577
11 Mar 2024 14:47:57.538,307.263,7.836,1999.998341
11 Mar 2024 14:48:57.000,312.046,13.291,1636.083094
11 Mar 2024 14:49:57.000,319.847,20.580,1293.253573
11 Mar 2024 14:50:57.000,334.169,30.363,1002.334111
11 Mar 2024 14:51:57.000,2.527,40.330,822.191955
11 Mar 2024 14:52:57.000,42.579,39.798,829.393287
11 Mar 2024 14:53:57.000,69.672,29.542,1020.022178
11 Mar 2024 14:54:57.000,83.315,19.916,1316.218887
11 Mar 2024 14:55:57.000,90.803,12.773,1661.721887
11 Mar 2024 14:56:52.112,95.139,7.758,1999.991758
11 Mar 2024 16:28:40.093,288.989,7.804,1999.982126
11 Mar 2024 16:29:40.000,284.436,13.344,1630.370245
11 Mar 2024 16:30:40.000,276.805,20.717,1285.276018
11 Mar 2024 16:31:40.000,262.416,30.624,993.815575
11 Mar 2024 16:32:40.000,233.523,40.506,817.239052
11 Mar 2024 16:33:40.000,193.540,39.365,832.927247
11 Mar 2024 16:34:40.000,167.366,28.893,1032.069414
11 Mar 2024 16:35:40.000,154.387,19.347,1334.372494
11 Mar 2024 16:36:40.000,147.352,12.297,1684.348938
11 Mar 2024 16:37:30.995,143.590,7.676,1999.992408
12 Mar 2024 08:01:44.893,188.745,7.675,1999.986634
12 Mar 2024 08:02:44.000,179.404,11.669,1723.045672
12 Mar 2024 08:03:44.000,166.325,15.630,1502.507333
12 Mar 2024 08:04:44.000,149.257,18.435,1373.693634
12 Mar 2024 08:05:44.000,130.045,18.699,1363.498652
12 Mar 2024 08:06:44.000,112.419,16.265,1474.506625
12 Mar 2024 08:07:44.000,98.680,12.425,1682.602611
12 Mar 2024 08:08:44.000,88.714,8.359,1956.453051
12 Mar 2024 08:08:52.687,87.527,7.788,1999.981051
12 Mar 2024 09:41:00.685,244.672,7.738,1999.978631
12 Mar 2024 09:42:00.000,245.853,13.573,1614.517303
12 Mar 2024 09:43:00.000,247.829,22.004,1237.338156
12 Mar 2024 09:44:00.000,251.972,35.807,891.647419
12 Mar 2024 09:45:00.000,267.124,60.751,633.666010
12 Mar 2024 09:46:00.000,20.500,69.905,593.240302
12 Mar 2024 09:47:00.000,48.919,41.661,803.942434
12 Mar 2024 09:48:00.000,54.481,25.336,1132.893630
12 Mar 2024 09:49:00.000,56.880,15.765,1503.571557
12 Mar 2024 09:50:00.000,58.271,9.311,1890.570227
12 Mar 2024 09:50:16.734,58.567,7.834,1999.973732
12 Mar 2024 11:22:38.823,286.294,7.811,1999.990283
12 Mar 2024 11:23:38.000,293.777,12.565,1677.504111
12 Mar 2024 11:24:38.000,305.095,18.139,1392.814384
12 Mar 2024 11:25:38.000,322.263,23.730,1183.083386
12 Mar 2024 11:26:38.000,345.786,26.761,1093.271801
12 Mar 2024 11:27:38.000,10.178,24.734,1152.072562
12 Mar 2024 11:28:38.000,28.826,19.420,1339.831879
12 Mar 2024 11:29:38.000,41.229,13.739,1611.513299
12 Mar 2024 11:30:38.000,49.466,8.758,1931.209706
12 Mar 2024 11:30:50.200,50.794,7.841,1999.990240
12 Mar 2024 13:04:17.556,307.999,7.841,1999.980615
12 Mar 2024 13:05:17.000,316.138,12.400,1689.012938
12 Mar 2024 13:06:17.000,328.100,17.500,1422.230820
12 Mar 2024 13:07:17.000,345.412,22.195,1235.047053
12 Mar 2024 13:08:17.000,7.643,24.238,1167.279068
12 Mar 2024 13:09:17.000,29.780,22.072,1238.963746
12 Mar 2024 13:10:17.000,46.920,17.330,1429.064556
12 Mar 2024 13:11:17.000,58.743,12.231,1697.721588
12 Mar 2024 13:12:14.646,66.584,7.814,1999.984684
12 Mar 2024 14:44:56.554,304.818,7.834,1999.992337
12 Mar 2024 14:45:56.000,307.980,13.525,1622.563577
12 Mar 2024 14:46:56.000,313.264,21.495,1258.899827
12 Mar 2024 14:47:56.000,323.829,33.529,935.292702
12 Mar 2024 14:48:56.000,351.616,50.077,710.936158
12 Mar 2024 14:49:56.000,50.457,52.267,691.637464
12 Mar 2024 14:50:56.000,83.280,35.859,890.951536
12 Mar 2024 14:51:56.000,95.316,22.972,1204.419374
12 Mar 2024 14:52:56.000,101.096,14.500,1564.107552
12 Mar 2024 14:53:56.000,104.482,8.489,1943.571624
12 Mar 2024 14:54:04.773,104.865,7.742,1999.976400
12 Mar 2024 16:25:54.282,281.858,7.793,1999.989652
12 Mar 2024 16:26:54.000,274.848,12.746,1664.103372
12 Mar 2024 16:27:54.000,263.963,18.636,1367.744960
12 Mar 2024 16:28:54.000,246.760,24.759,1146.488040
12 Mar 2024 16:29:54.000,222.227,28.204,1049.964436
12 Mar 2024 16:30:54.000,196.607,25.887,1111.479826
12 Mar 2024 16:31:54.000,177.653,19.987,1308.679153
12 Mar 2024 16:32:54.000,165.553,13.909,1591.270851
12 Mar 2024 16:33:54.000,157.784,8.718,1921.065563
12 Mar 2024 16:34:07.610,156.418,7.666,1999.983161
13 Mar 2024 07:58:05.763,203.314,7.681,1999.983397
13 Mar 2024 07:59:05.000,196.302,12.581,1667.891283
13 Mar 2024 08:00:05.000,185.402,18.445,1372.503598
13 Mar 2024 08:01:05.000,168.264,24.536,1152.031250
13 Mar 2024 08:02:05.000,143.907,27.999,1055.673094
13 Mar 2024 08:03:05.000,118.438,25.790,1116.494704
13 Mar 2024 08:04:05.000,99.511,19.997,1312.683046
13 Mar 2024 08:05:05.000,87.395,13.979,1594.499549
13 Mar 2024 08:06:05.000,79.619,8.815,1923.885538
13 Mar 2024 08:06:18.136,78.300,7.802,1999.993148
13 Mar 2024 09:38:07.823,254.941,7.754,1999.989417
13 Mar 2024 09:39:07.000,258.021,13.429,1623.683374
13 Mar 2024 09:40:07.000,263.213,21.412,1259.368752
13 Mar 2024 09:41:07.000,273.633,33.490,934.952555
13 Mar 2024 09:42:07.000,301.219,50.226,709.484037
13 Mar 2024 09:43:07.000,0.584,52.643,689.209853
13 Mar 2024 09:44:07.000,33.650,36.112,888.275680
13 Mar 2024 09:45:07.000,45.674,23.152,1201.700042
13 Mar 2024 09:46:07.000,51.442,14.651,1561.245317
13 Mar 2024 09:47:07.000,54.832,8.627,1940.429483
13 Mar 2024 09:47:16.271,55.238,7.838,1999.982087
13 Mar 2024 11:19:57.804,293.292,7.821,1999.994036
13 Mar 2024 11:20:57.000,301.376,12.368,1689.906804
13 Mar 2024 11:21:57.000,313.310,17.480,1422.555266
13 Mar 2024 11:22:57.000,330.600,22.201,1234.689013
13 Mar 2024 11:23:57.000,352.838,24.279,1166.188320
13 Mar 2024 11:24:57.000,15.017,22.135,1237.265314
13 Mar 2024 11:25:57.000,32.200,17.397,1426.959717
13 Mar 2024 11:26:57.000,44.051,12.295,1695.332576
13 Mar 2024 11:27:55.127,51.966,7.840,1999.999060
13 Mar 2024 13:01:22.530,309.195,7.842,1999.999723
13 Mar 2024 13:02:22.000,316.746,12.610,1676.499411
13 Mar 2024 13:03:22.000,328.105,18.167,1392.557423
13 Mar 2024 13:04:22.000,345.307,23.722,1183.711280
13 Mar 2024 13:05:22.000,8.817,26.699,1094.845596
13 Mar 2024 13:06:22.000,33.141,24.638,1154.400048
13 Mar 2024 13:07:22.000,51.725,19.321,1342.617295
13 Mar 2024 13:08:22.000,64.090,13.648,1614.601524
13 Mar 2024 13:09:22.000,72.301,8.674,1934.584200
13 Mar 2024 13:09:33.596,73.561,7.803,1999.995488
13 Mar 2024 14:41:56.026,301.506,7.829,1999.990958
13 Mar 2024 14:42:56.000,302.779,13.730,1610.651795
13 Mar 2024 14:43:56.000,304.865,22.184,1233.978704
13 Mar 2024 14:44:56.000,309.218,36.030,889.067738
13 Mar 2024 14:45:56.000,325.172,60.951,632.745151
13 Mar 2024 14:46:56.000,77.176,69.231,595.059435
13 Mar 2024 14:47:56.000,105.346,41.277,807.401612
13 Mar 2024 14:48:56.000,111.009,25.084,1136.970032
13 Mar 2024 14:49:56.000,113.446,15.566,1508.012637
13 Mar 2024 14:50:56.000,114.841,9.135,1895.352502
13 Mar 2024 14:51:11.992,115.122,7.725,1999.993351
13 Mar 2024 16:23:19.370,272.685,7.778,1999.999683
13 Mar 2024 16:24:19.000,263.302,11.817,1719.024196
13 Mar 2024 16:25:19.000,250.209,15.789,1497.249096
13 Mar 2024 16:26:19.000,233.068,18.589,1367.564660
13 Mar 2024 16:27:19.000,213.750,18.812,1357.094319
13 Mar 2024 16:28:19.000,196.045,16.311,1468.342159
13 Mar 2024 16:29:19.000,182.266,12.412,1676.811660
13 Mar 2024 16:30:19.000,172.278,8.308,1950.857848
13 Mar 2024 16:30:28.793,170.939,7.660,1999.993995
14 Mar 2024 07:54:41.800,216.166,7.691,1999.991183
14 Mar 2024 07:55:41.000,211.598,13.151,1635.322225
14 Mar 2024 07:56:41.000,203.933,20.480,1290.713531
14 Mar 2024 07:57:41.000,189.592,30.304,999.569334
14 Mar 2024 07:58:41.000,161.026,40.130,822.534666
14 Mar 2024 07:59:41.000,121.408,39.218,836.384980
14 Mar 2024 08:00:41.000,95.133,28.961,1033.452765
14 Mar 2024 08:01:41.000,82.025,19.481,1334.396462
14 Mar 2024 08:02:41.000,74.927,12.446,1683.612575
14 Mar 2024 08:03:32.167,71.138,7.813,1999.989895
14 Mar 2024 09:35:20.044,264.676,7.770,1999.982483
14 Mar 2024 09:36:20.000,269.455,13.293,1632.458808
14 Mar 2024 09:37:20.000,277.234,20.630,1289.275564
14 Mar 2024 09:38:20.000,291.582,30.501,998.346791
14 Mar 2024 09:39:20.000,320.132,40.560,818.992184
14 Mar 2024 09:40:20.000,0.413,39.952,827.948002
14 Mar 2024 09:41:20.000,27.449,29.612,1020.163900
14 Mar 2024 09:42:20.000,41.012,19.973,1317.169402
14 Mar 2024 09:43:20.000,48.462,12.835,1662.911528
14 Mar 2024 09:44:14.937,52.776,7.840,1999.991139
14 Mar 2024 11:17:14.845,299.131,7.829,1999.996676
14 Mar 2024 11:18:14.000,307.538,12.246,1697.766011
14 Mar 2024 11:19:14.000,319.778,17.089,1440.779308
14 Mar 2024 11:20:14.000,337.063,21.344,1265.546248
14 Mar 2024 11:21:14.000,358.583,22.963,1208.911885
14 Mar 2024 11:22:14.000,19.649,20.774,1286.825962
14 Mar 2024 11:23:14.000,36.075,16.310,1477.898694
14 Mar 2024 11:24:14.000,47.608,11.492,1744.765235
14 Mar 2024 11:25:03.443,54.425,7.837,1999.982138
14 Mar 2024 12:58:24.357,309.216,7.842,1999.991678
14 Mar 2024 12:59:24.000,315.918,12.888,1659.993880
14 Mar 2024 13:00:24.000,326.290,19.068,1354.087415
14 Mar 2024 13:01:24.000,343.047,25.937,1116.232529
14 Mar 2024 13:02:24.000,8.395,30.590,997.614368
14 Mar 2024 13:03:24.000,36.486,28.763,1040.394802
14 Mar 2024 13:04:24.000,57.397,22.362,1227.732450
14 Mar 2024 13:05:24.000,70.433,15.686,1506.136467
14 Mar 2024 13:06:24.000,78.648,10.086,1833.844643
14 Mar 2024 13:06:52.557,81.521,7.791,1999.976695
14 Mar 2024 14:38:57.190,297.312,7.824,1999.991237
14 Mar 2024 14:39:57.000,296.412,13.718,1610.858944
14 Mar 2024 14:40:57.000,294.727,22.190,1233.289137
14 Mar 2024 14:41:57.000,290.862,36.097,887.473657
14 Mar 2024 14:42:57.000,275.716,61.285,630.564145
14 Mar 2024 14:43:57.000,161.152,69.482,593.786276
14 Mar 2024 14:44:57.000,134.364,41.198,807.921420
14 Mar 2024 14:45:57.000,129.254,24.996,1138.833228
14 Mar 2024 14:46:57.000,127.192,15.489,1510.865932
14 Mar 2024 14:47:57.000,126.108,9.068,1899.009498
14 Mar 2024 14:48:12.404,125.911,7.710,1999.979833
14 Mar 2024 16:21:05.716,259.635,7.755,1999.995396
14 Mar 2024 16:22:05.000,248.229,10.381,1809.744509
14 Mar 2024 16:23:05.000,234.368,12.135,1696.553851
14 Mar 2024 16:24:05.000,219.292,12.393,1679.681444
14 Mar 2024 16:25:05.000,204.849,11.051,1761.855879
14 Mar 2024 16:26:05.000,192.482,8.594,1930.081057
14 Mar 2024 16:26:24.534,188.997,7.663,1999.993511
15 Mar 2024 06:14:12.043,157.220,7.674,1999.999418
15 Mar 2024 06:15:12.000,144.817,9.183,1889.200402
15 Mar 2024 06:16:12.000,131.409,9.557,1864.054141
15 Mar 2024 06:17:12.000,118.298,8.681,1928.236580
15 Mar 2024 06:17:45.421,111.569,7.737,2000.000111
15 Mar 2024 07:51:28.916,227.986,7.703,1999.985322
15 Mar 2024 07:52:28.000,225.820,13.449,1619.207951
15 Mar 2024 07:53:28.000,221.984,21.661,1247.691299
15 Mar 2024 07:54:28.000,213.799,34.568,912.536379
15 Mar 2024 07:55:28.000,188.503,54.542,672.778782
15 Mar 2024 07:56:28.000,115.916,58.494,646.476380
15 Mar 2024 07:57:28.000,82.336,38.144,853.656554
15 Mar 2024 07:58:28.000,72.437,23.886,1176.340692
15 Mar 2024 07:59:28.000,68.079,14.973,1542.881382
15 Mar 2024 08:00:28.000,65.689,8.787,1927.411733
15 Mar 2024 08:00:39.159,65.362,7.821,1999.985304
15 Mar 2024 09:32:35.927,273.812,7.784,2000.000007
15 Mar 2024 09:33:35.000,279.828,12.939,1653.821363
15 Mar 2024 09:34:35.000,289.396,19.503,1334.189188
15 Mar 2024 09:35:35.000,305.535,27.305,1077.373479
15 Mar 2024 09:36:35.000,331.948,33.422,937.756252
15 Mar 2024 09:37:35.000,3.144,31.951,967.964354
15 Mar 2024 09:38:35.000,25.919,24.642,1154.584520
15 Mar 2024 09:39:35.000,39.378,17.163,1437.374837
15 Mar 2024 09:40:35.000,47.533,11.098,1770.010078
15 Mar 2024 09:41:13.850,51.220,7.842,1999.977520
15 Mar 2024 11:14:28.716,303.676,7.835,1999.987624
15 Mar 2024 11:15:28.000,312.175,12.233,1698.875020
15 Mar 2024 11:16:28.000,324.488,17.017,1444.327041
15 Mar 2024 11:17:28.000,341.777,21.170,1272.054875
15 Mar 2024 11:18:28.000,3.149,22.687,1218.234662
15 Mar 2024 11:19:28.000,23.981,20.482,1297.887201
15 Mar 2024 11:20:28.000,40.239,16.067,1489.499635
15 Mar 2024 11:21:28.000,51.693,11.307,1756.234172
15 Mar 2024 11:22:15.369,58.237,7.831,1999.999921
15 Mar 2024 12:55:23.937,308.185,7.841,1999.979075
15 Mar 2024 12:56:23.000,313.651,13.114,1646.708932
15 Mar 2024 12:57:23.000,322.462,20.002,1316.108786
15 Mar 2024 12:58:23.000,337.891,28.664,1043.219832
15 Mar 2024 12:59:23.000,5.236,36.327,884.742511
15 Mar 2024 13:00:23.000,39.893,35.216,903.793441
15 Mar 2024 13:01:23.000,64.537,26.781,1091.114345
15 Mar 2024 13:02:23.000,78.217,18.407,1379.321896
15 Mar 2024 13:03:23.000,86.158,11.864,1717.623324
15 Mar 2024 13:04:09.879,90.286,7.776,1999.989694
15 Mar 2024 14:36:01.522,292.143,7.817,1999.982695
15 Mar 2024 14:37:01.000,288.906,13.497,1622.669624
15 Mar 2024 14:38:01.000,283.280,21.396,1260.996883
15 Mar 2024 14:39:01.000,271.834,33.084,942.669293
15 Mar 2024 14:40:01.000,243.030,48.050,728.930172
15 Mar 2024 14:41:01.000,189.531,48.823,720.860740
15 Mar 2024 14:42:01.000,158.865,33.948,923.876331
15 Mar 2024 14:43:01.000,146.768,21.933,1237.627648
15 Mar 2024 14:44:01.000,140.880,13.831,1597.332961
15 Mar 2024 14:45:01.000,137.474,7.995,1977.058449
15 Mar 2024 14:45:04.566,137.317,7.695,1999.985400
16 Mar 2024 06:09:39.677,179.933,7.662,1999.988583
16 Mar 2024 06:10:39.000,169.415,11.023,1763.142739
16 Mar 2024 06:11:39.000,155.718,13.861,1594.688242
16 Mar 2024 06:12:39.000,139.498,15.245,1522.386208
16 Mar 2024 06:13:39.000,122.854,14.544,1560.052691
16 Mar 2024 06:14:39.000,108.210,12.103,1700.348694
16 Mar 2024 06:15:39.000,96.632,8.823,1920.521773
16 Mar 2024 06:15:57.366,93.682,7.768,1999.988393
16 Mar 2024 07:48:24.815,239.091,7.718,1999.990536
16 Mar 2024 07:49:24.000,239.172,13.560,1613.917995
16 Mar 2024 07:50:24.000,239.231,22.053,1234.557426
16 Mar 2024 07:51:24.000,239.214,36.129,885.331734
16 Mar 2024 07:52:24.000,238.757,62.909,621.767465
16 Mar 2024 07:53:24.000,61.719,74.957,577.887232
16 Mar 2024 07:54:24.000,60.491,42.604,791.204457
16 Mar 2024 07:55:24.000,60.436,25.648,1123.173984
16 Mar 2024 07:56:24.000,60.507,15.907,1495.973994
16 Mar 2024 07:57:24.000,60.620,9.389,1884.506855
16 Mar 2024 07:57:41.604,60.657,7.827,1999.985327
16 Mar 2024 09:29:53.942,282.228,7.797,1999.999677
16 Mar 2024 09:30:53.000,289.270,12.673,1670.228714
16 Mar 2024 09:31:53.000,300.105,18.554,1374.248719
16 Mar 2024 09:32:53.000,317.072,24.781,1149.744380
16 Mar 2024 09:33:53.000,341.473,28.598,1044.877474
16 Mar 2024 09:34:53.000,7.617,26.697,1094.933796
16 Mar 2024 09:35:53.000,27.394,20.904,1281.678805
16 Mar 2024 09:36:53.000,40.165,14.759,1556.084283
16 Mar 2024 09:37:53.000,48.438,9.480,1879.324785
16 Mar 2024 09:38:14.077,50.655,7.842,1999.977263
16 Mar 2024 11:11:38.712,306.864,7.838,1999.988569
16 Mar 2024 11:12:38.000,315.178,12.309,1694.404472
16 Mar 2024 11:13:38.000,327.320,17.247,1433.788340
16 Mar 2024 11:14:38.000,344.621,21.661,1254.129942
16 Mar 2024 11:15:38.000,6.403,23.429,1193.388660
16 Mar 2024 11:16:38.000,27.855,21.246,1269.001954
16 Mar 2024 11:17:38.000,44.540,16.680,1459.707341
16 Mar 2024 11:18:38.000,56.179,11.760,1727.245445
16 Mar 2024 11:19:30.521,63.384,7.824,1999.986293
16 Mar 2024 12:52:22.290,306.207,7.838,1999.983724
16 Mar 2024 12:53:22.000,310.275,13.443,1627.625302
16 Mar 2024 12:54:22.000,316.981,21.086,1274.364987
16 Mar 2024 12:55:22.000,329.835,31.963,967.434659
16 Mar 2024 12:56:22.000,358.637,44.688,766.638760
16 Mar 2024 12:57:22.000,45.736,45.047,762.168940
16 Mar 2024 12:58:22.000,75.427,32.409,956.860937
16 Mar 2024 12:59:22.000,88.641,21.372,1261.195034
16 Mar 2024 13:00:22.000,95.473,13.617,1613.539375
16 Mar 2024 13:01:22.000,99.598,7.922,1987.581078
16 Mar 2024 13:01:23.956,99.706,7.760,1999.987082
16 Mar 2024 14:33:11.005,285.789,7.807,1999.997087
16 Mar 2024 14:34:11.000,280.040,13.123,1643.227856
16 Mar 2024 14:35:11.000,270.738,19.861,1318.591248
16 Mar 2024 14:36:11.000,254.560,27.961,1057.951994
16 Mar 2024 14:37:11.000,227.400,34.248,918.850815
16 Mar 2024 14:38:11.000,195.526,32.301,956.419879
16 Mar 2024 14:39:11.000,173.102,24.484,1153.357141
16 Mar 2024 14:40:11.000,160.271,16.810,1445.343948
16 Mar 2024 14:41:11.000,152.677,10.694,1785.495162
16 Mar 2024 14:41:46.637,149.551,7.683,1999.997152
17 Mar 2024 06:05:48.558,195.974,7.663,1999.992346
17 Mar 2024 06:06:48.000,187.674,12.156,1692.177849
17 Mar 2024 06:07:48.000,175.460,17.066,1432.703380
17 Mar 2024 06:08:48.000,158.042,21.338,1258.231024
17 Mar 2024 06:09:48.000,136.390,22.826,1207.081834
17 Mar 2024 06:10:48.000,115.507,20.428,1294.231716
17 Mar 2024 06:11:48.000,99.536,15.843,1495.472510
17 Mar 2024 06:12:48.000,88.516,10.999,1771.783408
17 Mar 2024 06:13:31.257,82.801,7.786,1999.998392
17 Mar 2024 07:45:27.885,249.627,7.734,1999.991105
17 Mar 2024 07:46:27.000,251.741,13.490,1618.891549
17 Mar 2024 07:47:27.000,255.325,21.740,1246.472954
17 Mar 2024 07:48:27.000,262.762,34.840,908.709975
17 Mar 2024 07:49:27.000,286.274,56.005,663.103152
17 Mar 2024 07:50:27.000,5.803,61.464,630.025647
17 Mar 2024 07:51:27.000,40.340,39.417,835.146068
17 Mar 2024 07:52:27.000,49.782,24.512,1157.592196
17 Mar 2024 07:53:27.000,54.003,15.360,1523.799681
17 Mar 2024 07:54:27.000,56.436,9.069,1907.713763
17 Mar 2024 07:54:41.210,56.874,7.831,1999.990154
17 Mar 2024 09:27:12.449,289.758,7.809,1999.984717
17 Mar 2024 09:28:12.000,297.620,12.486,1682.046142
17 Mar 2024 09:29:12.000,309.302,17.821,1406.701466
17 Mar 2024 09:30:12.000,326.594,22.938,1209.025649
17 Mar 2024 09:31:12.000,349.458,25.417,1131.352606
17 Mar 2024 09:32:12.000,12.618,23.298,1197.516956
17 Mar 2024 09:33:12.000,30.432,18.298,1386.835680
17 Mar 2024 09:34:12.000,42.518,12.940,1657.041094
17 Mar 2024 09:35:12.000,50.687,8.177,1974.391055
17 Mar 2024 09:35:16.594,51.198,7.841,1999.983388
17 Mar 2024 11:08:44.745,308.723,7.840,1999.983865
17 Mar 2024 11:09:44.000,316.584,12.473,1684.584525
17 Mar 2024 11:10:44.000,328.285,17.767,1410.203571
17 Mar 2024 11:11:44.000,345.549,22.824,1213.449958
17 Mar 2024 11:12:44.000,8.305,25.254,1136.329840
17 Mar 2024 11:13:44.000,31.337,23.142,1202.416087
17 Mar 2024 11:14:44.000,49.089,18.179,1391.269075
17 Mar 2024 11:15:44.000,61.161,12.849,1661.003583
17 Mar 2024 11:16:44.000,69.331,8.102,1978.042287
17 Mar 2024 11:16:47.944,69.771,7.815,1999.990996
17 Mar 2024 12:49:20.508,303.349,7.835,1999.971952
17 Mar 2024 12:50:20.000,305.641,13.617,1617.433962
17 Mar 2024 12:51:20.000,309.481,21.848,1246.313775
17 Mar 2024 12:52:20.000,317.397,34.849,910.479748
17 Mar 2024 12:53:20.000,341.893,55.430,667.867890
17 Mar 2024 12:54:20.000,58.242,60.152,637.275728
17 Mar 2024 12:55:20.000,92.527,38.872,842.288536
17 Mar 2024 12:56:20.000,102.322,24.226,1164.028573
17 Mar 2024 12:57:20.000,106.729,15.159,1529.789514
17 Mar 2024 12:58:20.000,109.258,8.902,1913.531692
17 Mar 2024 12:58:33.316,109.683,7.744,1999.983384
17 Mar 2024 14:30:28.770,277.810,7.794,1999.999947
17 Mar 2024 14:31:28.000,269.722,12.325,1689.262859
17 Mar 2024 14:32:28.000,257.667,17.346,1424.477270
17 Mar 2024 14:33:28.000,240.238,21.806,1243.674317
17 Mar 2024 14:34:28.000,218.234,23.455,1186.632644
17 Mar 2024 14:35:28.000,196.838,21.021,1270.274568
17 Mar 2024 14:36:28.000,180.525,16.276,1470.444777
17 Mar 2024 14:37:28.000,169.344,11.285,1746.867898
17 Mar 2024 14:38:15.730,163.057,7.674,1999.978626
18 Mar 2024 06:02:16.525,209.590,7.670,1999.991386
18 Mar 2024 06:03:16.000,203.708,12.897,1648.596504
18 Mar 2024 06:04:16.000,194.222,19.527,1326.935872
18 Mar 2024 06:05:16.000,177.963,27.388,1070.192909
18 Mar 2024 06:06:16.000,151.242,33.359,934.916910
18 Mar 2024 06:07:16.000,120.248,31.502,973.753768
18 Mar 2024 06:08:16.000,98.171,24.044,1169.397480
18 Mar 2024 06:09:16.000,85.338,16.607,1459.584406
18 Mar 2024 06:10:16.000,77.685,10.611,1798.322667
18 Mar 2024 06:10:49.631,74.689,7.798,1999.997498
18 Mar 2024 07:42:36.739,259.639,7.749,1999.983541
18 Mar 2024 07:43:36.000,263.533,13.329,1629.015511
18 Mar 2024 07:44:36.000,270.023,21.011,1273.832765
18 Mar 2024 07:45:36.000,282.550,32.036,964.104947
18 Mar 2024 07:46:36.000,311.177,45.254,759.463566
18 Mar 2024 07:47:36.000,359.495,45.950,752.149855
18 Mar 2024 07:48:36.000,29.746,32.957,946.689644
18 Mar 2024 07:49:36.000,42.935,21.696,1251.731261
18 Mar 2024 07:50:36.000,49.699,13.847,1604.624287
18 Mar 2024 07:51:36.000,53.779,8.110,1978.924994
18 Mar 2024 07:51:39.318,53.959,7.834,1999.986755
18 Mar 2024 09:24:29.803,296.221,7.817,2000.000056
18 Mar 2024 09:25:29.000,304.495,12.293,1694.214077
18 Mar 2024 09:26:29.000,316.608,17.252,1432.746655
18 Mar 2024 09:27:29.000,333.903,21.704,1252.110498
18 Mar 2024 09:28:29.000,355.731,23.513,1190.462972
18 Mar 2024 09:29:29.000,17.261,21.343,1265.517565
18 Mar 2024 09:30:29.000,34.003,16.766,1456.024623
18 Mar 2024 09:31:29.000,45.671,11.832,1723.536431
18 Mar 2024 09:32:22.205,52.970,7.838,1999.999826
18 Mar 2024 11:05:47.250,309.344,7.840,1999.983740
18 Mar 2024 11:06:47.000,316.556,12.753,1667.878397
18 Mar 2024 11:07:47.000,327.518,18.592,1374.142594
18 Mar 2024 11:08:47.000,344.596,24.710,1152.644981
18 Mar 2024 11:09:47.000,8.936,28.353,1051.212356
18 Mar 2024 11:10:47.000,34.793,26.361,1103.905739
18 Mar 2024 11:11:47.000,54.329,20.607,1291.877540
18 Mar 2024 11:12:47.000,66.986,14.525,1566.669318
18 Mar 2024 11:13:47.000,75.211,9.290,1890.033007
18 Mar 2024 11:14:06.222,77.234,7.803,1999.984310
18 Mar 2024 12:46:19.747,299.626,7.829,1999.978874
18 Mar 2024 12:47:19.000,299.889,13.674,1613.772950
18 Mar 2024 12:48:19.000,300.230,22.164,1234.682924
18 Mar 2024 12:49:19.000,300.789,36.230,885.666357
18 Mar 2024 12:50:19.000,302.588,62.970,622.186823
18 Mar 2024 12:51:19.000,114.890,74.845,578.100281
18 Mar 2024 12:52:19.000,118.819,42.524,791.153536
18 Mar 2024 12:53:19.000,119.517,25.560,1123.037626
18 Mar 2024 12:54:19.000,119.873,15.812,1495.879557
18 Mar 2024 12:55:19.000,120.121,9.289,1884.541570
18 Mar 2024 12:55:36.592,120.183,7.727,1999.995277
18 Mar 2024 14:28:01.003,267.181,7.776,1999.987073
18 Mar 2024 14:29:01.000,256.673,11.250,1754.506096
18 Mar 2024 14:30:01.000,242.983,14.196,1579.763591
18 Mar 2024 14:31:01.000,226.595,15.681,1501.368605
18 Mar 2024 14:32:01.000,209.640,15.009,1534.375331
18 Mar 2024 14:33:01.000,194.687,12.511,1671.987108
18 Mar 2024 14:34:01.000,182.886,9.143,1890.961726
18 Mar 2024 14:34:25.995,178.868,7.671,1999.998097
19 Mar 2024 05:58:57.338,221.887,7.681,1999.987401
19 Mar 2024 05:59:57.000,218.436,13.361,1622.651331
19 Mar 2024 06:00:57.000,212.518,21.210,1262.823436
19 Mar 2024 06:01:57.000,200.629,32.705,947.588196
19 Mar 2024 06:02:57.000,171.652,47.003,738.487923
19 Mar 2024 06:03:57.000,120.286,47.516,733.789341
19 Mar 2024 06:04:57.000,90.165,33.363,936.590866
19 Mar 2024 06:05:57.000,77.878,21.707,1249.121988
19 Mar 2024 06:06:57.000,71.834,13.749,1607.818618
19 Mar 2024 06:07:57.000,68.338,7.979,1986.834169
19 Mar 2024 06:07:59.051,68.245,7.807,1999.997928
19 Mar 2024 07:39:50.007,269.095,7.765,1999.980212
19 Mar 2024 07:40:50.000,274.556,13.159,1639.773162
19 Mar 2024 07:41:50.000,283.301,20.138,1307.879477
19 Mar 2024 07:42:50.000,298.751,28.980,1033.825328
19 Mar 2024 07:43:50.000,326.458,36.855,875.170680
19 Mar 2024 07:44:50.000,1.676,35.653,896.074267
19 Mar 2024 07:45:50.000,26.398,26.999,1086.079759
19 Mar 2024 07:46:50.000,39.972,18.526,1376.290938
19 Mar 2024 07:47:50.000,47.822,11.950,1715.769982
19 Mar 2024 07:48:37.099,51.921,7.836,1999.982302
19 Mar 2024 09:21:44.582,301.454,7.824,1999.996127
19 Mar 2024 09:22:44.000,309.971,12.235,1698.090467
19 Mar 2024 09:23:44.000,322.289,17.024,1443.503590
19 Mar 2024 09:24:44.000,339.590,21.181,1271.265889
19 Mar 2024 09:25:44.000,0.979,22.699,1217.586051
19 Mar 2024 09:26:44.000,21.819,20.489,1297.452872
19 Mar 2024 09:27:44.000,38.076,16.071,1489.271911
19 Mar 2024 09:28:44.000,49.525,11.309,1756.159370
19 Mar 2024 09:29:31.365,56.066,7.834,1999.984025
19 Mar 2024 11:02:47.014,308.850,7.839,1999.982904
19 Mar 2024 11:03:47.000,315.077,13.054,1650.145004
19 Mar 2024 11:04:47.000,324.827,19.579,1333.032721
19 Mar 2024 11:05:47.000,341.177,27.249,1079.824221
19 Mar 2024 11:06:47.000,7.585,33.079,944.771966
19 Mar 2024 11:07:47.000,38.301,31.428,978.712562
19 Mar 2024 11:08:47.000,60.679,24.206,1166.939929
19 Mar 2024 11:09:47.000,73.990,16.842,1450.096811
19 Mar 2024 11:10:47.000,82.097,10.851,1782.765427
19 Mar 2024 11:11:23.729,85.592,7.789,1999.990781
19 Mar 2024 12:43:21.333,294.989,7.822,1999.991735
19 Mar 2024 12:44:21.000,292.994,13.644,1614.915030
19 Mar 2024 12:45:21.000,289.428,21.924,1242.585257
19 Mar 2024 12:46:21.000,281.698,35.038,906.115495
19 Mar 2024 12:47:21.000,256.863,55.760,664.744705
19 Mar 2024 12:48:21.000,180.302,59.745,638.780479
19 Mar 2024 12:49:21.000,147.238,38.399,848.320600
19 Mar 2024 12:50:21.000,137.904,23.896,1172.813679
19 Mar 2024 12:51:21.000,133.814,14.913,1540.457588
19 Mar 2024 12:52:21.000,131.559,8.701,1925.691836
19 Mar 2024 12:52:32.409,131.241,7.711,1999.999813
19 Mar 2024 14:26:07.660,250.176,7.746,1999.994540
19 Mar 2024 14:27:07.000,237.991,9.389,1877.363003
19 Mar 2024 14:28:07.000,224.474,9.930,1838.385530
19 Mar 2024 14:29:07.000,211.060,9.172,1890.179705
19 Mar 2024 14:29:57.835,200.720,7.680,1999.999779
20 Mar 2024 04:17:41.619,169.530,7.650,1999.986431
20 Mar 2024 04:18:41.000,157.981,10.182,1817.843343
20 Mar 2024 04:19:41.000,144.137,11.808,1713.965907
20 Mar 2024 04:20:41.000,129.264,11.960,1705.912188
20 Mar 2024 04:21:41.000,115.144,10.581,1795.105362
20 Mar 2024 04:22:41.000,103.100,8.155,1968.145797
20 Mar 2024 04:22:49.972,101.510,7.741,1999.996879
20 Mar 2024 05:55:47.994,233.332,7.695,1999.986643
20 Mar 2024 05:56:47.000,232.257,13.493,1616.116382
20 Mar 2024 05:57:47.000,230.292,21.901,1238.623781
20 Mar 2024 05:58:47.000,225.898,35.634,892.948051
20 Mar 2024 05:59:47.000,209.385,60.169,635.749182
20 Mar 2024 06:00:47.000,102.388,68.624,596.774278
20 Mar 2024 06:01:47.000,72.711,41.241,808.311724
20 Mar 2024 06:02:47.000,66.830,25.120,1137.821036
20 Mar 2024 06:03:47.000,64.463,15.623,1509.099296
20 Mar 2024 06:04:47.000,63.234,9.203,1896.759281
20 Mar 2024 06:05:02.764,63.008,7.814,1999.990761
20 Mar 2024 07:37:06.220,277.901,7.778,1999.989970
20 Mar 2024 07:38:06.000,284.537,12.864,1657.733264
20 Mar 2024 07:39:06.000,294.828,19.104,1350.097931
20 Mar 2024 07:40:06.000,311.554,26.097,1110.247101
20 Mar 2024 07:41:06.000,337.072,30.907,989.879090
20 Mar 2024 07:42:06.000,5.493,29.103,1032.097472
20 Mar 2024 07:43:06.000,26.576,22.612,1219.944853
20 Mar 2024 07:44:06.000,39.646,15.864,1499.070003
20 Mar 2024 07:45:06.000,47.855,10.226,1827.294618
20 Mar 2024 07:45:35.642,50.823,7.836,1999.989864
20 Mar 2024 09:18:55.788,305.355,7.829,1999.983528
20 Mar 2024 09:19:55.000,313.786,12.243,1697.824822
20 Mar 2024 09:20:55.000,326.042,17.074,1441.317844
20 Mar 2024 09:21:55.000,343.330,21.307,1266.649718
20 Mar 2024 09:22:55.000,4.824,22.905,1210.556989
20 Mar 2024 09:23:55.000,25.847,20.711,1288.831389
20 Mar 2024 09:24:55.000,42.240,16.255,1480.063726
20 Mar 2024 09:25:55.000,53.755,11.448,1746.984921
20 Mar 2024 09:26:44.027,60.516,7.828,1999.986563
20 Mar 2024 10:59:45.006,307.359,7.836,1999.999283
20 Mar 2024 11:00:45.000,312.267,13.335,1633.697870
20 Mar 2024 11:01:45.000,320.210,20.609,1292.352445
20 Mar 2024 11:02:45.000,334.744,30.308,1003.869191
20 Mar 2024 11:03:45.000,3.182,39.995,827.283939
20 Mar 2024 11:04:45.000,42.629,39.268,837.550964
20 Mar 2024 11:05:45.000,69.317,29.186,1029.122975
20 Mar 2024 11:06:45.000,82.897,19.712,1325.124617
20 Mar 2024 11:07:45.000,90.401,12.646,1670.184062
20 Mar 2024 11:08:38.820,94.678,7.774,1999.985377
20 Mar 2024 12:40:26.939,289.297,7.813,1999.979004
20 Mar 2024 12:41:26.000,284.943,13.287,1634.397824
20 Mar 2024 12:42:26.000,277.552,20.689,1287.122037
20 Mar 2024 12:43:26.000,263.532,30.742,991.905471
20 Mar 2024 12:44:26.000,234.797,41.113,809.587895
20 Mar 2024 12:45:26.000,193.776,40.310,820.112181
20 Mar 2024 12:46:26.000,166.937,29.542,1017.445494
20 Mar 2024 12:47:26.000,153.860,19.742,1319.761642
20 Mar 2024 12:48:26.000,146.852,12.560,1670.167538
20 Mar 2024 12:49:19.185,142.997,7.697,1999.999786
21 Mar 2024 04:13:33.619,187.968,7.645,1999.987153
21 Mar 2024 04:14:33.000,178.465,11.600,1725.187558
21 Mar 2024 04:15:33.000,165.293,15.455,1509.342196
21 Mar 2024 04:16:33.000,148.267,18.109,1385.971887
21 Mar 2024 04:17:33.000,129.297,18.256,1380.709283
21 Mar 2024 04:18:33.000,111.986,15.813,1494.904659
21 Mar 2024 04:19:33.000,98.478,12.036,1704.407105
21 Mar 2024 04:20:33.000,88.641,8.042,1978.567419
21 Mar 2024 04:20:37.298,88.052,7.764,1999.999187
21 Mar 2024 05:52:46.609,244.149,7.710,1999.977539
21 Mar 2024 05:53:46.000,245.229,13.554,1613.679415
21 Mar 2024 05:54:46.000,247.031,21.997,1236.025672
21 Mar 2024 05:55:46.000,250.803,35.857,889.623259
21 Mar 2024 05:56:46.000,264.767,61.147,630.673201
21 Mar 2024 05:57:46.000,23.171,70.640,590.042023
21 Mar 2024 05:58:46.000,49.950,41.765,801.692643
21 Mar 2024 05:59:46.000,55.021,25.349,1131.447538
21 Mar 2024 06:00:46.000,57.208,15.761,1502.647045
21 Mar 2024 06:01:46.000,58.482,9.303,1890.005004
21 Mar 2024 06:02:02.808,58.756,7.819,1999.974419
21 Mar 2024 07:34:23.793,285.914,7.790,1999.990166
21 Mar 2024 07:35:23.000,293.364,12.558,1676.552085
21 Mar 2024 07:36:23.000,304.644,18.159,1390.804734
21 Mar 2024 07:37:23.000,321.803,23.805,1179.757194
21 Mar 2024 07:38:23.000,345.408,26.901,1088.693809
21 Mar 2024 07:39:23.000,9.947,24.883,1146.859196
21 Mar 2024 07:40:23.000,28.689,19.532,1334.653032
21 Mar 2024 07:41:23.000,41.122,13.815,1606.669016
21 Mar 2024 07:42:23.000,49.361,8.812,1926.749536
21 Mar 2024 07:42:35.971,50.768,7.835,1999.990364
21 Mar 2024 09:16:03.003,307.903,7.831,2000.000066
21 Mar 2024 09:17:03.000,316.155,12.427,1686.799253
21 Mar 2024 09:18:03.000,328.180,17.512,1421.251284
21 Mar 2024 09:19:03.000,345.546,22.165,1235.826233
21 Mar 2024 09:20:03.000,7.755,24.143,1170.115223
21 Mar 2024 09:21:03.000,29.785,21.941,1243.514479
21 Mar 2024 09:22:03.000,46.821,17.210,1434.616731
21 Mar 2024 09:23:03.000,58.581,12.136,1703.721433
21 Mar 2024 09:23:59.528,66.264,7.819,1999.985452
21 Mar 2024 10:56:42.287,304.960,7.832,1999.992514
21 Mar 2024 10:57:42.000,308.228,13.544,1621.506685
