aer_data/rounded_times/rounded_TP_AER.csv

Time (UTCG),Azimuth (deg),Elevation (deg),Range (km)
05 Mar 2024 18:32:00.000,98.026,14.246,1578.903397
22 Mar 2024 12:34:00.000,268.574,32.516,955.755046
19 Mar 2024 11:04:00.000,28.559,24.609,1157.370743
24 Mar 2024 04:03:00.000,169.907,16.197,1474.060836
30 Mar 2024 10:31:00.000,218.880,12.385,1682.630206
13 Mar 2024 16:26:00.000,148.872,21.050,1270.983384
20 Mar 2024 07:42:00.000,57.536,9.001,1914.496140
25 Mar 2024 04:00:00.000,188.612,18.855,1354.706794
11 Mar 2024 18:14:00.000,172.645,7.683,1999.989274
12 Mar 2024 09:41:00.000,183.669,28.847,1035.735680
27 Mar 2024 09:00:00.000,42.713,42.720,791.069075
29 Mar 2024 10:37:00.000,170.924,7.704,1999.992813
31 Mar 2024 08:42:00.000,290.924,7.821,1999.976906
20 Mar 2024 07:33:00.000,251.541,7.758,1999.980958
02 Mar 2024 16:55:00.000,349.594,26.924,1089.670720
16 Mar 2024 12:57:00.000,76.595,10.254,1825.262708
26 Mar 2024 03:54:00.000,218.363,7.682,1999.982802
07 Mar 2024 18:18:00.000,297.417,7.843,1999.974635
05 Mar 2024 13:29:00.000,63.109,9.341,1889.835069
05 Mar 2024 13:29:00.000,62.985,7.852,1999.981814
12 Mar 2024 16:23:00.000,293.973,13.669,1615.476370
07 Mar 2024 11:35:00.000,200.682,12.825,1656.622701
21 Mar 2024 10:57:00.000,4.864,33.173,944.411837
07 Mar 2024 11:36:00.000,190.464,19.106,1347.422652
10 Mar 2024 13:10:00.000,342.182,29.787,1017.915102
16 Mar 2024 09:35:00.000,56.192,8.608,1944.004878
19 Mar 2024 14:23:00.000,261.974,18.446,1378.445667
30 Mar 2024 07:07:00.000,322.355,19.430,1339.155877
13 Mar 2024 16:27:00.000,142.520,13.324,1627.385918
16 Mar 2024 14:34:00.000,289.130,62.950,623.254537
04 Mar 2024 13:32:00.000,67.652,7.845,1999.977827
20 Mar 2024 09:19:00.000,349.015,27.115,1084.947085
06 Mar 2024 15:05:00.000,31.207,20.559,1296.232746
09 Mar 2024 11:28:00.000,229.291,13.597,1614.169584
29 Mar 2024 02:08:00.000,161.494,22.254,1225.158147
18 Mar 2024 07:46:00.000,71.610,24.351,1163.243052
13 Mar 2024 14:43:00.000,1.392,39.525,835.467135
19 Mar 2024 05:59:00.000,160.851,14.681,1551.837774
07 Mar 2024 18:26:00.000,122.786,15.684,1502.279094
03 Mar 2024 16:52:00.000,355.561,25.488,1130.403304
08 Mar 2024 11:40:00.000,70.500,7.847,1999.970218
19 Mar 2024 14:28:00.000,165.883,13.355,1625.346488
29 Mar 2024 02:07:00.000,178.902,17.469,1413.784402
16 Mar 2024 16:17:00.000,182.625,8.350,1950.530076
27 Mar 2024 08:59:00.000,358.901,42.830,789.927919
15 Mar 2024 11:17:00.000,43.897,14.542,1569.753672
27 Mar 2024 05:41:00.000,53.670,7.845,1999.982180
15 Mar 2024 16:18:00.000,216.265,22.165,1231.541101
18 Mar 2024 14:25:00.000,282.672,13.261,1637.941516
06 Mar 2024 11:44:00.000,89.154,9.835,1852.755345
18 Mar 2024 06:06:00.000,106.149,7.769,1999.998780
10 Mar 2024 13:08:00.000,300.391,18.879,1362.933241
07 Mar 2024 20:04:00.000,193.787,11.252,1749.237502
28 Mar 2024 07:13:00.000,323.703,18.161,1392.936268
06 Mar 2024 13:19:00.000,251.060,21.982,1240.403988
16 Mar 2024 11:16:00.000,54.991,8.496,1952.543941
31 Mar 2024 02:00:00.000,215.100,21.363,1256.910795
05 Mar 2024 18:24:00.000,303.748,7.850,1999.990731
16 Mar 2024 11:11:00.000,329.311,23.425,1194.984862
21 Mar 2024 12:43:00.000,127.156,8.992,1907.455770
13 Mar 2024 16:20:00.000,286.568,13.513,1623.617642
17 Mar 2024 07:50:00.000,74.534,12.971,1654.540544
01 Mar 2024 22:05:00.000,158.844,7.958,1977.590719
10 Mar 2024 11:28:00.000,248.772,62.695,624.374023
12 Mar 2024 11:25:00.000,31.210,32.623,955.483031
14 Mar 2024 12:59:00.000,3.274,25.919,1118.797725
16 Mar 2024 14:33:00.000,295.352,36.357,884.829803
25 Mar 2024 07:20:00.000,300.162,12.555,1678.901484
04 Mar 2024 18:34:00.000,80.854,19.665,1327.187357
23 Mar 2024 09:13:00.000,44.724,18.634,1373.467591
14 Mar 2024 09:41:00.000,63.157,7.858,1999.982903
24 Mar 2024 07:25:00.000,321.303,24.757,1151.334520
08 Mar 2024 16:39:00.000,38.119,35.080,907.241057
08 Mar 2024 18:21:00.000,152.392,36.545,878.326180
10 Mar 2024 11:25:00.000,242.234,13.599,1615.080129
22 Mar 2024 07:33:00.000,3.029,36.492,882.749871
09 Mar 2024 16:33:00.000,315.912,20.919,1282.031512
02 Mar 2024 16:59:00.000,53.569,8.827,1926.377692
17 Mar 2024 12:52:00.000,62.047,26.548,1099.546441
31 Mar 2024 07:10:00.000,87.063,12.386,1686.869040
10 Mar 2024 11:34:00.000,61.091,7.861,1999.981078
27 Mar 2024 05:40:00.000,49.846,11.379,1752.210035
18 Mar 2024 12:46:00.000,329.494,31.440,980.292759
06 Mar 2024 16:43:00.000,341.260,24.472,1161.125722
15 Mar 2024 11:13:00.000,321.723,24.688,1154.717858
20 Mar 2024 12:46:00.000,116.041,9.308,1886.138425
23 Mar 2024 05:53:00.000,63.377,7.837,1999.980208
21 Mar 2024 10:58:00.000,35.691,31.615,976.306012
12 Mar 2024 13:03:00.000,332.597,23.052,1207.556262
30 Mar 2024 07:09:00.000,4.796,32.826,950.169249
20 Mar 2024 12:40:00.000,304.438,36.116,889.224413
25 Mar 2024 05:47:00.000,56.326,8.608,1942.266828
17 Mar 2024 09:26:00.000,292.400,30.509,999.566008
12 Mar 2024 16:22:00.000,295.355,7.850,1999.978272
15 Mar 2024 09:33:00.000,272.301,59.977,639.080848
17 Mar 2024 14:36:00.000,133.054,8.460,1945.296836
06 Mar 2024 18:25:00.000,331.399,59.011,644.573586
14 Mar 2024 09:35:00.000,231.415,36.007,888.938732
08 Mar 2024 18:15:00.000,292.853,7.837,1999.985340
11 Mar 2024 14:52:00.000,65.344,15.059,1540.375772
19 Mar 2024 07:39:00.000,243.022,36.317,883.318522
11 Mar 2024 16:34:00.000,116.574,9.271,1887.390235
20 Mar 2024 12:43:00.000,109.927,42.257,796.168369
20 Mar 2024 14:19:00.000,261.774,11.756,1725.598257
12 Mar 2024 16:26:00.000,265.629,58.883,645.266939
14 Mar 2024 07:59:00.000,97.344,7.797,1999.985167
05 Mar 2024 13:24:00.000,221.978,62.016,627.632950
25 Mar 2024 10:46:00.000,132.949,73.943,581.279294
05 Mar 2024 18:28:00.000,352.646,48.596,725.478357
05 Mar 2024 13:28:00.000,63.778,15.831,1501.659192
07 Mar 2024 11:39:00.000,119.963,28.636,1042.446779
21 Mar 2024 09:15:00.000,332.284,23.061,1206.587481
05 Mar 2024 13:21:00.000,236.121,13.600,1614.613542
29 Mar 2024 07:16:00.000,75.217,7.821,1999.994296
23 Mar 2024 10:51:00.000,353.861,47.707,735.108230
22 Mar 2024 05:55:00.000,71.485,14.137,1588.102618
30 Mar 2024 05:24:00.000,295.135,7.809,1999.976982
29 Mar 2024 07:11:00.000,340.927,25.024,1143.395416
16 Mar 2024 14:39:00.000,121.775,7.751,1999.981337
08 Mar 2024 14:56:00.000,335.279,22.837,1214.553194
08 Mar 2024 18:20:00.000,185.120,54.574,673.058017
07 Mar 2024 11:41:00.000,87.024,15.354,1524.126199
09 Mar 2024 16:36:00.000,42.888,43.920,776.235180
31 Mar 2024 01:59:00.000,220.636,13.413,1619.410353
12 Mar 2024 14:43:00.000,312.604,13.107,1649.283953
28 Mar 2024 07:11:00.000,304.602,7.835,1999.998230
17 Mar 2024 11:10:00.000,20.758,23.100,1206.000878
07 Mar 2024 16:43:00.000,55.355,22.936,1209.340438
19 Mar 2024 06:00:00.000,144.198,16.664,1453.992570
13 Mar 2024 11:18:00.000,284.735,20.223,1307.508790
06 Mar 2024 11:40:00.000,154.472,20.100,1308.008076
14 Mar 2024 16:20:00.000,225.409,32.288,958.663620
29 Mar 2024 05:35:00.000,54.727,7.841,1999.977509
02 Mar 2024 18:41:00.000,76.279,7.801,1999.989558
18 Mar 2024 11:05:00.000,338.987,22.957,1210.711572
17 Mar 2024 12:54:00.000,83.659,11.797,1724.564020
10 Mar 2024 14:48:00.000,312.332,12.614,1678.162062
24 Mar 2024 07:22:00.000,286.047,7.812,1999.987859
09 Mar 2024 14:58:00.000,63.029,8.198,1973.149578
21 Mar 2024 14:20:00.000,203.822,10.586,1795.195533
13 Mar 2024 11:21:00.000,3.438,36.088,890.517850
13 Mar 2024 16:28:00.000,138.811,7.717,1999.989854
11 Mar 2024 11:27:00.000,40.252,38.579,849.597043
15 Mar 2024 14:37:00.000,332.799,58.662,647.459573
14 Mar 2024 13:01:00.000,44.935,18.706,1370.879227
10 Mar 2024 09:45:00.000,185.104,7.708,1999.977481
28 Mar 2024 02:12:00.000,143.072,16.286,1469.983291
16 Mar 2024 12:50:00.000,313.098,12.968,1657.467669
25 Mar 2024 09:07:00.000,54.783,22.628,1220.257972
17 Mar 2024 14:30:00.000,276.893,34.513,917.099981
19 Mar 2024 07:45:00.000,61.174,9.369,1887.788490
10 Mar 2024 14:49:00.000,323.668,18.175,1394.032361
13 Mar 2024 13:02:00.000,359.965,25.186,1140.294478
31 Mar 2024 08:43:00.000,287.511,13.470,1624.771363
18 Mar 2024 09:22:00.000,290.046,19.769,1325.163615
07 Mar 2024 20:02:00.000,224.036,14.639,1554.744310
22 Mar 2024 09:09:00.000,300.110,7.846,1999.994938
24 Mar 2024 10:52:00.000,108.391,15.462,1516.455962
24 Mar 2024 12:26:00.000,268.055,12.333,1690.778785
14 Mar 2024 14:41:00.000,46.674,49.672,715.797633
15 Mar 2024 14:34:00.000,302.926,13.732,1613.032948
12 Mar 2024 11:22:00.000,285.105,32.073,965.662904
18 Mar 2024 11:03:00.000,309.960,12.547,1681.834903
14 Mar 2024 11:18:00.000,7.230,30.126,1010.073412
14 Mar 2024 07:53:00.000,175.804,7.697,1999.989667
18 Mar 2024 12:45:00.000,316.194,20.919,1282.579834
01 Mar 2024 18:35:00.000,304.895,7.849,1999.983460
06 Mar 2024 16:45:00.000,30.780,25.878,1118.648641
10 Mar 2024 11:27:00.000,244.135,36.131,887.429428
28 Mar 2024 08:51:00.000,302.834,7.843,1999.983421
28 Mar 2024 05:36:00.000,42.705,15.471,1519.297327
10 Mar 2024 18:11:00.000,261.347,18.312,1383.129084
18 Mar 2024 14:24:00.000,287.470,7.842,2000.000032
10 Mar 2024 09:48:00.000,144.998,16.976,1440.982197
01 Mar 2024 16:56:00.000,300.723,18.838,1363.760349
12 Mar 2024 13:06:00.000,36.569,18.383,1385.086846
30 Mar 2024 08:53:00.000,127.826,15.416,1516.608231
23 Mar 2024 07:33:00.000,53.516,7.858,1999.990574
30 Mar 2024 05:27:00.000,332.022,23.080,1204.161506
09 Mar 2024 18:12:00.000,287.180,7.828,1999.979739
27 Mar 2024 03:56:00.000,114.272,60.247,635.883088
07 Mar 2024 16:37:00.000,306.466,7.863,1999.998377
21 Mar 2024 05:57:00.000,84.930,17.673,1412.013789
19 Mar 2024 11:06:00.000,59.471,13.661,1616.810283
19 Mar 2024 11:05:00.000,47.109,19.317,1345.277692
12 Mar 2024 13:00:00.000,295.732,7.857,1999.983890
30 Mar 2024 08:48:00.000,287.789,35.955,890.675114
06 Mar 2024 18:26:00.000,66.670,65.834,609.044807
27 Mar 2024 03:51:00.000,229.887,7.696,1999.978287
13 Mar 2024 08:01:00.000,119.307,7.759,1999.992109
02 Mar 2024 21:58:00.000,230.405,17.550,1412.655072
15 Mar 2024 16:21:00.000,164.666,7.698,1999.987563
26 Mar 2024 03:59:00.000,121.599,41.121,809.177140
28 Mar 2024 10:37:00.000,196.192,25.448,1126.443356
25 Mar 2024 05:42:00.000,302.556,50.540,706.665862
31 Mar 2024 07:07:00.000,39.831,37.806,860.364767
26 Mar 2024 07:21:00.000,357.314,25.230,1137.687295
14 Mar 2024 14:44:00.000,97.534,14.294,1578.055222
28 Mar 2024 03:57:00.000,61.423,9.355,1886.566423
23 Mar 2024 12:29:00.000,278.351,13.077,1647.914932
23 Mar 2024 07:26:00.000,284.877,12.878,1658.535517
19 Mar 2024 11:03:00.000,4.308,26.661,1097.735476
11 Mar 2024 09:48:00.000,100.117,17.849,1404.434409
03 Mar 2024 18:35:00.000,35.893,32.093,964.845826
13 Mar 2024 14:47:00.000,92.313,7.800,1999.978085
22 Mar 2024 09:15:00.000,40.467,18.057,1398.700996
16 Mar 2024 11:15:00.000,46.794,13.376,1633.942213
19 Mar 2024 14:29:00.000,158.140,8.328,1953.241291
06 Mar 2024 16:48:00.000,72.616,7.820,1999.990121
01 Mar 2024 20:25:00.000,106.553,8.777,1922.182659
30 Mar 2024 08:46:00.000,294.703,13.721,1611.369884
23 Mar 2024 05:47:00.000,230.110,35.957,888.450242
18 Mar 2024 14:26:00.000,274.632,20.462,1297.553565
23 Mar 2024 04:10:00.000,105.786,9.909,1843.087309
02 Mar 2024 22:00:00.000,195.248,14.926,1537.384841
06 Mar 2024 13:24:00.000,54.311,25.226,1137.836844
28 Mar 2024 02:15:00.000,91.920,7.763,1999.988459
15 Mar 2024 07:50:00.000,183.759,11.943,1707.686237
02 Mar 2024 18:40:00.000,73.785,9.705,1860.787811
08 Mar 2024 13:16:00.000,1.706,40.110,827.158374
17 Mar 2024 07:44:00.000,207.813,20.846,1278.410286
30 Mar 2024 07:06:00.000,312.618,12.952,1655.997184
12 Mar 2024 09:44:00.000,97.633,26.242,1106.519875
29 Mar 2024 07:09:00.000,313.156,12.768,1666.913895
09 Mar 2024 13:16:00.000,41.830,17.391,1428.831820
18 Mar 2024 06:02:00.000,164.399,7.688,1999.990334
18 Mar 2024 06:04:00.000,138.611,10.830,1779.099853
10 Mar 2024 13:07:00.000,289.825,12.815,1664.699657
25 Mar 2024 04:06:00.000,77.720,7.802,1999.977601
28 Mar 2024 03:51:00.000,241.614,36.207,883.679489
31 Mar 2024 00:23:00.000,130.035,7.893,1984.113056
29 Mar 2024 08:57:00.000,115.394,9.280,1887.587254
09 Mar 2024 14:57:00.000,54.841,12.970,1656.138710
07 Mar 2024 13:23:00.000,56.477,7.862,1999.979558
14 Mar 2024 11:22:00.000,53.515,7.871,1999.996107
20 Mar 2024 06:01:00.000,81.450,7.812,1999.980181
05 Mar 2024 16:50:00.000,57.397,13.205,1641.473621
22 Mar 2024 04:11:00.000,133.935,8.249,1958.825714
24 Mar 2024 05:50:00.000,59.289,9.289,1892.626707
22 Mar 2024 05:56:00.000,68.320,8.236,1969.113247
23 Mar 2024 12:32:00.000,225.623,32.934,945.945466
17 Mar 2024 07:49:00.000,81.281,20.352,1301.642172
02 Mar 2024 21:55:00.000,270.408,7.775,1999.988427
26 Mar 2024 12:21:00.000,248.449,7.772,1999.991809
21 Mar 2024 14:16:00.000,258.148,7.791,1999.999205
06 Mar 2024 11:41:00.000,133.924,20.974,1275.583268
07 Mar 2024 13:20:00.000,34.411,35.625,898.251957
06 Mar 2024 18:24:00.000,311.311,35.657,896.399174
31 Mar 2024 07:03:00.000,310.880,13.273,1637.213545
11 Mar 2024 11:21:00.000,252.024,7.783,1999.977617
02 Mar 2024 16:56:00.000,14.125,24.911,1147.424487
09 Mar 2024 18:19:00.000,156.058,18.534,1369.627316
01 Mar 2024 22:04:00.000,166.571,12.853,1650.961741
07 Mar 2024 18:21:00.000,294.558,36.335,884.295064
20 Mar 2024 05:56:00.000,162.663,22.638,1213.776173
14 Mar 2024 11:15:00.000,295.479,19.319,1344.264600
18 Mar 2024 11:10:00.000,63.332,7.856,1999.999428
21 Mar 2024 09:12:00.000,295.466,7.841,1999.985629
28 Mar 2024 03:53:00.000,57.375,74.719,578.290791
31 Mar 2024 07:11:00.000,91.306,7.792,1999.978367
03 Mar 2024 18:31:00.000,312.434,13.005,1653.777689
31 Mar 2024 03:44:00.000,2.749,36.937,873.831638
02 Mar 2024 15:09:00.000,252.395,7.783,1999.993163
23 Mar 2024 10:56:00.000,100.779,8.265,1964.108765
25 Mar 2024 12:24:00.000,255.337,11.144,1763.310819
11 Mar 2024 16:33:00.000,115.779,15.774,1499.208937
11 Mar 2024 11:23:00.000,258.360,21.885,1244.152773
16 Mar 2024 07:46:00.000,206.579,7.703,1999.991594
29 Mar 2024 08:53:00.000,84.567,71.962,586.808332
27 Mar 2024 05:32:00.000,274.252,7.778,1999.979632
22 Mar 2024 09:10:00.000,308.111,12.533,1681.800478
12 Mar 2024 18:09:00.000,191.257,7.687,1999.989479
16 Mar 2024 09:30:00.000,303.569,49.946,713.130473
08 Mar 2024 11:34:00.000,195.421,31.488,975.573056
03 Mar 2024 15:09:00.000,272.800,21.043,1275.400912
20 Mar 2024 10:57:00.000,313.161,12.803,1666.780881
31 Mar 2024 05:24:00.000,336.937,22.770,1214.666145
03 Mar 2024 16:51:00.000,332.687,22.984,1208.938170
07 Mar 2024 15:00:00.000,352.653,26.100,1113.272222
15 Mar 2024 09:32:00.000,255.200,35.680,895.226169
26 Mar 2024 12:22:00.000,236.195,9.271,1887.732478
20 Mar 2024 12:42:00.000,88.764,72.785,584.828116
23 Mar 2024 12:37:00.000,150.390,7.721,1999.985234
12 Mar 2024 09:46:00.000,77.164,11.486,1744.905717
23 Mar 2024 07:31:00.000,28.620,23.586,1188.888809
27 Mar 2024 09:03:00.000,91.797,13.287,1634.443434
30 Mar 2024 10:29:00.000,247.788,10.392,1811.110401
27 Mar 2024 09:01:00.000,71.226,31.183,984.203572
22 Mar 2024 05:48:00.000,221.491,13.463,1618.568661
18 Mar 2024 14:29:00.000,193.929,37.497,863.651162
22 Mar 2024 05:50:00.000,205.295,33.497,933.047828
17 Mar 2024 07:45:00.000,194.256,31.333,978.008707
11 Mar 2024 09:45:00.000,163.395,22.999,1203.150543
11 Mar 2024 16:34:00.000,116.749,7.747,1999.994973
20 Mar 2024 14:23:00.000,195.457,15.667,1502.789352
14 Mar 2024 09:33:00.000,235.590,13.586,1614.646111
30 Mar 2024 02:02:00.000,211.870,7.665,1999.978131
28 Mar 2024 05:31:00.000,299.517,18.958,1356.880317
09 Mar 2024 13:17:00.000,53.613,7.867,1999.984268
20 Mar 2024 14:22:00.000,212.643,18.167,1387.258954
29 Mar 2024 08:54:00.000,108.302,42.065,798.137619
03 Mar 2024 21:56:00.000,202.788,9.871,1839.986600
05 Mar 2024 20:06:00.000,267.657,19.342,1339.542300
18 Mar 2024 12:51:00.000,92.289,13.449,1625.704572
13 Mar 2024 14:46:00.000,80.397,19.645,1329.580496
18 Mar 2024 12:44:00.000,309.155,13.391,1632.728405
14 Mar 2024 09:39:00.000,65.612,25.444,1130.959519
20 Mar 2024 09:23:00.000,54.824,7.865,1999.980342
18 Mar 2024 12:43:00.000,304.890,7.867,1999.990434
15 Mar 2024 14:38:00.000,65.281,65.111,612.988270
19 Mar 2024 14:21:00.000,280.449,7.830,1999.991113
15 Mar 2024 14:39:00.000,97.899,40.337,822.138759
21 Mar 2024 12:35:00.000,294.292,13.747,1611.414817
13 Mar 2024 13:03:00.000,22.883,23.060,1207.317301
16 Mar 2024 11:13:00.000,16.329,24.081,1174.175708
23 Mar 2024 04:05:00.000,174.807,7.667,1999.988574
11 Mar 2024 14:46:00.000,313.199,12.838,1664.979376
05 Mar 2024 11:47:00.000,96.767,7.804,1999.984272
10 Mar 2024 11:31:00.000,59.673,25.724,1123.186021
24 Mar 2024 05:48:00.000,55.257,25.264,1135.273402
03 Mar 2024 13:29:00.000,184.444,29.091,1029.977658
11 Mar 2024 14:53:00.000,73.581,9.667,1865.330202
12 Mar 2024 16:31:00.000,127.730,8.989,1906.322850
26 Mar 2024 10:47:00.000,132.453,8.598,1935.517966
04 Mar 2024 11:48:00.000,125.233,8.438,1948.586777
16 Mar 2024 09:31:00.000,1.999,52.138,694.433185
19 Mar 2024 14:22:00.000,273.160,12.728,1667.963346
25 Mar 2024 10:44:00.000,296.327,36.478,882.550541
18 Mar 2024 07:41:00.000,225.438,21.820,1243.532424
22 Mar 2024 10:58:00.000,87.559,12.542,1678.826402
08 Mar 2024 11:35:00.000,166.515,43.284,782.637645
26 Mar 2024 10:44:00.000,150.130,37.400,865.285711
10 Mar 2024 18:13:00.000,220.203,26.666,1091.812125
24 Mar 2024 09:08:00.000,5.218,27.667,1070.093496
28 Mar 2024 08:55:00.000,346.373,52.326,692.395796
02 Mar 2024 20:21:00.000,116.273,15.773,1497.473592
20 Mar 2024 11:04:00.000,73.260,9.639,1868.019986
09 Mar 2024 16:40:00.000,97.058,7.780,1999.972641
26 Mar 2024 03:57:00.000,192.860,31.086,981.779168
14 Mar 2024 11:21:00.000,50.277,10.565,1807.225401
30 Mar 2024 10:33:00.000,188.838,7.702,1999.998814
23 Mar 2024 10:49:00.000,313.519,21.406,1264.013763
26 Mar 2024 05:37:00.000,277.646,20.623,1289.325208
31 Mar 2024 03:48:00.000,54.112,7.829,1999.990401
23 Mar 2024 10:53:00.000,78.106,34.294,921.278478
22 Mar 2024 12:40:00.000,138.211,7.734,1999.980266
05 Mar 2024 15:06:00.000,7.455,29.912,1014.662747
16 Mar 2024 12:54:00.000,34.176,29.265,1030.027734
31 Mar 2024 03:39:00.000,269.696,7.757,2000.000019
30 Mar 2024 05:32:00.000,57.036,7.836,1999.996249
18 Mar 2024 07:40:00.000,228.694,13.516,1617.169753
05 Mar 2024 20:10:00.000,174.643,22.774,1208.300562
11 Mar 2024 11:25:00.000,291.793,55.189,670.523362
26 Mar 2024 07:25:00.000,58.780,7.848,1999.987137
03 Mar 2024 15:14:00.000,44.211,21.435,1262.823269
04 Mar 2024 15:06:00.000,285.181,20.173,1309.348161
11 Mar 2024 09:44:00.000,180.805,17.857,1400.195873
02 Mar 2024 13:36:00.000,100.262,18.191,1389.168080
04 Mar 2024 18:29:00.000,318.474,20.589,1293.845234
28 Mar 2024 03:48:00.000,240.710,7.711,1999.974671
30 Mar 2024 08:47:00.000,292.582,22.170,1234.745777
06 Mar 2024 20:09:00.000,165.280,7.672,1999.987774
09 Mar 2024 16:38:00.000,85.671,21.172,1269.795414
15 Mar 2024 12:53:00.000,312.883,12.685,1674.129027
20 Mar 2024 14:24:00.000,182.043,11.872,1712.666103
02 Mar 2024 15:13:00.000,292.676,54.679,673.974109
09 Mar 2024 13:09:00.000,275.119,7.825,1999.984744
23 Mar 2024 04:07:00.000,149.735,12.799,1655.582395
30 Mar 2024 08:54:00.000,126.467,9.030,1904.202104
05 Mar 2024 11:44:00.000,136.038,14.080,1587.243371
20 Mar 2024 06:00:00.000,88.743,12.225,1696.574696
27 Mar 2024 07:16:00.000,321.494,17.828,1407.615620
30 Mar 2024 03:45:00.000,283.091,32.211,960.089601
22 Mar 2024 07:36:00.000,54.042,7.859,1999.990770
25 Mar 2024 05:46:00.000,52.974,14.628,1562.780986
25 Mar 2024 04:04:00.000,99.659,21.154,1268.368188
02 Mar 2024 21:56:00.000,260.657,11.615,1731.342666
09 Mar 2024 14:51:00.000,310.010,12.502,1684.669388
05 Mar 2024 18:29:00.000,47.654,50.053,711.406559
20 Mar 2024 11:02:00.000,52.179,21.298,1268.053690
14 Mar 2024 11:16:00.000,312.033,26.600,1098.697758
26 Mar 2024 03:55:00.000,214.027,13.275,1627.676225
10 Mar 2024 18:10:00.000,272.662,12.680,1669.698153
28 Mar 2024 08:56:00.000,51.625,55.623,666.992458
08 Mar 2024 16:38:00.000,3.599,36.320,885.849965
01 Mar 2024 17:02:00.000,51.139,9.826,1855.452743
03 Mar 2024 20:17:00.000,133.095,24.569,1151.615868
04 Mar 2024 11:49:00.000,117.735,7.769,1999.993163
06 Mar 2024 15:02:00.000,321.858,24.556,1158.575248
22 Mar 2024 09:14:00.000,22.857,23.006,1208.663980
01 Mar 2024 16:58:00.000,342.489,29.638,1020.524889
13 Mar 2024 14:44:00.000,40.185,38.833,845.412232
23 Mar 2024 05:48:00.000,216.915,61.472,629.378164
26 Mar 2024 10:39:00.000,291.038,13.587,1619.485069
12 Mar 2024 14:46:00.000,5.093,33.449,938.909399
19 Mar 2024 09:26:00.000,53.664,7.867,1999.999593
27 Mar 2024 08:58:00.000,330.143,31.352,981.398314
05 Mar 2024 18:33:00.000,101.951,7.758,1999.990026
25 Mar 2024 09:09:00.000,79.160,7.825,1999.982166
15 Mar 2024 09:37:00.000,57.488,15.759,1505.883412
29 Mar 2024 10:35:00.000,195.532,16.139,1479.297209
27 Mar 2024 02:13:00.000,162.969,7.659,1999.996211
30 Mar 2024 02:03:00.000,206.358,12.920,1646.832087
09 Mar 2024 13:10:00.000,281.121,13.102,1647.166859
21 Mar 2024 11:00:00.000,71.616,16.987,1445.572799
26 Mar 2024 05:38:00.000,291.632,30.673,994.342463
07 Mar 2024 18:23:00.000,142.080,73.219,582.582675
07 Mar 2024 13:15:00.000,260.341,13.480,1623.562639
29 Mar 2024 05:32:00.000,32.550,19.730,1327.129835
17 Mar 2024 12:53:00.000,75.692,18.284,1387.035145
18 Mar 2024 09:21:00.000,280.657,13.075,1647.778240
09 Mar 2024 18:15:00.000,258.985,29.641,1017.674776
25 Mar 2024 09:04:00.000,339.953,26.019,1114.977877
06 Mar 2024 15:03:00.000,346.033,28.166,1057.443264
16 Mar 2024 11:08:00.000,292.834,7.848,1999.985217
19 Mar 2024 09:23:00.000,9.439,28.064,1060.040758
29 Mar 2024 07:13:00.000,31.958,27.018,1086.341964
11 Mar 2024 18:10:00.000,231.034,17.795,1403.449444
28 Mar 2024 05:29:00.000,282.194,7.791,1999.984919
19 Mar 2024 09:18:00.000,282.637,7.822,1999.984599
21 Mar 2024 11:01:00.000,79.761,10.965,1777.857133
07 Mar 2024 13:19:00.000,1.850,51.525,699.757991
07 Mar 2024 18:25:00.000,123.724,25.348,1129.352108
15 Mar 2024 14:41:00.000,109.077,15.443,1517.044571
11 Mar 2024 18:09:00.000,247.977,15.358,1520.446494
22 Mar 2024 04:12:00.000,121.597,7.727,1999.994264
14 Mar 2024 09:41:00.000,63.300,9.329,1891.071780
16 Mar 2024 14:30:00.000,297.595,7.858,1999.973023
24 Mar 2024 09:11:00.000,62.036,14.178,1587.539189
18 Mar 2024 12:47:00.000,358.093,43.261,785.150237
18 Mar 2024 11:07:00.000,24.908,23.256,1200.679781
16 Mar 2024 12:51:00.000,323.377,19.221,1349.772533
12 Mar 2024 16:29:00.000,132.405,24.695,1149.283794
10 Mar 2024 16:28:00.000,302.553,7.859,1999.991439
28 Mar 2024 03:57:00.000,61.489,7.823,1999.980581
21 Mar 2024 07:35:00.000,1.173,45.975,752.889901
14 Mar 2024 14:36:00.000,303.842,7.867,1999.990689
27 Mar 2024 10:39:00.000,232.047,39.539,832.766458
04 Mar 2024 16:49:00.000,337.409,22.792,1215.548321
10 Mar 2024 18:14:00.000,196.068,24.262,1161.229515
05 Mar 2024 16:46:00.000,340.394,23.308,1198.359146
04 Mar 2024 16:51:00.000,23.049,23.046,1206.749734
03 Mar 2024 15:07:00.000,262.026,7.799,1999.983246
06 Mar 2024 16:48:00.000,70.811,9.124,1903.224766
03 Mar 2024 21:52:00.000,256.622,7.750,1999.987347
06 Mar 2024 13:26:00.000,58.933,9.297,1893.441340
24 Mar 2024 05:41:00.000,246.214,7.733,1999.984603
28 Mar 2024 08:59:00.000,102.096,14.875,1546.657912
09 Mar 2024 18:18:00.000,169.132,27.377,1071.837921
08 Mar 2024 11:39:00.000,74.303,13.156,1644.405006
09 Mar 2024 11:36:00.000,65.574,8.969,1916.766327
18 Mar 2024 11:10:00.000,62.883,8.151,1977.536205
22 Mar 2024 12:35:00.000,239.520,46.055,751.021204
03 Mar 2024 13:33:00.000,84.352,18.121,1393.397108
19 Mar 2024 14:26:00.000,196.066,24.792,1146.160814
01 Mar 2024 16:54:00.000,283.259,7.827,1999.985075
29 Mar 2024 02:06:00.000,190.761,12.271,1684.694998
25 Mar 2024 10:45:00.000,291.821,63.306,621.383475
08 Mar 2024 11:38:00.000,80.989,20.647,1290.974273
28 Mar 2024 08:54:00.000,319.750,34.089,925.463418
04 Mar 2024 18:28:00.000,310.493,13.334,1634.757958
06 Mar 2024 13:17:00.000,247.193,7.778,1999.972077
02 Mar 2024 15:19:00.000,57.721,7.850,1999.990835
26 Mar 2024 04:00:00.000,94.546,29.964,1009.349011
11 Mar 2024 18:08:00.000,261.230,11.655,1730.753432
29 Mar 2024 03:54:00.000,58.137,7.827,1999.974884
24 Mar 2024 09:07:00.000,341.227,24.321,1165.835808
30 Mar 2024 07:12:00.000,71.121,16.860,1450.223766
17 Mar 2024 07:46:00.000,165.232,42.699,789.249638
16 Mar 2024 09:28:00.000,265.149,21.451,1259.642483
31 Mar 2024 03:46:00.000,42.039,19.044,1353.984047
27 Mar 2024 10:38:00.000,260.632,30.225,1004.713517
26 Mar 2024 09:05:00.000,75.209,18.146,1392.564315
08 Mar 2024 13:14:00.000,293.103,30.411,1002.278100
24 Mar 2024 10:53:00.000,110.843,7.776,1999.970337
25 Mar 2024 05:40:00.000,264.412,21.494,1256.224253
27 Mar 2024 10:44:00.000,143.805,7.726,1999.990318
07 Mar 2024 20:05:00.000,182.608,8.035,1972.195136
20 Mar 2024 05:57:00.000,139.928,24.845,1143.962127
14 Mar 2024 14:37:00.000,307.303,13.489,1627.042188
02 Mar 2024 15:18:00.000,57.291,8.930,1919.227970
01 Mar 2024 22:00:00.000,243.534,23.619,1181.991224
03 Mar 2024 13:28:00.000,199.887,20.176,1304.821784
08 Mar 2024 20:01:00.000,205.459,7.685,1999.997255
28 Mar 2024 07:16:00.000,28.544,24.430,1161.658927
14 Mar 2024 16:21:00.000,195.677,30.277,1001.593372
19 Mar 2024 07:37:00.000,241.646,13.647,1610.772034
29 Mar 2024 02:12:00.000,88.816,11.851,1717.211054
12 Mar 2024 16:25:00.000,285.805,35.610,897.171347
08 Mar 2024 18:23:00.000,136.409,14.511,1561.686256
18 Mar 2024 12:52:00.000,96.609,7.827,1997.862828
31 Mar 2024 03:45:00.000,28.328,27.868,1062.649737
19 Mar 2024 07:41:00.000,52.049,74.442,580.031833
16 Mar 2024 07:52:00.000,99.565,21.653,1252.035698
09 Mar 2024 16:37:00.000,72.212,31.915,968.200203
17 Mar 2024 14:35:00.000,135.769,14.537,1561.952720
04 Mar 2024 18:27:00.000,305.565,7.851,1999.999825
04 Mar 2024 13:30:00.000,76.154,22.775,1214.585251
16 Mar 2024 12:53:00.000,5.654,31.080,988.452126
17 Mar 2024 07:43:00.000,214.856,13.291,1629.017153
30 Mar 2024 03:47:00.000,1.118,46.664,744.192348
13 Mar 2024 14:41:00.000,318.590,20.522,1297.652102
26 Mar 2024 10:46:00.000,135.062,14.734,1551.783842
20 Mar 2024 09:18:00.000,325.347,23.941,1177.696858
06 Mar 2024 13:18:00.000,248.633,13.588,1616.398169
08 Mar 2024 18:18:00.000,276.263,34.122,923.507445
24 Mar 2024 07:26:00.000,345.684,28.425,1050.014552
11 Mar 2024 14:49:00.000,5.626,29.324,1028.761229
23 Mar 2024 12:34:00.000,173.631,23.555,1184.770057
12 Mar 2024 13:05:00.000,18.726,23.412,1195.712649
21 Mar 2024 09:17:00.000,18.482,23.456,1193.843392
03 Mar 2024 21:57:00.000,192.120,7.664,1999.991303
31 Mar 2024 05:28:00.000,52.182,12.739,1668.172786
03 Mar 2024 21:53:00.000,244.900,10.098,1828.444319
14 Mar 2024 11:14:00.000,285.425,12.954,1655.934132
11 Mar 2024 14:47:00.000,323.913,18.827,1366.047775
23 Mar 2024 12:28:00.000,284.359,7.834,1999.984555
02 Mar 2024 13:33:00.000,164.324,23.179,1197.253571
15 Mar 2024 12:56:00.000,4.993,27.807,1067.056409
29 Mar 2024 08:58:00.000,115.621,7.760,1999.995907
04 Mar 2024 20:13:00.000,162.056,31.712,968.693597
10 Mar 2024 09:49:00.000,127.017,16.729,1453.580185
08 Mar 2024 13:12:00.000,271.154,13.254,1637.451623
20 Mar 2024 12:41:00.000,314.560,62.072,628.007882
14 Mar 2024 12:55:00.000,303.616,7.867,1999.987048
21 Mar 2024 10:53:00.000,306.453,7.863,1999.982864
26 Mar 2024 12:23:00.000,222.769,9.655,1859.553492
05 Mar 2024 15:08:00.000,42.146,16.245,1482.252083
14 Mar 2024 09:34:00.000,234.324,22.059,1236.280989
13 Mar 2024 08:00:00.000,123.574,8.137,1970.700732
12 Mar 2024 18:06:00.000,231.872,11.661,1727.246150
07 Mar 2024 19:59:00.000,264.583,7.777,1999.993726
19 Mar 2024 07:43:00.000,60.204,25.579,1126.657247
20 Mar 2024 10:56:00.000,306.170,7.864,1999.983909
24 Mar 2024 12:33:00.000,163.890,7.711,1999.987428
27 Mar 2024 10:36:00.000,283.137,13.306,1634.642383
21 Mar 2024 05:50:00.000,212.622,7.692,1999.978298
30 Mar 2024 02:04:00.000,197.331,19.727,1318.523802
08 Mar 2024 18:19:00.000,249.077,52.101,692.949128
31 Mar 2024 07:09:00.000,79.395,19.264,1344.096802
23 Mar 2024 05:50:00.000,70.711,41.715,803.018073
18 Mar 2024 11:02:00.000,302.046,7.860,1999.993207
10 Mar 2024 13:14:00.000,51.061,9.897,1852.211181
26 Mar 2024 04:01:00.000,81.651,19.982,1314.193291
05 Mar 2024 18:30:00.000,79.494,34.834,909.999993
25 Mar 2024 07:21:00.000,311.640,18.034,1398.109210
30 Mar 2024 03:50:00.000,51.452,13.933,1599.402547
27 Mar 2024 07:22:00.000,62.627,8.120,1978.735944
12 Mar 2024 14:42:00.000,306.440,7.870,1999.982744
25 Mar 2024 07:26:00.000,46.587,13.421,1630.223732
22 Mar 2024 12:39:00.000,141.918,13.527,1617.029425
22 Mar 2024 05:52:00.000,119.934,50.669,704.877817
27 Mar 2024 09:04:00.000,96.100,7.795,1999.980749
16 Mar 2024 07:54:00.000,77.322,7.830,1999.979149
06 Mar 2024 14:59:00.000,286.720,7.841,1999.987883
03 Mar 2024 20:15:00.000,173.094,64.614,613.453458
27 Mar 2024 10:35:00.000,287.828,7.830,2000.000034
24 Mar 2024 10:49:00.000,62.967,64.373,616.360504
04 Mar 2024 13:29:00.000,87.460,35.643,896.580356
21 Mar 2024 14:17:00.000,246.653,10.294,1818.390973
17 Mar 2024 14:33:00.000,151.191,36.737,876.160348
27 Mar 2024 08:57:00.000,316.583,20.923,1281.341323
16 Mar 2024 14:38:00.000,122.191,15.749,1500.713103
26 Mar 2024 08:59:00.000,311.817,13.101,1648.308353
12 Mar 2024 11:23:00.000,313.946,44.964,764.601892
30 Mar 2024 02:08:00.000,98.326,25.249,1132.094692
20 Mar 2024 07:39:00.000,40.821,38.927,843.599838
24 Mar 2024 04:06:00.000,113.859,17.650,1409.788696
14 Mar 2024 12:57:00.000,322.930,17.991,1402.292093
17 Mar 2024 11:06:00.000,306.007,12.521,1683.123585
12 Mar 2024 14:50:00.000,83.750,7.814,1999.991035
29 Mar 2024 03:49:00.000,288.061,56.083,662.319962
07 Mar 2024 11:42:00.000,77.005,7.837,1999.974484
20 Mar 2024 11:03:00.000,65.010,15.009,1543.532749
11 Mar 2024 09:42:00.000,200.161,7.712,1999.981974
10 Mar 2024 18:16:00.000,166.258,13.063,1640.471618
20 Mar 2024 09:20:00.000,13.712,25.119,1141.814468
10 Mar 2024 16:37:00.000,106.620,7.764,1999.986754
01 Mar 2024 18:37:00.000,323.787,18.202,1391.444903
27 Mar 2024 03:54:00.000,216.845,35.038,903.650181
07 Mar 2024 14:57:00.000,300.753,12.557,1680.647307
11 Mar 2024 14:50:00.000,32.394,27.403,1077.022258
18 Mar 2024 12:52:00.000,96.628,7.800,1999.979290
29 Mar 2024 02:05:00.000,198.674,7.655,1999.995658
21 Mar 2024 07:37:00.000,44.541,21.711,1252.695435
15 Mar 2024 16:21:00.000,169.675,10.447,1803.123143
02 Mar 2024 15:16:00.000,49.915,24.104,1171.875873
16 Mar 2024 12:55:00.000,55.319,22.721,1217.612008
14 Mar 2024 16:17:00.000,277.938,12.981,1653.302512
19 Mar 2024 11:07:00.000,67.692,8.696,1936.336218
28 Mar 2024 03:56:00.000,61.171,15.861,1497.947153
06 Mar 2024 11:42:00.000,114.600,18.537,1373.654959
03 Mar 2024 13:32:00.000,97.369,26.562,1097.485055
11 Mar 2024 13:10:00.000,45.319,13.841,1607.708514
17 Mar 2024 12:50:00.000,3.468,36.031,891.446641
14 Mar 2024 13:03:00.000,65.321,8.384,1959.587454
23 Mar 2024 07:27:00.000,294.820,19.259,1345.204156
04 Mar 2024 15:07:00.000,300.582,29.025,1034.921732
19 Mar 2024 12:44:00.000,345.846,53.196,685.946055
04 Mar 2024 18:35:00.000,88.389,12.619,1671.892808
09 Mar 2024 14:50:00.000,302.200,7.864,1999.993145
30 Mar 2024 02:06:00.000,154.289,34.914,905.254345
19 Mar 2024 05:58:00.000,174.328,11.337,1744.418846
29 Mar 2024 03:45:00.000,250.947,7.727,1999.969322
06 Mar 2024 18:30:00.000,111.816,7.742,1999.979757
05 Mar 2024 15:09:00.000,50.342,10.485,1811.622536
31 Mar 2024 05:22:00.000,307.830,12.486,1682.367388
18 Mar 2024 09:29:00.000,53.635,7.868,1999.983369
11 Mar 2024 18:07:00.000,270.807,7.801,1999.995589
27 Mar 2024 03:52:00.000,227.908,13.540,1613.569696
23 Mar 2024 09:15:00.000,65.825,7.848,1999.977184
09 Mar 2024 09:54:00.000,105.254,7.790,1999.996604
13 Mar 2024 11:20:00.000,327.829,37.217,871.270657
30 Mar 2024 03:49:00.000,44.790,21.857,1245.591754
23 Mar 2024 07:28:00.000,311.245,26.611,1097.137236
26 Mar 2024 09:00:00.000,320.814,19.920,1320.302989
12 Mar 2024 18:09:00.000,191.461,7.740,1995.940921
18 Mar 2024 14:32:00.000,148.243,12.006,1705.297667
14 Mar 2024 13:03:00.000,66.118,7.850,1999.982364
01 Mar 2024 20:18:00.000,309.286,21.773,1248.942522
05 Mar 2024 18:31:00.000,91.922,22.507,1221.144808
19 Mar 2024 10:59:00.000,304.731,7.863,1999.998215
31 Mar 2024 00:22:00.000,142.466,7.669,1999.996603
14 Mar 2024 14:40:00.000,352.663,48.064,731.579939
19 Mar 2024 12:45:00.000,53.230,56.374,662.247232
10 Mar 2024 16:29:00.000,305.195,13.675,1615.950512
18 Mar 2024 07:44:00.000,113.819,61.692,629.037300
04 Mar 2024 20:14:00.000,149.446,20.822,1277.882054
13 Mar 2024 09:36:00.000,222.194,13.507,1618.184093
15 Mar 2024 12:58:00.000,49.602,20.264,1307.328757
26 Mar 2024 12:25:00.000,202.156,7.714,1999.995671
03 Mar 2024 15:10:00.000,285.682,31.906,968.927103
23 Mar 2024 12:35:00.000,160.911,16.253,1474.316677
21 Mar 2024 12:39:00.000,168.873,66.203,607.724926
26 Mar 2024 07:18:00.000,305.643,12.447,1685.723450
07 Mar 2024 13:21:00.000,46.654,22.946,1210.305795
25 Mar 2024 10:43:00.000,297.316,22.316,1230.703380
28 Mar 2024 07:12:00.000,312.262,12.628,1675.232785
14 Mar 2024 14:43:00.000,91.301,22.544,1221.338948
10 Mar 2024 16:32:00.000,344.969,53.713,681.474196
17 Mar 2024 14:36:00.000,132.766,7.736,1999.984981
07 Mar 2024 11:37:00.000,173.662,26.100,1108.260160
02 Mar 2024 18:38:00.000,52.655,21.480,1259.534898
06 Mar 2024 13:22:00.000,15.992,67.796,602.082123
10 Mar 2024 16:34:00.000,87.778,37.712,861.276029
03 Mar 2024 18:36:00.000,58.759,24.719,1151.273352
15 Mar 2024 07:54:00.000,114.360,18.168,1388.847848
09 Mar 2024 14:56:00.000,42.726,18.332,1386.536965
03 Mar 2024 20:19:00.000,127.874,7.706,1999.975465
06 Mar 2024 15:07:00.000,52.167,9.320,1891.922062
21 Mar 2024 12:43:00.000,126.900,7.750,1999.968865
15 Mar 2024 09:38:00.000,59.420,7.862,1999.984294
23 Mar 2024 09:15:00.000,65.079,8.346,1962.220350
27 Mar 2024 10:40:00.000,193.474,38.331,850.373439
04 Mar 2024 20:12:00.000,190.680,44.466,766.835166
04 Mar 2024 13:32:00.000,67.890,8.381,1959.280500
05 Mar 2024 20:12:00.000,154.229,10.005,1831.399842
10 Mar 2024 14:56:00.000,69.220,7.837,1999.976484
19 Mar 2024 11:00:00.000,312.284,12.620,1677.626459
05 Mar 2024 11:46:00.000,106.735,10.640,1796.386272
06 Mar 2024 15:07:00.000,54.179,7.857,1999.997823
13 Mar 2024 14:42:00.000,333.189,30.082,1010.704500
25 Mar 2024 07:22:00.000,328.876,23.432,1193.416237
04 Mar 2024 13:24:00.000,222.740,13.533,1617.367864
29 Mar 2024 08:55:00.000,112.533,25.437,1128.207712
09 Mar 2024 13:11:00.000,290.594,19.773,1325.752413
31 Mar 2024 08:48:00.000,159.587,33.290,937.731371
07 Mar 2024 18:19:00.000,297.071,13.737,1611.136986
17 Mar 2024 09:31:00.000,50.228,13.035,1653.179683
28 Mar 2024 07:14:00.000,340.967,23.650,1186.405195
26 Mar 2024 03:56:00.000,206.756,20.779,1278.963335
21 Mar 2024 09:13:00.000,303.322,12.541,1680.991813
31 Mar 2024 02:06:00.000,71.894,13.955,1595.842556
04 Mar 2024 15:10:00.000,28.342,27.120,1084.508775
01 Mar 2024 20:24:00.000,103.760,14.965,1539.493712
16 Mar 2024 07:49:00.000,172.705,25.846,1114.584880
19 Mar 2024 06:04:00.000,91.253,7.795,1999.982446
12 Mar 2024 14:48:00.000,58.744,24.487,1159.799442
20 Mar 2024 09:23:00.000,53.312,8.922,1921.052343
20 Mar 2024 11:00:00.000,5.504,29.164,1032.739092
01 Mar 2024 20:22:00.000,88.370,37.997,855.568758
17 Mar 2024 14:27:00.000,293.079,7.851,1999.983643
30 Mar 2024 03:44:00.000,270.779,21.056,1271.715420
30 Mar 2024 02:09:00.000,85.320,17.349,1424.576000
17 Mar 2024 11:13:00.000,58.982,7.863,1999.986538
08 Mar 2024 11:31:00.000,219.554,7.736,1999.985689
05 Mar 2024 11:42:00.000,165.629,10.797,1781.530582
15 Mar 2024 09:34:00.000,17.555,68.496,599.278250
01 Mar 2024 20:17:00.000,305.008,13.605,1618.146528
13 Mar 2024 09:40:00.000,119.609,51.715,696.853818
23 Mar 2024 05:45:00.000,234.913,13.568,1613.564057
03 Mar 2024 21:55:00.000,216.476,11.386,1741.290516
16 Mar 2024 09:29:00.000,275.764,33.479,936.558733
21 Mar 2024 14:21:00.000,191.775,8.131,1967.775160
06 Mar 2024 15:00:00.000,293.873,12.686,1672.397101
22 Mar 2024 07:34:00.000,28.303,27.594,1071.518782
26 Mar 2024 07:22:00.000,20.322,23.136,1203.600243
29 Mar 2024 07:15:00.000,64.673,14.878,1549.042158
08 Mar 2024 11:33:00.000,208.679,20.870,1278.711938
11 Mar 2024 14:51:00.000,52.509,21.389,1264.373745
20 Mar 2024 11:01:00.000,32.129,27.258,1081.101401
20 Mar 2024 05:53:00.000,199.497,7.684,1999.991150
09 Mar 2024 16:32:00.000,308.987,13.373,1633.282474
27 Mar 2024 03:55:00.000,192.303,56.075,661.603294
31 Mar 2024 05:21:00.000,299.851,7.815,1999.984544
22 Mar 2024 05:54:00.000,77.044,22.389,1226.548443
29 Mar 2024 03:54:00.000,57.712,9.020,1910.846855
21 Mar 2024 09:16:00.000,355.219,25.580,1128.122713
11 Mar 2024 16:29:00.000,312.486,62.466,625.594013
12 Mar 2024 16:24:00.000,291.441,22.050,1239.765097
19 Mar 2024 09:19:00.000,289.511,12.861,1661.002622
16 Mar 2024 12:57:00.000,79.583,7.829,1999.997065
02 Mar 2024 18:34:00.000,323.820,18.800,1365.844768
26 Mar 2024 09:06:00.000,87.256,7.811,1999.981895
20 Mar 2024 11:05:00.000,75.644,7.837,1999.991384
17 Mar 2024 12:49:00.000,336.197,28.577,1047.175130
15 Mar 2024 14:40:00.000,105.676,24.785,1148.304382
01 Mar 2024 17:01:00.000,42.882,15.269,1530.110721
09 Mar 2024 11:33:00.000,79.448,39.446,835.759737
04 Mar 2024 16:52:00.000,40.724,18.103,1395.875667
31 Mar 2024 02:02:00.000,174.968,48.569,722.538656
02 Mar 2024 18:39:00.000,65.536,15.118,1535.605522
15 Mar 2024 13:00:00.000,70.482,9.164,1901.859516
12 Mar 2024 14:50:00.000,80.184,10.976,1776.510098
23 Mar 2024 07:29:00.000,337.106,32.016,967.136354
08 Mar 2024 16:36:00.000,320.580,20.103,1313.514822
10 Mar 2024 14:51:00.000,4.325,26.745,1095.267999
07 Mar 2024 18:27:00.000,122.327,9.197,1891.007094
22 Mar 2024 05:47:00.000,224.564,7.704,1999.992330
11 Mar 2024 11:29:00.000,54.773,15.172,1536.027189
06 Mar 2024 13:21:00.000,274.085,59.617,641.387136
28 Mar 2024 10:32:00.000,280.913,7.818,1999.990956
10 Mar 2024 16:30:00.000,309.597,21.853,1247.588082
31 Mar 2024 07:06:00.000,2.174,38.708,846.572454
31 Mar 2024 03:41:00.000,283.290,20.169,1306.173753
06 Mar 2024 20:06:00.000,216.004,21.759,1244.283964
15 Mar 2024 16:14:00.000,275.990,7.819,1999.983133
21 Mar 2024 07:33:00.000,284.157,32.108,963.852671
03 Mar 2024 21:54:00.000,231.076,11.471,1737.190897
31 Mar 2024 08:51:00.000,137.579,7.903,1986.422829
12 Mar 2024 18:07:00.000,217.152,11.664,1725.728718
13 Mar 2024 13:05:00.000,52.589,12.815,1665.922490
01 Mar 2024 17:02:00.000,53.721,7.845,1999.990416
29 Mar 2024 07:10:00.000,323.948,18.700,1369.650539
13 Mar 2024 09:38:00.000,206.530,33.733,929.864229
13 Mar 2024 16:24:00.000,190.375,45.226,759.225395
27 Mar 2024 09:02:00.000,84.661,20.777,1285.056683
08 Mar 2024 13:11:00.000,266.450,7.810,1999.988564
06 Mar 2024 13:20:00.000,256.144,35.622,896.598443
01 Mar 2024 21:59:00.000,260.925,18.169,1387.599807
17 Mar 2024 16:11:00.000,234.579,9.114,1898.567175
29 Mar 2024 02:11:00.000,100.170,16.999,1439.514027
25 Mar 2024 09:08:00.000,67.911,15.886,1498.296963
05 Mar 2024 16:51:00.000,66.356,7.829,1999.978585
05 Mar 2024 18:33:00.000,101.635,8.326,1956.926107
30 Mar 2024 03:51:00.000,55.458,8.163,1974.395526
23 Mar 2024 07:30:00.000,6.730,30.404,1002.697614
05 Mar 2024 13:23:00.000,232.431,36.057,888.408994
30 Mar 2024 03:46:00.000,311.697,45.817,752.914835
11 Mar 2024 18:11:00.000,212.382,17.765,1403.691111
06 Mar 2024 20:03:00.000,266.994,12.198,1697.058680
17 Mar 2024 14:29:00.000,286.203,21.849,1246.961500
18 Mar 2024 07:47:00.000,67.843,15.228,1531.506019
25 Mar 2024 05:43:00.000,2.503,52.819,687.831199
17 Mar 2024 12:55:00.000,87.734,7.815,1999.981875
23 Mar 2024 09:07:00.000,303.471,7.850,1999.992269
15 Mar 2024 16:15:00.000,267.439,12.281,1693.710069
15 Mar 2024 07:52:00.000,153.745,19.824,1318.012743
02 Mar 2024 16:51:00.000,290.152,7.838,1999.983517
17 Mar 2024 09:32:00.000,54.636,7.868,1999.990228
08 Mar 2024 18:24:00.000,133.580,8.445,1944.548683
24 Mar 2024 05:50:00.000,59.598,7.841,1999.984290
08 Mar 2024 11:36:00.000,122.072,43.004,786.648044
08 Mar 2024 18:22:00.000,141.435,23.136,1197.612924
15 Mar 2024 11:11:00.000,293.649,12.753,1668.418519
30 Mar 2024 03:48:00.000,31.701,33.306,939.414959
24 Mar 2024 09:06:00.000,324.076,18.442,1381.693668
15 Mar 2024 07:55:00.000,99.635,14.009,1593.500778
05 Mar 2024 13:22:00.000,235.008,22.079,1236.083980
19 Mar 2024 09:25:00.000,42.810,15.390,1525.208234
14 Mar 2024 09:40:00.000,64.070,15.808,1502.985177
22 Mar 2024 10:54:00.000,1.685,39.159,840.882428
21 Mar 2024 12:37:00.000,286.646,35.894,892.579316
07 Mar 2024 15:04:00.000,55.098,8.484,1952.534266
04 Mar 2024 13:23:00.000,225.601,7.745,1999.982692
15 Mar 2024 09:31:00.000,250.407,21.987,1239.645985
01 Mar 2024 22:02:00.000,196.146,23.869,1172.149317
01 Mar 2024 18:36:00.000,312.439,12.629,1675.805870
16 Mar 2024 07:47:00.000,199.984,12.798,1656.857818
21 Mar 2024 09:19:00.000,48.466,13.028,1653.491311
18 Mar 2024 14:31:00.000,155.516,18.833,1358.490495
25 Mar 2024 09:03:00.000,323.300,19.071,1354.944874
07 Mar 2024 18:20:00.000,296.345,22.248,1232.386029
20 Mar 2024 14:25:00.000,171.873,7.705,1999.991926
30 Mar 2024 03:51:00.000,55.671,7.828,1999.974908
08 Mar 2024 16:42:00.000,84.067,11.800,1722.957978
24 Mar 2024 07:27:00.000,11.584,26.436,1102.992842
15 Mar 2024 09:30:00.000,248.120,13.580,1616.023429
17 Mar 2024 11:08:00.000,335.061,22.850,1214.269171
08 Mar 2024 13:20:00.000,54.571,7.865,1999.990244
20 Mar 2024 07:41:00.000,54.986,15.252,1531.072013
16 Mar 2024 09:32:00.000,34.792,35.895,893.394528
05 Mar 2024 20:08:00.000,224.983,31.780,968.007469
03 Mar 2024 13:34:00.000,76.953,11.594,1737.716537
03 Mar 2024 20:16:00.000,140.722,40.028,824.083751
11 Mar 2024 16:32:00.000,114.426,25.467,1127.014981
28 Mar 2024 05:37:00.000,50.930,9.960,1845.974406
05 Mar 2024 13:26:00.000,68.679,42.142,798.565444
28 Mar 2024 02:11:00.000,159.637,14.463,1561.306264
28 Mar 2024 10:39:00.000,165.459,13.721,1604.856754
09 Mar 2024 11:31:00.000,196.582,57.377,654.661382
29 Mar 2024 10:30:00.000,271.961,7.802,1999.996350
17 Mar 2024 09:30:00.000,42.761,20.265,1307.495038
16 Mar 2024 12:52:00.000,340.094,26.238,1109.522491
03 Mar 2024 13:27:00.000,208.476,13.138,1638.848490
06 Mar 2024 16:42:00.000,324.120,18.515,1378.760371
20 Mar 2024 05:59:00.000,100.232,17.501,1418.604984
04 Mar 2024 18:32:00.000,40.639,39.092,840.474504
03 Mar 2024 18:32:00.000,321.980,19.575,1333.822196
02 Mar 2024 15:11:00.000,258.884,21.809,1246.645315
18 Mar 2024 07:39:00.000,230.520,7.727,1999.991083
20 Mar 2024 12:44:00.000,113.567,25.516,1126.458570
08 Mar 2024 19:58:00.000,245.620,7.743,1999.995228
23 Mar 2024 05:49:00.000,96.011,70.847,589.838641
16 Mar 2024 12:56:00.000,68.398,15.925,1496.792978
27 Mar 2024 10:43:00.000,147.558,12.161,1696.103682
24 Mar 2024 10:44:00.000,301.330,7.853,1999.978057
03 Mar 2024 15:11:00.000,314.449,44.571,768.865851
18 Mar 2024 14:30:00.000,168.625,27.873,1060.097762
06 Mar 2024 20:07:00.000,196.030,19.266,1338.433293
31 Mar 2024 07:08:00.000,65.766,28.337,1050.696287
09 Mar 2024 13:17:00.000,49.895,11.237,1763.031061
15 Mar 2024 14:36:00.000,311.959,35.633,897.774629
22 Mar 2024 12:33:00.000,280.859,21.265,1267.720745
25 Mar 2024 05:45:00.000,47.276,23.127,1202.742269
10 Mar 2024 11:30:00.000,57.956,42.673,792.087258
30 Mar 2024 05:29:00.000,18.319,23.462,1191.976560
10 Mar 2024 16:33:00.000,54.089,57.084,656.988670
05 Mar 2024 13:25:00.000,90.285,72.406,585.966511
22 Mar 2024 07:36:00.000,49.819,12.199,1702.198358
30 Mar 2024 08:49:00.000,269.755,60.280,636.806062
17 Mar 2024 12:47:00.000,311.728,13.149,1646.841838
26 Mar 2024 07:20:00.000,334.589,22.794,1214.789763
23 Mar 2024 10:47:00.000,303.958,7.858,1999.990669
10 Mar 2024 14:47:00.000,304.828,7.868,2000.000034
22 Mar 2024 10:56:00.000,66.249,28.734,1041.913676
26 Mar 2024 05:44:00.000,54.723,7.845,1999.990132
30 Mar 2024 07:13:00.000,82.849,7.807,1999.990514
22 Mar 2024 07:28:00.000,270.242,7.788,1999.981765
24 Mar 2024 10:45:00.000,303.175,13.661,1616.439395
28 Mar 2024 10:33:00.000,273.831,12.718,1667.776754
16 Mar 2024 11:10:00.000,312.052,18.060,1398.572903
13 Mar 2024 09:43:00.000,71.147,14.282,1581.733902
14 Mar 2024 16:16:00.000,283.991,7.833,1999.984529
11 Mar 2024 14:53:00.000,76.000,7.827,1999.982901
01 Mar 2024 21:58:00.000,272.317,12.607,1672.164397
14 Mar 2024 16:22:00.000,174.287,23.167,1196.748919
30 Mar 2024 03:42:00.000,260.624,7.742,1999.980950
27 Mar 2024 08:56:00.000,309.382,13.413,1630.129861
06 Mar 2024 16:40:00.000,305.696,7.862,1999.984497
17 Mar 2024 14:28:00.000,290.589,13.669,1615.513904
28 Mar 2024 05:35:00.000,29.754,22.005,1241.541029
28 Mar 2024 08:52:00.000,305.615,13.552,1621.927417
23 Mar 2024 09:14:00.000,56.896,13.177,1644.116861
02 Mar 2024 18:37:00.000,32.429,27.522,1072.576739
21 Mar 2024 12:41:00.000,131.473,24.714,1149.547838
22 Mar 2024 10:53:00.000,333.546,29.938,1013.941760
07 Mar 2024 15:04:00.000,56.031,7.856,1999.983691
23 Mar 2024 09:08:00.000,311.249,12.560,1680.324930
11 Mar 2024 16:30:00.000,92.871,73.160,583.352354
31 Mar 2024 02:05:00.000,77.631,22.089,1235.099202
02 Mar 2024 15:10:00.000,254.813,13.587,1616.707716
03 Mar 2024 13:30:00.000,156.515,36.896,873.687016
26 Mar 2024 07:24:00.000,50.156,12.874,1661.514556
27 Mar 2024 03:58:00.000,72.179,24.022,1171.787817
10 Mar 2024 09:52:00.000,90.720,7.815,1999.983872
06 Mar 2024 13:25:00.000,57.243,15.728,1507.280620
20 Mar 2024 05:58:00.000,117.340,22.511,1220.066694
08 Mar 2024 19:59:00.000,233.113,8.964,1907.370310
28 Mar 2024 10:38:00.000,177.493,19.685,1323.322160
10 Mar 2024 13:11:00.000,9.425,27.938,1063.625046
01 Mar 2024 22:05:00.000,158.436,7.666,1999.978163
10 Mar 2024 14:53:00.000,47.292,19.397,1341.568074
02 Mar 2024 13:30:00.000,200.676,7.720,1999.978320
25 Mar 2024 04:06:00.000,79.607,9.341,1885.871178
18 Mar 2024 09:26:00.000,28.318,25.258,1137.541776
25 Mar 2024 07:19:00.000,292.506,7.822,1999.985651
25 Mar 2024 12:29:00.000,179.787,7.707,1999.978473
27 Mar 2024 08:55:00.000,304.987,7.847,1999.990405
04 Mar 2024 18:30:00.000,333.048,30.239,1005.975669
21 Mar 2024 12:36:00.000,291.936,22.183,1235.468063
18 Mar 2024 07:42:00.000,218.375,35.064,904.709462
02 Mar 2024 22:01:00.000,182.193,11.236,1749.170802
14 Mar 2024 12:56:00.000,311.363,12.575,1680.603385
23 Mar 2024 05:51:00.000,66.207,25.299,1133.874094
01 Mar 2024 16:59:00.000,9.609,27.775,1066.873913
07 Mar 2024 11:42:00.000,79.284,9.773,1858.174118
15 Mar 2024 16:17:00.000,237.549,21.001,1274.455444
02 Mar 2024 15:15:00.000,39.692,38.432,851.370496
03 Mar 2024 16:53:00.000,18.771,23.378,1195.781781
19 Mar 2024 14:24:00.000,244.639,24.193,1166.312747
06 Mar 2024 20:02:00.000,275.605,7.797,1999.983388
26 Mar 2024 10:40:00.000,286.901,21.763,1249.592896
15 Mar 2024 09:35:00.000,48.313,41.416,808.479618
03 Mar 2024 20:18:00.000,129.894,15.274,1521.556589
05 Mar 2024 11:41:00.000,176.582,7.714,1999.984063
04 Mar 2024 16:53:00.000,52.764,12.798,1665.497407
02 Mar 2024 13:38:00.000,80.867,7.913,1993.113328
17 Mar 2024 07:42:00.000,219.024,7.714,1999.983661
20 Mar 2024 14:25:00.000,172.246,7.881,1986.476085
31 Mar 2024 02:07:00.000,68.608,8.109,1976.303641
17 Mar 2024 12:48:00.000,320.647,20.010,1317.791904
11 Mar 2024 13:03:00.000,289.916,7.849,1999.983896
20 Mar 2024 14:20:00.000,248.561,15.557,1511.488927
29 Mar 2024 08:50:00.000,302.272,22.133,1236.625906
21 Mar 2024 11:02:00.000,83.341,7.824,1999.990845
27 Mar 2024 05:36:00.000,332.416,34.662,914.101560
07 Mar 2024 13:22:00.000,52.594,14.546,1568.739393
12 Mar 2024 09:43:00.000,121.462,34.827,910.223766
30 Mar 2024 07:11:00.000,57.723,24.176,1168.551421
26 Mar 2024 12:24:00.000,209.600,8.777,1920.949758
26 Mar 2024 04:03:00.000,71.086,7.812,1999.970471
03 Mar 2024 13:35:00.000,73.452,7.835,1999.999148
13 Mar 2024 09:35:00.000,225.146,7.734,1999.984011
05 Mar 2024 18:25:00.000,307.191,13.551,1622.239985
21 Mar 2024 05:58:00.000,77.422,11.311,1754.521602
26 Mar 2024 07:17:00.000,297.805,7.828,2000.000072
09 Mar 2024 11:32:00.000,112.282,62.532,625.210994
09 Mar 2024 11:34:00.000,71.062,24.415,1161.962948
10 Mar 2024 11:32:00.000,60.463,15.969,1495.429304
20 Mar 2024 10:59:00.000,340.840,25.155,1140.866542
28 Mar 2024 02:09:00.000,183.362,7.652,1999.983064
31 Mar 2024 03:47:00.000,49.842,12.282,1694.954500
12 Mar 2024 11:27:00.000,51.202,13.756,1612.273218
03 Mar 2024 16:56:00.000,57.490,7.841,1999.997649
31 Mar 2024 03:42:00.000,298.325,29.291,1025.878432
10 Mar 2024 16:36:00.000,103.362,14.904,1544.418229
28 Mar 2024 02:14:00.000,110.027,13.409,1622.863028
27 Mar 2024 02:17:00.000,110.614,8.383,1950.530537
19 Mar 2024 12:48:00.000,102.810,14.875,1547.166047
19 Mar 2024 06:03:00.000,98.064,10.397,1812.049109
28 Mar 2024 10:40:00.000,157.683,8.596,1933.544414
17 Mar 2024 07:48:00.000,94.179,30.607,996.243526
06 Mar 2024 13:23:00.000,47.543,41.253,810.771730
04 Mar 2024 13:31:00.000,70.871,14.357,1577.397180
11 Mar 2024 09:43:00.000,192.440,12.454,1677.783715
13 Mar 2024 11:23:00.000,42.002,18.725,1370.323837
13 Mar 2024 07:59:00.000,136.388,8.492,1942.713566
10 Mar 2024 18:17:00.000,158.530,8.112,1967.687639
27 Mar 2024 07:20:00.000,42.421,18.206,1391.240950
27 Mar 2024 10:37:00.000,275.276,20.588,1292.212349
22 Mar 2024 07:35:00.000,41.984,18.899,1362.051557
27 Mar 2024 03:59:00.000,68.220,15.025,1539.910607
08 Mar 2024 13:18:00.000,42.670,20.125,1313.021847
27 Mar 2024 07:18:00.000,1.623,25.327,1134.725696
03 Mar 2024 15:12:00.000,1.298,44.948,764.770334
07 Mar 2024 16:41:00.000,5.212,31.210,984.890353
04 Mar 2024 20:11:00.000,237.533,44.780,763.809920
28 Mar 2024 03:49:00.000,240.912,13.584,1612.052521
29 Mar 2024 03:52:00.000,51.047,24.410,1160.421764
26 Mar 2024 09:01:00.000,336.430,28.386,1051.189510
21 Mar 2024 05:56:00.000,97.941,25.788,1118.132578
29 Mar 2024 05:28:00.000,307.915,18.292,1385.658771
21 Mar 2024 07:32:00.000,271.607,21.067,1273.280440
01 Mar 2024 16:55:00.000,290.122,12.795,1664.936159
04 Mar 2024 20:16:00.000,139.279,7.692,1999.989932
26 Mar 2024 07:25:00.000,58.342,8.134,1978.184008
15 Mar 2024 07:51:00.000,171.040,16.359,1468.365946
07 Mar 2024 11:40:00.000,99.524,22.059,1238.246713
09 Mar 2024 11:35:00.000,67.495,15.255,1530.783424
22 Mar 2024 09:13:00.000,359.973,25.166,1140.327966
02 Mar 2024 21:57:00.000,247.322,15.232,1525.020009
22 Mar 2024 10:57:00.000,79.920,19.504,1335.608259
01 Mar 2024 20:23:00.000,98.922,23.862,1175.244551
13 Mar 2024 09:42:00.000,76.556,22.633,1219.558075
30 Mar 2024 05:28:00.000,355.012,25.603,1125.798805
11 Mar 2024 09:49:00.000,88.572,12.470,1683.317234
25 Mar 2024 10:50:00.000,121.224,9.234,1890.749562
13 Mar 2024 12:59:00.000,308.231,12.506,1684.507754
29 Mar 2024 05:27:00.000,296.667,12.634,1672.750493
09 Mar 2024 14:53:00.000,338.920,22.933,1211.404454
13 Mar 2024 11:19:00.000,300.078,29.156,1031.978486
04 Mar 2024 11:46:00.000,150.707,7.727,1999.993207
23 Mar 2024 05:53:00.000,63.542,9.265,1894.051226
28 Mar 2024 05:30:00.000,289.012,12.833,1660.415474
29 Mar 2024 07:14:00.000,51.884,21.113,1273.639016
09 Mar 2024 11:37:00.000,65.279,7.855,1999.999820
02 Mar 2024 22:01:00.000,173.241,7.660,1999.989461
02 Mar 2024 20:16:00.000,303.005,36.153,886.959074
29 Mar 2024 05:31:00.000,13.687,25.171,1138.660546
15 Mar 2024 16:19:00.000,196.004,19.664,1324.012008
16 Mar 2024 09:33:00.000,46.906,23.067,1206.211200
21 Mar 2024 07:31:00.000,265.106,13.372,1628.275688
03 Mar 2024 18:34:00.000,4.548,33.566,935.516171
25 Mar 2024 12:28:00.000,194.189,12.030,1703.369880
10 Mar 2024 11:24:00.000,241.818,7.766,1999.991216
30 Mar 2024 08:50:00.000,166.197,67.396,602.330426
11 Mar 2024 09:47:00.000,117.429,22.981,1205.554966
14 Mar 2024 16:24:00.000,153.829,10.186,1821.054312
02 Mar 2024 15:17:00.000,54.584,15.144,1536.491720
14 Mar 2024 14:42:00.000,78.647,34.793,911.898547
25 Mar 2024 10:50:00.000,121.189,7.758,1999.981453
07 Mar 2024 20:00:00.000,253.829,10.984,1771.674315
24 Mar 2024 05:47:00.000,49.351,41.477,806.538675
01 Mar 2024 20:16:00.000,302.453,7.836,1999.978084
17 Mar 2024 11:09:00.000,357.806,25.237,1138.705674
25 Mar 2024 09:01:00.000,306.438,7.851,1999.998721
20 Mar 2024 07:35:00.000,257.612,21.826,1244.908855
24 Mar 2024 07:28:00.000,31.135,20.676,1291.206374
09 Mar 2024 13:15:00.000,28.414,25.048,1144.055460
06 Mar 2024 20:09:00.000,169.961,10.203,1817.508498
13 Mar 2024 16:21:00.000,280.196,21.263,1267.458788
22 Mar 2024 07:31:00.000,299.231,29.192,1029.939482
18 Mar 2024 09:25:00.000,5.107,32.917,949.436951
29 Mar 2024 05:29:00.000,325.106,24.033,1173.028190
07 Mar 2024 14:58:00.000,312.255,18.008,1400.769032
08 Mar 2024 11:32:00.000,215.530,13.284,1630.909858
25 Mar 2024 07:27:00.000,55.794,7.853,1999.983747
09 Mar 2024 13:14:00.000,5.403,32.628,955.575005
30 Mar 2024 07:05:00.000,306.462,7.835,1999.982900
26 Mar 2024 03:58:00.000,163.778,41.930,797.781166
03 Mar 2024 15:16:00.000,55.376,7.854,1999.989542
13 Mar 2024 16:25:00.000,161.411,32.134,961.158772
18 Mar 2024 09:28:00.000,49.848,11.330,1757.100976
24 Mar 2024 10:50:00.000,96.541,40.246,823.502799
02 Mar 2024 20:22:00.000,116.980,9.265,1885.874793
18 Mar 2024 09:20:00.000,274.734,7.810,1999.995348
15 Mar 2024 14:42:00.000,111.385,7.767,1999.982465
23 Mar 2024 05:44:00.000,235.702,7.718,1999.975687
12 Mar 2024 09:45:00.000,84.614,17.943,1401.450621
23 Mar 2024 04:06:00.000,163.600,10.623,1789.653035
06 Mar 2024 16:47:00.000,62.590,14.284,1580.861697
11 Mar 2024 13:05:00.000,308.753,18.294,1388.341995
08 Mar 2024 20:01:00.000,207.202,7.929,1981.431925
08 Mar 2024 16:35:00.000,311.695,13.201,1643.284564
15 Mar 2024 11:16:00.000,31.250,20.595,1295.403060
08 Mar 2024 11:37:00.000,93.901,31.132,985.205456
12 Mar 2024 11:24:00.000,1.431,45.369,760.351939
05 Mar 2024 16:45:00.000,323.099,18.025,1399.960565
19 Mar 2024 11:07:00.000,68.924,7.848,1999.999833
29 Mar 2024 02:10:00.000,116.948,21.885,1240.008835
25 Mar 2024 04:01:00.000,171.599,25.486,1123.236426
20 Mar 2024 12:45:00.000,115.130,15.817,1498.231929
29 Mar 2024 03:51:00.000,41.627,39.239,837.506752
29 Mar 2024 03:47:00.000,256.716,21.791,1244.201624
11 Mar 2024 11:31:00.000,57.825,7.866,1999.977826
24 Mar 2024 05:49:00.000,57.811,15.729,1505.765155
29 Mar 2024 10:37:00.000,171.953,8.199,1962.378344
08 Mar 2024 16:40:00.000,62.565,26.648,1095.878833
22 Mar 2024 12:36:00.000,190.243,46.248,748.432683
13 Mar 2024 09:39:00.000,178.169,50.285,708.795245
23 Mar 2024 10:56:00.000,101.054,7.792,1999.990164
04 Mar 2024 15:08:00.000,328.244,36.945,875.462233
19 Mar 2024 12:43:00.000,319.195,34.461,919.258637
03 Mar 2024 20:14:00.000,264.174,58.399,647.310588
22 Mar 2024 10:50:00.000,305.685,7.861,1999.998357
30 Mar 2024 02:05:00.000,181.506,28.073,1052.038741
01 Mar 2024 18:42:00.000,59.945,13.694,1612.619371
17 Mar 2024 14:31:00.000,249.635,52.999,686.420228
14 Mar 2024 11:17:00.000,337.889,31.840,971.892514
28 Mar 2024 05:33:00.000,341.553,30.125,1008.091997
28 Mar 2024 03:52:00.000,242.979,63.069,620.753653
17 Mar 2024 14:34:00.000,140.601,23.195,1197.025365
01 Mar 2024 18:40:00.000,28.944,24.723,1152.204446
07 Mar 2024 13:18:00.000,304.537,49.516,717.362117
18 Mar 2024 07:43:00.000,195.039,56.608,659.125519
19 Mar 2024 11:02:00.000,340.851,23.703,1186.078011
22 Mar 2024 09:12:00.000,337.240,22.823,1214.670802
27 Mar 2024 02:16:00.000,123.309,10.062,1829.399460
12 Mar 2024 11:26:00.000,44.390,21.533,1260.009513
12 Mar 2024 09:42:00.000,155.921,36.394,881.996529
31 Mar 2024 05:29:00.000,60.622,7.830,1999.999786
12 Mar 2024 11:28:00.000,55.327,8.051,1986.029461
29 Mar 2024 07:16:00.000,72.918,9.545,1873.329382
08 Mar 2024 14:55:00.000,317.970,17.810,1409.836218
25 Mar 2024 04:05:00.000,87.344,14.742,1553.251017
23 Mar 2024 10:55:00.000,97.042,14.135,1587.116653
16 Mar 2024 07:48:00.000,189.619,19.013,1350.156439
14 Mar 2024 12:58:00.000,340.187,23.264,1200.624549
11 Mar 2024 16:31:00.000,111.301,42.225,795.981578
13 Mar 2024 14:40:00.000,310.560,13.304,1637.818709
22 Mar 2024 07:32:00.000,326.965,37.481,866.045575
31 Mar 2024 02:07:00.000,68.453,7.799,1999.983646
28 Mar 2024 07:19:00.000,68.567,7.832,1999.973191
26 Mar 2024 08:58:00.000,306.215,7.850,1999.982495
11 Mar 2024 11:24:00.000,266.579,34.895,909.919430
16 Mar 2024 16:11:00.000,265.152,7.800,1999.995256
04 Mar 2024 16:50:00.000,0.120,25.173,1139.770966
25 Mar 2024 12:25:00.000,241.625,13.945,1595.496103
22 Mar 2024 09:11:00.000,319.898,17.816,1409.056767
11 Mar 2024 13:09:00.000,32.919,19.578,1335.257565
02 Mar 2024 13:32:00.000,181.647,17.899,1398.564910
27 Mar 2024 02:14:00.000,150.887,9.628,1856.619645
02 Mar 2024 16:52:00.000,297.589,12.593,1677.607809
12 Mar 2024 16:27:00.000,171.619,65.428,610.685154
06 Mar 2024 16:46:00.000,50.024,20.248,1306.845761
16 Mar 2024 11:09:00.000,300.538,12.592,1678.516376
04 Mar 2024 20:08:00.000,286.246,13.476,1624.018427
15 Mar 2024 09:36:00.000,54.718,25.285,1136.082388
03 Mar 2024 20:10:00.000,295.179,7.827,1999.978556
21 Mar 2024 05:51:00.000,207.215,13.018,1643.194938
19 Mar 2024 14:29:00.000,157.308,7.711,1999.990163
22 Mar 2024 12:31:00.000,290.577,7.844,1999.974397
17 Mar 2024 12:51:00.000,37.665,34.845,912.229042
05 Mar 2024 20:04:00.000,283.703,7.810,1999.984317
10 Mar 2024 16:35:00.000,98.440,23.743,1180.593326
25 Mar 2024 03:59:00.000,199.138,12.731,1658.487353
13 Mar 2024 12:58:00.000,300.318,7.863,1999.998651
30 Mar 2024 02:10:00.000,77.740,11.098,1765.865346
08 Mar 2024 13:19:00.000,50.176,12.949,1658.160817
22 Mar 2024 09:17:00.000,60.881,7.855,1999.991291
20 Mar 2024 07:36:00.000,265.507,34.881,909.171456
14 Mar 2024 14:45:00.000,101.554,7.784,1999.990097
18 Mar 2024 09:24:00.000,332.930,34.385,920.636004
07 Mar 2024 15:02:00.000,34.632,18.877,1363.603781
17 Mar 2024 11:07:00.000,317.754,17.815,1409.673833
09 Mar 2024 09:52:00.000,139.761,11.062,1765.613718
12 Mar 2024 14:44:00.000,322.273,19.679,1330.947301
30 Mar 2024 08:45:00.000,295.854,7.830,1999.977637
10 Mar 2024 14:52:00.000,28.669,24.709,1154.027517
25 Mar 2024 10:41:00.000,297.815,7.847,1999.971464
19 Mar 2024 06:01:00.000,126.439,16.344,1470.415512
13 Mar 2024 11:25:00.000,53.989,7.871,1999.989618
15 Mar 2024 11:18:00.000,52.134,9.324,1892.527319
14 Mar 2024 13:00:00.000,26.841,23.820,1182.293341
07 Mar 2024 16:46:00.000,79.925,7.808,1999.997222
25 Mar 2024 10:49:00.000,121.441,15.729,1502.024680
12 Mar 2024 16:31:00.000,127.448,7.732,1999.972897
22 Mar 2024 12:40:00.000,138.250,7.802,1994.819785
02 Mar 2024 16:58:00.000,45.320,13.837,1606.499490
03 Mar 2024 18:37:00.000,72.232,17.185,1434.330428
19 Mar 2024 09:20:00.000,300.077,18.960,1358.780274
21 Mar 2024 05:55:00.000,121.436,34.116,922.237803
23 Mar 2024 04:08:00.000,134.188,13.469,1618.338371
10 Mar 2024 13:09:00.000,317.240,25.486,1130.717466
07 Mar 2024 13:16:00.000,265.761,21.436,1260.842393
27 Mar 2024 05:33:00.000,280.129,13.066,1646.050035
19 Mar 2024 09:21:00.000,316.975,25.621,1126.205840
08 Mar 2024 14:54:00.000,306.218,12.522,1683.189977
30 Mar 2024 02:10:00.000,74.422,7.791,1999.981670
06 Mar 2024 16:41:00.000,313.028,12.750,1669.570824
25 Mar 2024 12:23:00.000,265.862,7.802,1999.988837
08 Mar 2024 14:58:00.000,20.955,23.074,1206.493457
06 Mar 2024 11:39:00.000,171.805,16.512,1462.085565
10 Mar 2024 14:50:00.000,340.836,23.741,1184.796636
12 Mar 2024 11:19:00.000,261.665,7.799,1999.977271
30 Mar 2024 10:33:00.000,192.135,8.582,1933.940271
07 Mar 2024 15:03:00.000,46.885,13.359,1634.228091
14 Mar 2024 14:38:00.000,313.089,21.338,1266.828719
12 Mar 2024 11:28:00.000,55.449,7.869,1999.985107
21 Mar 2024 10:59:00.000,58.224,24.388,1163.144588
31 Mar 2024 02:04:00.000,89.537,34.219,919.814454
07 Mar 2024 13:14:00.000,257.114,7.794,1999.982437
05 Mar 2024 20:09:00.000,195.750,29.727,1012.937306
02 Mar 2024 20:20:00.000,115.077,25.484,1125.018367
12 Mar 2024 18:08:00.000,203.274,10.194,1819.938763
18 Mar 2024 12:48:00.000,42.713,43.419,782.895604
15 Mar 2024 16:16:00.000,255.016,17.030,1440.631492
06 Mar 2024 11:43:00.000,99.691,14.308,1577.820081
20 Mar 2024 07:40:00.000,50.577,24.306,1165.470306
03 Mar 2024 18:38:00.000,80.371,11.087,1767.442952
17 Mar 2024 11:05:00.000,298.073,7.855,1999.977742
23 Mar 2024 12:30:00.000,268.697,19.652,1328.844036
11 Mar 2024 18:12:00.000,195.458,15.277,1521.028611
06 Mar 2024 13:26:00.000,59.282,7.858,1999.984000
24 Mar 2024 07:30:00.000,52.026,9.354,1889.318607
09 Mar 2024 09:54:00.000,112.309,9.206,1894.159300
15 Mar 2024 14:33:00.000,301.164,7.863,1999.978404
03 Mar 2024 15:13:00.000,30.947,32.422,959.098799
04 Mar 2024 18:35:00.000,92.673,7.774,1999.971713
07 Mar 2024 13:17:00.000,276.578,33.375,939.004797
27 Mar 2024 07:21:00.000,54.472,12.868,1661.444768
