aer_data/rounded_times/rounded_WS_AER.csv

Time (UTCG),Azimuth (deg),Elevation (deg),Range (km)
01 Oct 2023 10:44:00.000,27.623,21.265,1271.210924
04 Aug 2023 10:49:00.000,320.883,17.168,1440.982217
04 Oct 2023 10:33:00.000,315.016,13.103,1650.169893
15 Sep 2023 14:41:00.000,304.971,48.945,723.709240
16 Jun 2023 08:53:00.000,68.016,7.881,1999.999775
15 Jul 2023 14:54:00.000,172.141,11.319,1751.139935
16 Jan 2024 13:39:00.000,327.360,18.699,1370.837805
28 Apr 2023 04:57:00.000,339.600,21.257,1271.144427
29 Feb 2024 20:28:00.000,121.246,42.398,790.821478
06 May 2023 22:01:00.000,66.458,7.868,1999.990297
21 Sep 2023 14:29:00.000,23.189,20.489,1301.075035
21 Jan 2024 10:05:00.000,359.263,22.917,1211.294158
24 Oct 2023 04:46:00.000,179.555,17.490,1414.214087
30 Jan 2024 08:03:00.000,71.094,15.922,1494.933315
18 Dec 2023 04:31:00.000,157.441,34.659,910.126879
07 May 2023 01:20:00.000,23.322,20.468,1300.764149
22 Aug 2023 01:46:00.000,2.153,34.583,915.984191
05 Apr 2023 17:23:00.000,301.425,7.943,1999.990930
28 Nov 2023 06:59:00.000,259.428,21.621,1252.028626
07 Sep 2023 20:08:00.000,54.374,7.856,1999.975241
09 Dec 2023 23:50:00.000,95.472,7.744,1999.982802
14 Oct 2023 06:53:00.000,92.241,13.084,1645.895859
16 May 2023 21:33:00.000,307.312,7.910,1999.984279
05 Oct 2023 07:12:00.000,26.656,22.470,1226.834897
03 Apr 2023 12:32:00.000,63.400,9.218,1904.773824
12 Oct 2023 06:54:00.000,344.067,25.036,1143.458592
02 Jul 2023 22:02:00.000,241.945,7.779,1999.999699
10 Apr 2023 10:31:00.000,273.503,20.953,1282.049844
31 Dec 2023 21:07:00.000,334.318,30.333,1002.125459
04 Jun 2023 16:02:00.000,118.666,7.825,1999.983034
29 Dec 2023 21:10:00.000,316.491,12.704,1669.293945
11 Oct 2023 08:37:00.000,315.313,35.102,906.982360
22 Nov 2023 09:00:00.000,64.059,25.350,1133.743599
22 Jul 2023 19:46:00.000,143.644,39.391,835.948002
12 Apr 2023 12:09:00.000,314.753,12.371,1697.171973
05 Aug 2023 12:26:00.000,313.070,13.264,1642.576504
01 Nov 2023 19:55:00.000,309.044,17.898,1404.016814
30 Oct 2023 20:06:00.000,51.312,7.835,1999.989505
02 Oct 2023 12:24:00.000,102.017,24.339,1163.819149
14 Aug 2023 02:05:00.000,114.277,10.219,1821.833889
26 Sep 2023 07:31:00.000,166.873,7.713,1999.992269
04 Oct 2023 13:59:00.000,201.732,7.741,1999.999902
14 Nov 2023 12:41:00.000,47.053,41.419,808.876317
19 Oct 2023 03:12:00.000,307.458,7.825,1999.984991
12 Nov 2023 21:11:00.000,208.575,8.298,1953.998963
24 Apr 2023 10:07:00.000,275.547,33.887,930.693184
30 May 2023 19:32:00.000,170.451,10.272,1819.324525
12 Jan 2024 15:33:00.000,8.156,30.859,992.200831
02 Dec 2023 05:15:00.000,57.168,9.145,1902.721431
22 Nov 2023 14:01:00.000,1.263,41.958,801.975063
08 Jul 2023 21:56:00.000,17.061,21.448,1263.876565
01 Dec 2023 08:31:00.000,306.311,7.849,1999.990782
09 Mar 2024 14:54:00.000,316.486,12.743,1668.222906
07 Dec 2023 03:13:00.000,255.992,13.482,1618.913613
04 Mar 2024 15:11:00.000,353.026,24.189,1168.283892
14 Jan 2024 17:07:00.000,253.523,27.506,1070.271835
14 Nov 2023 14:23:00.000,29.307,19.152,1353.018680
12 May 2023 01:13:00.000,90.576,12.729,1667.953645
26 Dec 2023 02:24:00.000,260.110,7.730,1999.985787
25 May 2023 21:16:00.000,281.962,7.879,1999.989499
03 Feb 2024 06:06:00.000,344.236,24.931,1144.923367
23 Oct 2023 22:01:00.000,43.156,40.287,822.310004
21 Apr 2023 05:08:00.000,242.268,22.185,1233.283467
20 Aug 2023 03:34:00.000,42.707,12.855,1662.681263
24 Apr 2023 08:30:00.000,76.573,17.863,1407.760867
16 Sep 2023 21:22:00.000,244.822,10.095,1831.402078
18 Aug 2023 00:12:00.000,157.748,7.693,1999.989976
25 Jan 2024 06:27:00.000,260.694,7.753,1999.978713
10 Jun 2023 05:40:00.000,119.212,8.975,1910.782590
26 Jun 2023 03:21:00.000,296.615,7.845,1999.984296
20 Aug 2023 06:54:00.000,60.102,61.725,629.449942
05 Feb 2024 04:21:00.000,5.190,22.977,1206.680012
12 Jan 2024 12:09:00.000,292.305,30.295,1004.232658
17 Apr 2023 08:44:00.000,50.777,7.918,1999.990971
16 Dec 2023 02:49:00.000,309.123,7.811,1999.989816
09 Jun 2023 14:05:00.000,275.731,61.128,634.756522
16 Dec 2023 02:50:00.000,316.785,12.574,1676.443603
07 Jun 2023 07:29:00.000,88.613,7.920,1994.399042
21 Jun 2023 01:50:00.000,201.625,7.710,1999.990562
30 Apr 2023 03:16:00.000,49.490,8.778,1932.555266
16 Nov 2023 17:36:00.000,293.319,22.132,1237.117223
15 Jun 2023 07:12:00.000,39.883,15.379,1527.301496
04 Mar 2024 20:15:00.000,213.397,18.448,1370.744378
14 Nov 2023 12:35:00.000,245.646,7.782,1999.982607
02 May 2023 03:10:00.000,20.398,20.683,1292.462400
31 Mar 2023 19:19:00.000,89.137,37.870,862.611195
24 Mar 2024 07:31:00.000,23.739,20.459,1297.939280
30 Jan 2024 11:21:00.000,217.723,11.802,1717.485565
29 Nov 2023 05:19:00.000,120.692,35.406,898.414592
24 Apr 2023 01:42:00.000,149.304,7.735,2000.000002
29 Feb 2024 18:47:00.000,54.831,20.790,1282.546384
02 Dec 2023 10:12:00.000,320.143,34.394,920.157311
13 Aug 2023 10:28:00.000,290.212,22.092,1239.573723
13 Aug 2023 05:30:00.000,40.084,18.799,1366.655970
02 Dec 2023 05:11:00.000,10.772,64.819,613.456818
21 Mar 2024 09:21:00.000,29.785,21.941,1243.514479
04 Jun 2023 16:01:00.000,117.936,15.841,1501.022200
12 May 2023 20:08:00.000,58.259,9.311,1895.105181
15 Feb 2024 21:07:00.000,32.983,35.320,899.803952
08 Aug 2023 10:41:00.000,343.731,25.446,1133.751046
17 Jul 2023 18:10:00.000,297.474,7.896,1999.994434
02 Nov 2023 00:57:00.000,270.108,12.373,1685.456663
25 May 2023 21:24:00.000,157.653,8.853,1917.568206
29 May 2023 17:55:00.000,101.089,7.845,1999.971612
20 Jul 2023 16:26:00.000,347.773,26.072,1116.563849
25 Aug 2023 03:23:00.000,65.205,13.934,1599.356574
13 Oct 2023 01:48:00.000,176.292,49.670,712.749976
09 Feb 2024 00:45:00.000,290.719,19.438,1333.973425
08 May 2023 03:01:00.000,86.880,20.933,1279.859549
17 Jan 2024 11:59:00.000,38.608,16.028,1492.806744
07 Nov 2023 14:43:00.000,71.031,7.842,1999.988361
16 Sep 2023 13:00:00.000,93.573,30.548,999.484271
07 Sep 2023 21:41:00.000,309.228,7.865,1999.990056
01 May 2023 03:14:00.000,44.373,12.202,1703.611512
03 Dec 2023 08:28:00.000,327.652,18.379,1384.118572
04 Dec 2023 08:31:00.000,72.594,16.528,1466.479760
30 Jul 2023 12:45:00.000,45.960,11.824,1729.473238
11 Apr 2023 07:12:00.000,119.592,7.802,1999.994920
06 Jan 2024 15:48:00.000,327.006,22.887,1211.543814
30 Mar 2024 07:13:00.000,49.041,50.631,705.202907
21 Oct 2023 20:24:00.000,136.810,8.513,1939.112793
09 Nov 2023 21:19:00.000,195.971,31.587,971.523188
12 May 2023 18:26:00.000,88.611,8.385,1960.161651
01 Feb 2024 07:53:00.000,328.689,32.276,960.626135
03 Nov 2023 23:16:00.000,147.220,38.403,847.657564
08 Jan 2024 15:47:00.000,56.321,7.837,2000.000004
28 Apr 2023 01:40:00.000,68.409,7.855,1999.979546
04 Sep 2023 18:31:00.000,73.736,41.016,813.537021
17 Aug 2023 10:24:00.000,189.036,7.733,1999.997975
20 Feb 2024 22:33:00.000,8.897,28.691,1039.945750
19 Apr 2023 13:39:00.000,232.161,11.800,1724.723412
22 Sep 2023 17:52:00.000,150.567,11.539,1735.180499
13 Dec 2023 23:39:00.000,65.035,15.389,1519.640079
15 Feb 2024 00:28:00.000,316.187,12.335,1689.210723
22 Jun 2023 03:34:00.000,27.730,30.141,1008.967874
04 Jun 2023 17:37:00.000,228.613,16.633,1461.733214
05 Aug 2023 07:21:00.000,230.267,7.749,1999.983642
21 Jun 2023 03:39:00.000,55.183,8.721,1935.470865
01 Nov 2023 21:39:00.000,31.224,23.024,1205.846577
30 Nov 2023 05:17:00.000,85.944,36.057,888.028812
01 Dec 2023 05:09:00.000,236.413,13.546,1614.566408
28 Feb 2024 18:48:00.000,8.549,25.402,1129.926351
19 Jan 2024 11:55:00.000,58.992,12.365,1691.297342
06 Oct 2023 07:12:00.000,49.523,8.749,1933.983719
07 Apr 2023 10:34:00.000,229.177,7.798,1999.976258
12 Jan 2024 17:18:00.000,126.748,9.065,1899.669460
01 Mar 2024 18:38:00.000,308.758,7.815,1999.982916
30 Jul 2023 16:04:00.000,298.951,63.184,623.689845
16 Apr 2023 08:45:00.000,47.773,10.358,1824.520511
01 Oct 2023 12:29:00.000,99.308,7.821,1999.974783
20 Sep 2023 16:08:00.000,309.327,7.897,1999.984433
08 Aug 2023 07:23:00.000,48.917,13.333,1636.999063
27 May 2023 14:27:00.000,265.207,7.868,1999.979800
21 Apr 2023 05:06:00.000,241.051,7.775,1999.982809
26 Apr 2023 10:05:00.000,196.661,22.076,1237.051878
14 May 2023 19:59:00.000,321.153,39.878,832.054315
18 Jul 2023 16:26:00.000,271.347,7.861,1999.982845
21 Mar 2024 12:43:00.000,177.478,20.499,1290.011630
28 Mar 2024 07:21:00.000,73.398,16.764,1452.915534
07 Jul 2023 20:20:00.000,56.735,9.138,1905.826788
02 Sep 2023 21:54:00.000,316.104,17.370,1428.751589
31 Dec 2023 16:04:00.000,210.720,60.932,632.449613
23 Jul 2023 11:17:00.000,141.168,11.406,1746.658202
29 Nov 2023 08:36:00.000,297.851,7.840,1999.975089
22 Aug 2023 06:53:00.000,133.213,8.612,1934.646881
08 Feb 2024 23:10:00.000,67.273,14.999,1538.354159
10 May 2023 23:32:00.000,37.964,16.129,1489.613417
20 Jun 2023 10:18:00.000,276.427,12.878,1661.107787
31 Jan 2024 01:12:00.000,148.020,9.401,1871.435215
07 Aug 2023 14:10:00.000,167.095,7.755,1999.999875
02 Nov 2023 01:02:00.000,180.254,16.525,1457.864980
30 Jan 2024 04:36:00.000,321.289,39.720,829.971784
22 May 2023 18:04:00.000,17.029,21.547,1263.402668
07 Sep 2023 18:27:00.000,52.806,7.868,1999.999893
10 May 2023 01:17:00.000,76.689,7.840,1999.984443
20 Oct 2023 04:58:00.000,110.239,15.389,1518.156686
14 Sep 2023 16:29:00.000,49.770,8.628,1944.122521
29 Feb 2024 13:45:00.000,84.942,17.086,1437.382070
16 Oct 2023 08:27:00.000,195.634,14.757,1548.893260
10 Dec 2023 08:08:00.000,286.691,7.809,1999.997498
22 Jul 2023 18:06:00.000,72.888,16.558,1467.654342
22 Dec 2023 18:09:00.000,157.594,10.167,1820.447157
15 Nov 2023 10:53:00.000,204.761,7.726,1999.999465
04 Jan 2024 20:58:00.000,190.060,48.284,725.375828
09 Sep 2023 16:41:00.000,60.453,9.451,1883.294523
30 Jun 2023 23:51:00.000,294.557,29.876,1014.290601
08 May 2023 21:55:00.000,54.701,15.457,1522.646337
03 Sep 2023 21:56:00.000,37.908,16.059,1490.675760
27 Apr 2023 03:13:00.000,258.959,7.803,1999.990751
06 Mar 2024 18:32:00.000,141.452,13.730,1601.119612
11 Apr 2023 12:11:00.000,323.760,17.163,1443.652697
18 Mar 2024 06:05:00.000,177.963,27.388,1070.192909
06 Apr 2023 15:42:00.000,326.189,19.310,1351.141562
21 Jun 2023 06:55:00.000,328.161,18.100,1397.696441
18 Oct 2023 05:03:00.000,88.244,12.229,1695.703543
22 Dec 2023 18:10:00.000,143.758,11.751,1718.765470
03 Sep 2023 23:36:00.000,38.039,31.005,988.216417
12 Apr 2023 12:13:00.000,27.130,21.164,1278.033086
14 Dec 2023 21:53:00.000,146.994,17.713,1403.431795
19 Oct 2023 06:38:00.000,196.247,29.027,1030.258252
03 Dec 2023 10:13:00.000,113.605,42.171,797.062471
15 Dec 2023 23:31:00.000,1.141,54.207,675.709626
25 Feb 2024 22:15:00.000,295.923,13.630,1612.578340
23 Apr 2023 10:07:00.000,298.046,13.801,1611.103506
04 Sep 2023 23:32:00.000,334.933,30.104,1009.007409
15 Feb 2024 02:10:00.000,312.647,21.518,1255.299235
22 Jan 2024 08:24:00.000,39.506,16.854,1452.467030
07 Jul 2023 21:57:00.000,12.201,23.563,1190.954604
13 Jan 2024 08:45:00.000,159.057,7.703,1999.990620
25 Nov 2023 13:58:00.000,128.710,8.973,1909.165059
16 Sep 2023 21:26:00.000,192.904,7.700,1999.997296
22 May 2023 21:22:00.000,300.464,13.762,1614.138781
25 Nov 2023 07:05:00.000,218.858,7.711,1999.979690
29 Jul 2023 16:09:00.000,93.395,39.154,841.402583
14 Feb 2024 02:15:00.000,2.184,40.977,811.494461
13 Mar 2024 13:08:00.000,64.090,13.648,1614.601524
03 Jan 2024 15:57:00.000,359.927,39.902,828.950195
04 Jun 2023 10:58:00.000,54.066,8.361,1966.738660
24 Feb 2024 15:36:00.000,169.639,24.935,1139.376054
31 Mar 2024 03:43:00.000,292.543,7.769,1999.993892
08 Nov 2023 14:32:00.000,228.386,7.757,1999.971630
29 Sep 2023 09:01:00.000,263.819,7.803,1999.993212
07 Mar 2024 15:07:00.000,63.643,7.807,1999.998947
11 Apr 2023 12:15:00.000,39.411,16.113,1494.061516
12 Oct 2023 06:58:00.000,67.908,14.916,1547.408924
11 Dec 2023 01:29:00.000,56.891,9.043,1907.904212
31 Jan 2024 01:15:00.000,109.040,7.714,1999.989396
04 Dec 2023 11:49:00.000,228.151,10.783,1784.224575
07 Aug 2023 12:23:00.000,307.127,22.021,1243.920055
04 Nov 2023 23:14:00.000,154.081,19.610,1324.174087
05 Aug 2023 07:23:00.000,225.495,21.932,1240.848769
04 Jul 2023 22:02:00.000,316.971,42.165,798.895449
30 Jul 2023 09:21:00.000,120.284,32.393,958.812069
06 Oct 2023 10:34:00.000,95.705,23.076,1204.346211
14 Sep 2023 14:41:00.000,247.326,13.702,1611.724620
18 Jun 2023 12:08:00.000,196.083,7.760,1999.997156
17 Sep 2023 11:18:00.000,110.281,8.438,1952.281523
22 Jan 2024 10:06:00.000,58.626,7.849,1999.985132
07 Jun 2023 14:06:00.000,305.034,7.922,1999.992448
18 Jun 2023 10:21:00.000,295.870,7.877,1999.991639
30 May 2023 14:21:00.000,291.016,7.908,1999.992685
09 Sep 2023 18:16:00.000,300.613,18.643,1373.490871
08 Feb 2024 23:08:00.000,80.262,38.621,844.281698
19 Apr 2023 10:18:00.000,8.233,31.184,988.437660
19 Oct 2023 22:07:00.000,192.216,12.396,1678.795596
28 Oct 2023 18:30:00.000,79.284,7.803,1999.986523
12 Feb 2024 02:18:00.000,327.129,18.567,1372.215143
27 Mar 2024 03:56:00.000,269.326,21.132,1267.415041
03 Jul 2023 20:24:00.000,140.652,25.766,1118.930324
11 Aug 2023 07:10:00.000,296.487,12.504,1683.113353
11 Nov 2023 12:45:00.000,205.036,13.025,1645.832167
12 Dec 2023 06:23:00.000,301.266,22.252,1231.069817
05 Sep 2023 21:46:00.000,307.881,7.862,1999.992020
05 Jul 2023 20:21:00.000,84.785,36.760,878.062552
07 Apr 2023 12:19:00.000,307.125,27.219,1085.220517
25 Mar 2024 05:48:00.000,40.226,14.769,1554.180120
04 Dec 2023 10:11:00.000,135.023,24.516,1155.351364
16 Nov 2023 10:52:00.000,206.097,20.842,1279.864839
19 Jul 2023 16:31:00.000,39.947,15.282,1533.602075
30 Nov 2023 10:17:00.000,323.531,19.855,1323.552627
21 Dec 2023 02:41:00.000,111.164,74.259,578.655811
28 Jan 2024 09:42:00.000,304.579,7.839,1999.992057
12 Jan 2024 12:15:00.000,52.667,7.858,1999.990237
13 Feb 2024 22:56:00.000,47.984,9.979,1840.777308
21 Aug 2023 00:04:00.000,196.123,19.817,1317.066735
04 Aug 2023 12:28:00.000,309.120,7.905,1999.984283
10 Sep 2023 19:58:00.000,31.494,23.354,1196.926151
18 Jan 2024 13:40:00.000,95.683,7.787,1999.972343
11 Apr 2023 17:15:00.000,239.965,7.842,1999.993136
21 Nov 2023 15:42:00.000,286.982,21.772,1250.015095
19 Aug 2023 06:59:00.000,96.015,13.780,1606.880748
27 Mar 2024 05:37:00.000,304.171,12.289,1692.393302
11 Jun 2023 09:02:00.000,50.641,7.910,1999.997758
17 Dec 2023 02:55:00.000,80.787,7.776,1999.999370
19 Jun 2023 10:19:00.000,290.140,7.867,1999.978166
30 Jun 2023 23:48:00.000,266.521,7.808,1999.982718
22 Sep 2023 17:52:00.000,146.988,7.735,1999.971592
07 Oct 2023 03:43:00.000,169.070,24.804,1144.065237
26 Nov 2023 12:12:00.000,66.968,27.956,1061.915232
13 Dec 2023 03:00:00.000,339.236,21.188,1269.652518
25 Jan 2024 09:51:00.000,316.363,12.732,1669.800435
20 Dec 2023 21:40:00.000,49.848,13.861,1601.879610
26 Dec 2023 21:24:00.000,51.714,11.225,1759.145540
02 Dec 2023 10:15:00.000,88.511,37.738,861.368289
04 Apr 2023 17:31:00.000,82.839,35.884,896.202164
13 Dec 2023 06:25:00.000,144.991,39.062,838.274583
02 Dec 2023 08:32:00.000,345.730,22.605,1221.849735
21 Jan 2024 06:45:00.000,94.249,29.576,1019.013156
09 Jul 2023 23:37:00.000,73.910,16.875,1450.099891
03 Jun 2023 11:00:00.000,57.523,7.919,1999.984381
03 Sep 2023 21:53:00.000,339.433,21.251,1269.880775
02 Apr 2023 12:28:00.000,198.602,32.500,957.908752
19 Jul 2023 14:42:00.000,236.401,7.806,1999.982350
15 Dec 2023 21:54:00.000,79.130,7.768,1999.984540
18 Sep 2023 17:59:00.000,78.427,33.967,928.006022
12 Jan 2024 12:13:00.000,40.794,19.886,1321.835752
13 Oct 2023 08:33:00.000,251.261,53.283,683.938740
14 Dec 2023 04:41:00.000,68.445,28.785,1038.221896
31 Dec 2023 21:12:00.000,90.721,12.712,1664.119845
09 Mar 2024 13:18:00.000,34.229,16.696,1459.124702
06 Mar 2024 11:42:00.000,214.738,34.888,907.235646
01 Aug 2023 10:53:00.000,285.676,12.855,1663.696784
24 Nov 2023 14:01:00.000,117.347,7.770,1999.995895
12 Nov 2023 16:09:00.000,22.292,20.497,1299.043921
11 Jun 2023 08:58:00.000,342.290,28.399,1053.159778
25 Nov 2023 08:47:00.000,271.852,13.237,1637.373559
31 Mar 2024 02:06:00.000,1.678,54.234,674.776985
19 Apr 2023 11:56:00.000,293.633,22.161,1239.495584
06 Nov 2023 16:21:00.000,301.119,50.223,710.635098
06 Dec 2023 06:37:00.000,307.637,7.834,1999.977906
02 Mar 2024 18:35:00.000,307.184,7.814,1999.997833
20 Feb 2024 00:18:00.000,94.861,39.263,834.136969
21 Jun 2023 05:13:00.000,300.561,12.416,1688.640690
23 Nov 2023 07:12:00.000,182.720,11.922,1708.777930
19 Oct 2023 23:54:00.000,52.639,14.896,1547.096643
09 Dec 2023 03:12:00.000,2.769,32.854,948.310099
07 Jul 2023 02:58:00.000,286.539,7.829,1999.981408
03 Apr 2023 14:07:00.000,311.171,26.337,1110.248918
22 Dec 2023 00:53:00.000,308.871,7.807,1999.982908
15 May 2023 21:38:00.000,342.367,21.289,1271.514959
13 Aug 2023 05:23:00.000,268.389,7.792,1999.993306
08 Aug 2023 12:20:00.000,297.927,13.825,1609.491589
23 May 2023 19:44:00.000,38.000,31.236,986.810358
26 Mar 2024 02:21:00.000,135.656,22.280,1223.852240
23 Jan 2024 10:00:00.000,6.820,23.568,1189.612875
13 Sep 2023 13:04:00.000,172.410,7.742,1999.985558
07 Feb 2024 23:09:00.000,162.697,41.470,802.205879
09 Feb 2024 23:07:00.000,59.734,15.857,1495.320490
12 Sep 2023 18:07:00.000,301.994,7.879,1999.994120
26 Aug 2023 05:00:00.000,140.279,40.283,821.257493
02 Mar 2024 13:33:00.000,231.760,22.007,1236.436926
06 Jan 2024 19:09:00.000,309.087,21.895,1244.155218
21 May 2023 14:45:00.000,114.476,19.193,1350.175556
13 Jun 2023 12:14:00.000,298.610,22.283,1234.958241
26 May 2023 16:16:00.000,32.229,17.485,1428.966374
18 Feb 2024 19:21:00.000,60.252,7.783,1999.981207
24 Nov 2023 08:55:00.000,44.413,22.517,1224.874621
23 Mar 2024 04:13:00.000,82.372,19.145,1346.477608
27 May 2023 14:35:00.000,48.346,12.842,1669.191620
25 Jun 2023 00:03:00.000,175.943,17.171,1430.738709
02 Jan 2024 14:20:00.000,99.422,20.031,1312.172303
27 Apr 2023 08:25:00.000,119.039,15.817,1500.297823
05 Sep 2023 23:28:00.000,313.798,21.533,1258.392320
04 May 2023 03:04:00.000,345.036,21.893,1247.952517
05 Apr 2023 17:32:00.000,115.085,9.281,1894.028185
11 Dec 2023 08:13:00.000,161.410,7.700,1999.985875
11 Jul 2023 18:22:00.000,245.972,13.709,1611.738430
15 Nov 2023 12:42:00.000,54.923,7.874,1999.984224
26 Sep 2023 09:18:00.000,63.550,7.874,1999.976891
28 Apr 2023 01:33:00.000,211.985,21.294,1263.638777
05 Oct 2023 12:19:00.000,143.662,7.754,1999.999839
09 Oct 2023 10:22:00.000,270.040,32.816,950.005401
18 May 2023 21:32:00.000,326.928,18.889,1365.959515
26 Apr 2023 08:26:00.000,100.731,23.975,1175.886844
09 Dec 2023 01:33:00.000,73.976,23.194,1197.451033
05 Apr 2023 19:12:00.000,171.397,7.782,1999.999553
30 Aug 2023 03:09:00.000,147.110,73.118,582.639629
08 Oct 2023 03:37:00.000,216.952,7.695,1999.984222
29 Dec 2023 22:59:00.000,120.351,7.696,1999.975713
28 Nov 2023 08:44:00.000,13.806,22.695,1219.206698
02 Apr 2023 15:48:00.000,301.131,7.942,1999.993112
09 Jun 2023 15:49:00.000,189.237,7.773,1999.983229
31 Dec 2023 22:47:00.000,277.034,20.631,1287.513535
17 Jan 2024 08:30:00.000,223.015,7.715,1999.988271
26 Feb 2024 15:30:00.000,215.548,34.931,905.745399
16 Nov 2023 14:16:00.000,359.343,22.915,1212.667226
26 Apr 2023 01:39:00.000,155.849,20.671,1286.384654
08 Mar 2024 18:21:00.000,239.498,21.522,1252.443186
13 Sep 2023 13:07:00.000,132.013,12.917,1654.815644
29 Dec 2023 19:33:00.000,17.468,21.274,1266.968618
29 Nov 2023 06:55:00.000,266.742,13.296,1632.448464
22 Feb 2024 15:43:00.000,146.621,12.289,1685.328979
23 Mar 2024 04:12:00.000,95.462,28.386,1046.248708
09 Feb 2024 02:27:00.000,324.869,16.979,1443.147789
13 Jun 2023 13:59:00.000,194.124,11.378,1748.143805
27 Jul 2023 14:27:00.000,312.193,12.365,1696.271027
29 Nov 2023 12:06:00.000,123.876,15.802,1498.772111
10 Jun 2023 09:04:00.000,51.170,7.911,1999.990441
03 Feb 2024 02:41:00.000,264.912,13.324,1627.509746
14 Apr 2023 12:06:00.000,327.558,18.577,1380.625108
15 Jun 2023 12:08:00.000,287.753,7.879,1999.993549
11 May 2023 01:11:00.000,7.410,32.982,948.740323
16 Jul 2023 18:19:00.000,51.179,8.045,1988.606573
05 Sep 2023 21:53:00.000,58.482,12.140,1704.330753
16 Sep 2023 18:05:00.000,71.674,16.123,1487.181619
14 May 2023 01:03:00.000,304.321,22.216,1235.782196
27 Mar 2024 05:42:00.000,33.845,16.783,1453.710855
08 Jul 2023 20:13:00.000,310.463,45.842,755.326748
05 Mar 2024 16:51:00.000,36.515,28.969,1034.245932
17 Jan 2024 08:39:00.000,67.696,7.836,1999.983536
25 Dec 2023 00:47:00.000,309.837,35.791,891.809743
14 Oct 2023 05:12:00.000,61.561,7.836,1999.986694
12 Aug 2023 05:33:00.000,50.090,14.009,1597.841331
30 May 2023 19:32:00.000,165.809,7.758,1999.986273
21 Aug 2023 01:50:00.000,42.554,21.251,1268.496795
02 Dec 2023 05:10:00.000,279.538,58.344,647.742687
04 Apr 2023 17:34:00.000,104.230,8.585,1945.746020
16 Jun 2023 12:13:00.000,167.445,12.737,1664.855748
04 Apr 2023 12:30:00.000,58.420,9.412,1891.355836
24 Mar 2024 05:45:00.000,279.290,12.923,1652.760954
05 Apr 2023 10:42:00.000,168.153,24.795,1149.692435
02 Oct 2023 14:05:00.000,169.142,11.379,1745.651662
31 Oct 2023 23:23:00.000,74.557,32.080,963.032231
04 Feb 2024 06:06:00.000,38.479,32.270,960.131559
21 Jul 2023 19:44:00.000,301.952,22.325,1232.778332
05 Jan 2024 17:33:00.000,6.701,23.471,1191.822918
20 May 2023 19:52:00.000,55.312,11.715,1735.235255
14 Jan 2024 10:21:00.000,240.406,22.103,1234.584977
12 Oct 2023 03:36:00.000,53.520,7.936,1992.609525
07 Oct 2023 08:44:00.000,309.227,7.864,1999.979726
08 Jun 2023 12:25:00.000,328.267,18.283,1392.716497
24 Oct 2023 23:42:00.000,52.630,7.822,1999.990245
19 Aug 2023 08:32:00.000,285.380,7.832,2000.000038
10 Dec 2023 01:30:00.000,62.036,25.547,1124.811669
08 Apr 2023 09:00:00.000,91.828,7.866,1999.998867
21 Jun 2023 03:33:00.000,271.352,33.997,926.233058
14 May 2023 21:44:00.000,48.017,11.478,1749.681090
05 Jun 2023 10:49:00.000,281.822,20.272,1307.970007
17 Nov 2023 14:11:00.000,312.783,12.309,1697.058158
10 Dec 2023 01:24:00.000,237.442,13.537,1613.761293
16 Oct 2023 05:07:00.000,65.234,13.997,1595.817321
12 May 2023 21:41:00.000,293.926,12.674,1675.766688
07 Oct 2023 10:30:00.000,106.561,41.719,803.799698
16 Aug 2023 02:03:00.000,78.622,7.810,1999.999828
15 Aug 2023 10:30:00.000,157.326,9.079,1901.034270
24 Dec 2023 02:34:00.000,177.261,20.378,1292.774842
17 Sep 2023 11:15:00.000,150.515,9.704,1857.435824
17 Aug 2023 01:52:00.000,216.040,7.705,1999.984001
02 Dec 2023 05:15:00.000,57.549,7.838,1999.990588
10 Aug 2023 12:18:00.000,229.450,36.373,884.343627
10 Nov 2023 14:34:00.000,53.643,15.252,1531.845560
22 Aug 2023 01:42:00.000,276.000,13.143,1642.113344
09 Apr 2023 12:17:00.000,350.954,25.065,1147.620090
17 Dec 2023 02:50:00.000,343.249,25.648,1122.982692
16 Aug 2023 10:24:00.000,214.158,19.146,1347.381153
25 Apr 2023 08:26:00.000,44.271,43.427,783.978388
13 Jun 2023 12:19:00.000,122.466,25.639,1125.458964
20 Oct 2023 01:28:00.000,291.647,7.803,1999.978429
05 Dec 2023 06:41:00.000,313.398,12.278,1696.001767
10 May 2023 20:04:00.000,217.986,13.421,1626.490987
07 Dec 2023 05:01:00.000,51.675,7.838,1999.979039
26 Apr 2023 05:05:00.000,50.415,8.320,1967.099558
23 Sep 2023 17:47:00.000,196.724,22.807,1210.436084
20 Jan 2024 13:29:00.000,307.964,36.131,888.426459
15 Aug 2023 10:25:00.000,247.821,25.149,1138.316555
09 May 2023 20:06:00.000,202.547,12.933,1653.552378
24 Feb 2024 22:22:00.000,80.376,70.572,588.957099
25 Mar 2024 04:09:00.000,60.882,9.297,1889.089606
08 Apr 2023 12:20:00.000,27.831,20.533,1302.124145
29 May 2023 14:29:00.000,27.772,20.586,1299.642305
13 Nov 2023 17:51:00.000,95.887,7.784,1999.982379
17 Jan 2024 10:11:00.000,269.981,7.796,1999.993968
10 Mar 2024 16:36:00.000,181.602,58.734,644.181898
23 Jul 2023 16:24:00.000,59.945,7.897,1999.986838
26 Dec 2023 00:51:00.000,125.591,7.690,1999.969727
06 Feb 2024 04:14:00.000,308.144,7.804,1999.980221
26 Oct 2023 02:54:00.000,295.622,7.806,1999.990205
30 Apr 2023 03:08:00.000,286.432,7.848,1999.988896
30 May 2023 14:28:00.000,43.019,12.790,1672.542611
19 Mar 2024 12:52:00.000,131.241,7.711,1999.999813
13 Apr 2023 10:31:00.000,42.115,13.247,1645.652625
27 Jun 2023 22:18:00.000,131.957,12.862,1655.812914
15 Jun 2023 08:51:00.000,5.679,23.172,1205.136541
17 Oct 2023 03:19:00.000,338.263,21.244,1268.540871
13 Dec 2023 08:03:00.000,226.484,10.394,1807.790241
01 Feb 2024 09:34:00.000,253.001,27.297,1075.682132
18 Aug 2023 00:13:00.000,145.437,9.240,1886.341806
28 Feb 2024 20:28:00.000,316.171,34.880,907.897839
19 May 2023 23:17:00.000,135.088,8.396,1951.564058
20 Jul 2023 19:44:00.000,304.013,7.897,1999.991547
29 Mar 2024 07:17:00.000,68.650,28.853,1036.419180
23 May 2023 16:24:00.000,52.000,7.929,1999.977262
05 Sep 2023 18:32:00.000,58.830,7.858,1999.974356
02 Feb 2024 09:33:00.000,196.544,19.924,1312.879312
27 Nov 2023 12:12:00.000,101.919,8.287,1962.927195
05 Jan 2024 20:55:00.000,195.832,31.797,966.053004
24 Sep 2023 10:59:00.000,359.464,48.191,731.246072
09 Sep 2023 21:45:00.000,100.096,7.774,1999.984217
28 Nov 2023 12:06:00.000,65.558,65.125,613.151398
27 Dec 2023 17:59:00.000,60.543,25.480,1127.599709
29 May 2023 11:08:00.000,109.351,13.212,1641.758319
29 Jul 2023 09:20:00.000,188.142,12.259,1691.353629
04 Jul 2023 04:53:00.000,167.669,7.705,1999.999864
09 Mar 2024 11:34:00.000,312.394,44.916,763.822411
24 Apr 2023 03:22:00.000,208.432,34.118,923.084229
27 Apr 2023 03:14:00.000,262.752,13.422,1627.373401
24 Aug 2023 22:18:00.000,118.910,27.705,1064.724791
13 Jul 2023 16:43:00.000,81.414,19.916,1321.311340
28 Sep 2023 09:09:00.000,1.444,54.453,676.631235
17 Apr 2023 06:56:00.000,247.854,22.139,1235.790351
26 May 2023 17:57:00.000,33.266,24.809,1154.276891
14 Mar 2024 14:41:00.000,290.862,36.097,887.473657
07 Aug 2023 10:42:00.000,328.308,18.046,1401.461918
08 Apr 2023 12:21:00.000,40.466,14.530,1575.427950
28 Jan 2024 11:23:00.000,281.188,7.812,1999.990129
20 Feb 2024 17:25:00.000,210.923,7.675,1999.971053
03 Feb 2024 02:43:00.000,284.772,31.721,969.427842
28 Jun 2023 03:21:00.000,5.559,23.041,1207.372011
29 Jan 2024 06:25:00.000,52.129,7.838,1999.999184
01 Nov 2023 00:58:00.000,286.197,7.794,1999.988403
15 Aug 2023 10:22:00.000,282.319,7.844,1999.984475
04 May 2023 23:43:00.000,47.801,24.020,1175.872314
06 Jun 2023 15:49:00.000,289.667,7.905,1999.982508
05 Aug 2023 09:04:00.000,281.897,12.977,1655.130121
07 Dec 2023 08:22:00.000,108.030,25.042,1139.968404
13 Aug 2023 03:42:00.000,220.942,7.714,1999.982718
12 Mar 2024 16:32:00.000,165.553,13.909,1591.270851
25 Jul 2023 12:49:00.000,256.899,13.574,1620.667174
17 Aug 2023 10:20:00.000,248.066,10.461,1808.426305
07 May 2023 04:45:00.000,135.318,8.334,1955.671163
13 Jul 2023 01:07:00.000,249.592,15.626,1507.703144
21 Nov 2023 10:45:00.000,47.607,11.679,1735.697336
21 Oct 2023 01:25:00.000,297.902,7.811,1999.995519
21 Jun 2023 06:53:00.000,309.127,7.872,1999.999271
01 Jul 2023 06:35:00.000,244.089,10.041,1834.910146
11 Jan 2024 19:01:00.000,171.688,7.666,1999.998151
02 Jun 2023 16:05:00.000,93.206,13.372,1634.335980
06 Jan 2024 17:29:00.000,345.476,22.882,1211.484952
12 Sep 2023 16:27:00.000,284.726,20.113,1313.181419
09 Sep 2023 16:36:00.000,240.784,62.887,623.895352
28 Dec 2023 00:41:00.000,195.959,32.439,952.120548
27 Aug 2023 22:12:00.000,57.427,25.607,1125.141759
19 Feb 2024 22:36:00.000,8.398,25.435,1128.012993
20 May 2023 23:08:00.000,273.038,20.219,1308.610504
16 Mar 2024 09:33:00.000,341.473,28.598,1044.877474
15 Oct 2023 01:43:00.000,275.233,59.584,639.923659
15 May 2023 16:35:00.000,148.797,9.591,1868.038173
24 Oct 2023 23:42:00.000,45.238,11.902,1718.066513
20 Dec 2023 04:28:00.000,162.339,7.668,1999.973241
30 Oct 2023 16:42:00.000,116.025,8.039,1978.482841
29 Jul 2023 12:42:00.000,309.570,17.882,1408.895535
15 Dec 2023 01:18:00.000,49.274,8.842,1922.929945
21 Nov 2023 12:24:00.000,22.769,20.485,1300.119146
15 Feb 2024 03:56:00.000,166.223,13.406,1618.253234
03 Jul 2023 23:47:00.000,14.193,22.576,1223.345117
15 Sep 2023 19:41:00.000,300.949,7.871,1999.990964
15 Aug 2023 10:26:00.000,223.050,28.925,1035.561817
07 Jan 2024 20:47:00.000,255.839,11.141,1760.392826
03 Apr 2023 14:12:00.000,47.793,10.410,1823.626777
03 May 2023 01:30:00.000,51.066,7.877,1999.989906
08 Apr 2023 10:37:00.000,47.128,74.119,583.243395
06 Dec 2023 03:21:00.000,56.549,25.412,1129.639797
29 Oct 2023 02:47:00.000,273.879,7.771,1999.984620
13 Jul 2023 23:22:00.000,295.831,13.722,1613.315376
10 Mar 2024 16:35:00.000,255.445,55.031,669.340853
19 May 2023 00:57:00.000,193.646,10.516,1800.515595
25 Jun 2023 00:05:00.000,136.770,23.094,1200.351673
29 Apr 2023 04:55:00.000,343.636,21.411,1265.501161
06 Dec 2023 06:39:00.000,327.817,17.376,1427.739624
25 Jul 2023 11:14:00.000,99.528,19.232,1348.159614
09 May 2023 23:28:00.000,295.819,7.880,1999.986056
07 Feb 2024 04:12:00.000,316.649,12.552,1677.331389
01 Feb 2024 07:56:00.000,76.852,33.116,942.665231
16 Apr 2023 12:09:00.000,94.784,7.874,1999.977587
03 Dec 2023 08:26:00.000,309.320,7.850,1999.999616
19 Aug 2023 03:32:00.000,317.639,24.690,1152.993647
07 May 2023 23:34:00.000,315.578,25.261,1138.226443
14 Jul 2023 21:40:00.000,322.073,20.290,1307.570605
22 Nov 2023 10:41:00.000,26.778,21.927,1246.505098
19 Nov 2023 15:51:00.000,63.124,63.300,621.631522
07 Jun 2023 15:49:00.000,264.869,18.939,1361.728048
10 Apr 2023 10:37:00.000,49.014,13.486,1631.874190
13 Jul 2023 21:49:00.000,82.204,7.826,1999.977647
14 Feb 2024 02:12:00.000,311.795,13.295,1632.637402
17 Jan 2024 16:58:00.000,247.548,7.754,1999.993409
19 Jan 2024 10:11:00.000,10.663,24.511,1159.834558
25 Nov 2023 13:59:00.000,128.433,7.754,1999.981106
26 Nov 2023 07:11:00.000,64.157,7.846,1999.999856
27 Jul 2023 09:28:00.000,130.367,9.416,1879.657265
14 Mar 2024 08:01:00.000,82.025,19.481,1334.396462
06 Jan 2024 14:04:00.000,252.333,13.589,1615.764024
01 Nov 2023 16:36:00.000,115.110,20.026,1311.982051
25 Sep 2023 16:05:00.000,129.762,7.766,1999.990328
27 Jul 2023 11:04:00.000,225.319,13.572,1617.488279
07 Feb 2024 23:11:00.000,94.139,29.707,1013.186827
08 Dec 2023 04:58:00.000,47.044,11.554,1740.546485
24 Jul 2023 14:35:00.000,321.305,24.131,1174.628119
15 Feb 2024 19:24:00.000,169.917,25.026,1135.221324
11 Mar 2024 13:09:00.000,326.185,17.093,1440.819362
22 Dec 2023 18:11:00.000,128.939,11.864,1712.756816
17 Jan 2024 13:40:00.000,61.138,24.772,1150.369752
21 Dec 2023 19:49:00.000,221.546,7.694,1999.999921
20 Dec 2023 21:36:00.000,310.563,45.660,754.153043
25 May 2023 17:59:00.000,29.645,22.155,1241.404500
02 Oct 2023 14:06:00.000,162.856,7.739,1999.998902
01 Jan 2024 14:24:00.000,98.523,12.357,1687.381826
09 Oct 2023 08:41:00.000,322.070,20.151,1311.757752
07 Jan 2024 12:28:00.000,74.297,7.826,1999.982078
12 Feb 2024 04:01:00.000,296.485,62.956,620.946089
17 Jul 2023 21:37:00.000,125.393,42.376,794.661170
21 May 2023 18:08:00.000,42.093,13.252,1644.812083
16 Jun 2023 07:09:00.000,29.549,18.926,1363.133320
11 May 2023 02:48:00.000,295.094,7.862,1999.991732
15 Feb 2024 03:54:00.000,196.575,24.931,1138.185171
05 Feb 2024 05:59:00.000,311.789,13.330,1632.426008
08 Feb 2024 00:48:00.000,292.804,29.959,1008.362513
03 Oct 2023 07:19:00.000,49.683,13.894,1604.520912
26 Feb 2024 18:56:00.000,40.514,16.053,1487.488133
07 Sep 2023 18:22:00.000,319.809,40.745,818.159074
05 Nov 2023 19:48:00.000,29.886,22.019,1241.157371
05 Aug 2023 07:24:00.000,218.826,35.318,901.171740
22 Nov 2023 10:40:00.000,6.251,28.083,1059.993264
19 Oct 2023 22:11:00.000,117.102,23.092,1199.261978
04 Mar 2024 15:09:00.000,313.558,17.433,1424.100102
07 Jan 2024 19:13:00.000,120.811,7.711,1999.975214
01 Apr 2023 14:07:00.000,258.378,7.869,1999.984115
16 Oct 2023 23:57:00.000,194.235,31.507,972.710505
21 Jun 2023 08:41:00.000,109.057,25.041,1142.073650
01 Apr 2023 15:57:00.000,52.643,7.950,1999.976440
03 Oct 2023 08:58:00.000,17.480,21.346,1267.783265
06 Jul 2023 20:18:00.000,73.397,74.595,580.447929
12 Jan 2024 15:30:00.000,315.790,12.889,1660.971124
08 Aug 2023 12:27:00.000,124.071,15.728,1504.715233
01 Jun 2023 12:40:00.000,329.064,35.209,908.424891
26 Jun 2023 06:47:00.000,298.893,63.299,621.659554
17 Jan 2024 10:14:00.000,299.870,28.612,1044.470476
12 Dec 2023 03:07:00.000,52.728,7.821,1999.990175
23 Feb 2024 22:23:00.000,322.984,33.646,930.797230
25 Jan 2024 11:34:00.000,298.756,36.473,882.243550
29 Oct 2023 21:41:00.000,298.610,7.827,1999.979639
02 Oct 2023 10:40:00.000,345.564,22.855,1215.037210
13 Aug 2023 08:54:00.000,81.537,10.785,1790.879898
14 Sep 2023 21:25:00.000,280.851,7.829,1999.988830
28 Mar 2024 05:37:00.000,0.646,22.687,1216.468035
06 Sep 2023 01:16:00.000,155.582,7.688,1999.990022
09 Feb 2024 00:43:00.000,274.699,7.741,1999.984077
02 Sep 2023 18:38:00.000,78.101,10.218,1827.323870
04 Sep 2023 23:37:00.000,89.975,12.614,1672.299472
16 Sep 2023 18:00:00.000,325.843,19.317,1346.708791
14 Oct 2023 01:46:00.000,89.915,71.575,587.025568
20 Feb 2024 17:26:00.000,205.259,12.990,1643.302949
04 Mar 2024 18:38:00.000,115.269,9.171,1890.784745
09 Nov 2023 21:18:00.000,227.074,33.511,933.082006
18 Feb 2024 19:13:00.000,240.848,22.006,1234.809456
01 Sep 2023 01:20:00.000,310.819,13.341,1633.623211
03 Oct 2023 13:56:00.000,267.053,7.830,1999.988747
16 Oct 2023 03:25:00.000,44.705,12.078,1708.170361
17 Jun 2023 08:51:00.000,73.810,9.091,1909.195645
22 Dec 2023 02:42:00.000,130.948,7.691,1999.975556
20 Feb 2024 19:15:00.000,53.708,7.793,1999.977264
20 Dec 2023 01:04:00.000,48.894,18.023,1395.959426
29 Apr 2023 01:30:00.000,232.484,13.638,1612.807429
02 Apr 2023 12:34:00.000,68.767,7.960,1997.417915
16 Sep 2023 14:36:00.000,271.250,13.294,1636.966331
13 Feb 2024 21:10:00.000,229.130,35.787,889.213221
17 Jun 2023 08:45:00.000,327.762,18.415,1384.929777
21 May 2023 16:28:00.000,56.951,9.237,1902.437045
05 Jul 2023 03:09:00.000,125.943,25.411,1128.277595
03 Dec 2023 05:11:00.000,50.286,14.186,1586.315483
21 Aug 2023 00:08:00.000,97.604,24.977,1141.669029
23 Aug 2023 01:42:00.000,313.226,25.624,1124.739203
16 Oct 2023 01:44:00.000,44.526,22.499,1223.033132
26 May 2023 14:35:00.000,45.578,23.232,1204.594507
06 Jul 2023 03:01:00.000,290.075,13.530,1622.377823
24 Mar 2024 04:04:00.000,225.067,13.452,1616.816961
22 Aug 2023 06:47:00.000,279.057,34.482,917.093773
04 Jan 2024 17:33:00.000,324.669,17.044,1443.072122
07 Jan 2024 19:06:00.000,299.641,22.200,1232.999767
22 Jun 2023 06:55:00.000,8.462,30.277,1006.736824
30 Dec 2023 00:35:00.000,226.624,15.540,1506.252678
24 Jun 2023 06:56:00.000,99.665,7.810,1999.973797
04 May 2023 03:06:00.000,28.637,21.551,1259.961475
12 Dec 2023 23:43:00.000,68.785,7.788,1999.904531
20 Jan 2024 11:53:00.000,72.766,8.759,1930.157418
25 Aug 2023 23:58:00.000,40.485,19.355,1342.146012
20 Mar 2024 04:21:00.000,115.144,10.581,1795.105362
08 Jul 2023 01:21:00.000,90.867,38.531,848.456442
07 Mar 2024 13:26:00.000,48.581,9.360,1887.241675
30 Dec 2023 17:47:00.000,299.010,28.873,1036.960524
27 Nov 2023 07:07:00.000,58.706,15.871,1499.381527
19 Dec 2023 21:39:00.000,284.685,56.676,657.773000
13 Feb 2024 19:31:00.000,131.866,12.748,1657.286093
05 Mar 2024 15:10:00.000,19.892,20.714,1288.263153
19 Sep 2023 19:37:00.000,196.443,18.739,1362.676150
05 Aug 2023 09:11:00.000,51.011,7.900,1999.990214
22 Jun 2023 05:13:00.000,336.807,21.453,1263.107672
05 Jun 2023 12:37:00.000,55.644,7.925,1999.975772
11 Oct 2023 05:13:00.000,310.422,17.753,1410.056776
01 Sep 2023 23:44:00.000,68.703,7.949,1989.953276
26 Mar 2024 07:20:00.000,308.646,7.817,1999.990741
14 Jul 2023 23:28:00.000,138.722,7.729,1999.970365
30 Jan 2024 09:45:00.000,127.210,9.110,1897.868580
20 Jul 2023 13:00:00.000,192.749,7.759,1999.981556
24 Dec 2023 00:53:00.000,82.439,35.459,896.827241
06 Feb 2024 00:56:00.000,16.713,68.354,597.306217
21 Sep 2023 14:27:00.000,341.045,21.251,1272.493898
18 Jul 2023 16:33:00.000,39.633,17.935,1406.914509
08 Jul 2023 21:57:00.000,33.834,16.852,1454.219603
09 Mar 2024 18:22:00.000,179.681,7.647,1999.988617
22 Oct 2023 01:29:00.000,39.538,15.968,1493.349273
01 Apr 2023 17:31:00.000,309.356,7.954,1999.998066
18 Jul 2023 14:54:00.000,66.872,7.892,1999.990732
08 Dec 2023 01:36:00.000,83.169,18.600,1369.466004
20 Oct 2023 04:57:00.000,106.832,24.707,1149.157024
29 Mar 2024 05:37:00.000,53.551,11.372,1750.206465
30 Sep 2023 10:42:00.000,312.053,12.332,1695.903568
30 Jul 2023 11:05:00.000,53.657,8.115,1984.240786
27 Mar 2024 02:16:00.000,176.603,27.068,1077.001090
16 Nov 2023 10:55:00.000,120.969,41.255,809.506455
12 Oct 2023 10:17:00.000,208.436,13.855,1598.752235
14 Mar 2024 14:38:00.000,297.312,7.824,1999.991237
01 Jul 2023 23:47:00.000,282.206,12.976,1654.273241
05 May 2023 04:41:00.000,304.368,13.742,1612.844291
10 Nov 2023 17:52:00.000,328.351,17.868,1407.195454
11 Feb 2024 05:43:00.000,256.141,16.987,1439.089460
17 Nov 2023 12:29:00.000,281.283,12.971,1655.104097
16 Jan 2024 08:34:00.000,205.051,12.967,1646.846360
10 Aug 2023 05:36:00.000,62.479,25.566,1127.270156
19 Jan 2024 08:30:00.000,17.813,68.759,597.677889
26 Feb 2024 00:00:00.000,204.069,10.476,1796.523238
28 Jul 2023 11:06:00.000,61.849,74.542,581.376863
17 Dec 2023 04:33:00.000,131.842,41.593,802.296234
30 Sep 2023 14:04:00.000,289.421,13.553,1623.545102
23 Jul 2023 18:00:00.000,335.313,29.915,1016.564364
29 Mar 2024 00:33:00.000,114.258,10.116,1824.146290
18 Jun 2023 12:05:00.000,242.096,9.865,1850.130869
15 Feb 2024 19:22:00.000,197.644,12.627,1663.153808
10 Jul 2023 02:55:00.000,224.419,9.954,1838.303541
12 Dec 2023 03:05:00.000,17.023,21.419,1261.453356
01 Jul 2023 22:07:00.000,219.503,35.480,898.284330
29 Dec 2023 19:30:00.000,316.798,17.270,1431.373294
22 Jul 2023 19:44:00.000,261.470,57.783,653.348449
05 Feb 2024 00:55:00.000,233.984,13.545,1611.794161
30 Apr 2023 08:16:00.000,221.865,28.023,1058.252766
13 Nov 2023 14:24:00.000,6.093,28.517,1049.060552
06 Jul 2023 18:36:00.000,153.109,13.506,1619.692047
02 Aug 2023 15:58:00.000,221.402,27.084,1083.990068
17 Aug 2023 03:35:00.000,277.103,20.627,1289.868861
28 Feb 2024 17:06:00.000,327.378,22.821,1211.840144
22 Apr 2023 08:35:00.000,70.616,8.420,1959.433025
11 May 2023 04:32:00.000,224.842,10.060,1832.441482
20 Mar 2024 11:02:00.000,334.744,30.308,1003.869191
28 Jan 2024 11:28:00.000,196.846,25.060,1137.416960
11 Dec 2023 03:06:00.000,348.682,25.695,1122.014577
10 Jun 2023 07:24:00.000,65.494,8.811,1930.228604
08 Nov 2023 16:14:00.000,280.255,13.014,1652.167166
29 Nov 2023 10:25:00.000,76.975,9.798,1856.719454
14 Jul 2023 19:59:00.000,325.060,17.138,1442.325156
16 Oct 2023 05:05:00.000,33.802,25.298,1134.662509
08 Jun 2023 14:13:00.000,114.764,7.832,1999.973335
19 Jul 2023 21:32:00.000,194.935,35.790,892.790081
28 Aug 2023 23:45:00.000,299.791,12.461,1684.660494
05 Jan 2024 14:08:00.000,240.125,36.395,882.118898
02 Jan 2024 14:22:00.000,79.565,8.822,1923.962176
07 Jan 2024 15:47:00.000,17.576,21.267,1268.853710
16 May 2023 16:36:00.000,109.486,13.473,1626.943038
06 Jul 2023 23:36:00.000,306.581,7.870,1999.996948
03 Mar 2024 20:15:00.000,263.588,18.448,1374.079833
13 Jul 2023 20:04:00.000,20.054,20.761,1290.250621
30 Nov 2023 05:20:00.000,66.831,8.443,1953.320793
04 Aug 2023 10:47:00.000,300.034,7.884,1999.986594
08 Aug 2023 07:19:00.000,316.460,42.584,793.433582
17 Dec 2023 21:49:00.000,66.062,8.584,1939.892434
19 Oct 2023 23:51:00.000,3.149,56.452,660.253968
25 Jun 2023 06:53:00.000,107.151,15.236,1528.892647
17 Dec 2023 04:35:00.000,125.969,15.577,1506.376091
17 Jul 2023 18:12:00.000,318.061,17.285,1436.032454
07 Oct 2023 08:47:00.000,345.428,23.890,1180.062061
08 Sep 2023 20:04:00.000,40.360,16.068,1490.929036
15 Feb 2024 02:17:00.000,105.297,8.525,1938.897542
01 Jul 2023 05:01:00.000,128.176,7.748,1999.972460
19 Dec 2023 21:43:00.000,54.317,15.341,1522.812031
29 Dec 2023 19:28:00.000,296.305,7.815,1999.984388
01 Jul 2023 20:28:00.000,151.655,9.769,1851.921778
09 Apr 2023 15:37:00.000,307.667,22.098,1243.941367
10 Dec 2023 23:45:00.000,134.596,21.712,1244.698579
19 Nov 2023 09:05:00.000,161.246,22.485,1220.556433
15 Dec 2023 23:30:00.000,298.666,51.288,698.836517
03 Jan 2024 15:55:00.000,291.569,30.306,1003.357713
03 Sep 2023 20:10:00.000,282.261,20.175,1309.070604
31 Mar 2024 05:32:00.000,72.722,7.787,1999.987430
07 Feb 2024 23:08:00.000,191.647,30.844,985.267654
15 Mar 2024 07:54:00.000,213.799,34.568,912.536379
06 May 2023 06:25:00.000,193.630,10.386,1809.222554
20 Dec 2023 04:24:00.000,218.658,23.902,1171.239492
29 May 2023 14:23:00.000,283.336,7.897,1999.988194
18 May 2023 23:14:00.000,288.490,63.109,623.296449
01 Sep 2023 01:26:00.000,86.790,20.993,1275.465902
18 Feb 2024 00:24:00.000,65.597,27.071,1080.508877
06 Nov 2023 23:05:00.000,250.124,15.776,1498.062896
12 Oct 2023 05:17:00.000,53.358,7.849,1999.986447
23 May 2023 16:20:00.000,325.694,37.430,870.577769
03 Aug 2023 07:28:00.000,198.398,12.787,1659.002983
08 Jan 2024 14:03:00.000,1.474,35.246,904.529206
25 Sep 2023 15:57:00.000,293.961,13.726,1614.314325
04 Sep 2023 18:25:00.000,232.798,7.768,1999.977411
15 Jun 2023 08:47:00.000,306.081,7.885,1999.995265
03 Jul 2023 23:46:00.000,351.671,24.749,1153.007703
03 May 2023 06:28:00.000,269.050,32.404,958.581883
26 Sep 2023 09:10:00.000,230.726,13.600,1614.373182
19 Apr 2023 12:03:00.000,127.303,9.179,1899.278844
09 Apr 2023 12:14:00.000,299.205,12.569,1684.281713
01 Sep 2023 18:36:00.000,155.517,20.605,1288.605803
05 Jun 2023 14:11:00.000,315.273,13.095,1654.169246
30 Jan 2024 07:59:00.000,342.696,26.174,1109.383434
18 May 2023 19:49:00.000,306.222,12.422,1692.830159
29 Nov 2023 06:56:00.000,273.935,20.788,1283.502214
26 Aug 2023 06:37:00.000,255.900,7.769,1999.991005
01 Oct 2023 05:40:00.000,138.598,14.990,1537.613378
01 May 2023 06:38:00.000,115.574,9.260,1891.319492
01 May 2023 01:34:00.000,55.067,7.873,1999.974493
15 Nov 2023 14:16:00.000,302.214,12.428,1689.083941
14 Nov 2023 12:44:00.000,57.885,9.325,1892.301623
31 Jul 2023 17:43:00.000,221.571,9.402,1880.303059
11 Oct 2023 08:38:00.000,337.953,56.811,659.254434
16 Sep 2023 21:25:00.000,202.891,9.759,1850.474473
06 Jan 2024 17:31:00.000,31.429,23.271,1197.876639
09 Nov 2023 12:50:00.000,180.839,7.722,1999.985650
26 Nov 2023 08:49:00.000,26.194,23.617,1188.467481
15 Jul 2023 20:01:00.000,45.264,16.871,1453.767802
07 Dec 2023 03:19:00.000,46.970,23.525,1188.389392
19 Feb 2024 20:57:00.000,42.771,12.766,1663.680140
20 Mar 2024 11:04:00.000,42.629,39.268,837.550964
10 Aug 2023 10:40:00.000,86.637,21.048,1277.183818
12 Jul 2023 01:11:00.000,196.521,25.718,1118.399101
13 Feb 2024 04:03:00.000,132.961,8.559,1934.087574
19 Oct 2023 01:37:00.000,40.687,14.201,1585.084270
05 Feb 2024 01:03:00.000,62.562,9.191,1895.607485
18 Jan 2024 10:12:00.000,312.692,25.846,1119.064416
12 Mar 2024 09:44:00.000,251.972,35.807,891.647419
28 Apr 2023 08:22:00.000,137.684,24.118,1169.487097
05 Dec 2023 04:59:00.000,283.090,12.910,1655.057073
16 Feb 2024 02:12:00.000,112.506,25.162,1132.673483
17 Jul 2023 14:49:00.000,198.000,20.131,1309.364918
09 Jan 2024 12:21:00.000,65.874,25.160,1138.677548
03 Jul 2023 03:15:00.000,102.376,7.781,1999.977361
12 Jun 2023 08:59:00.000,42.776,12.877,1665.337050
09 Sep 2023 23:23:00.000,173.716,24.217,1162.399659
01 Nov 2023 19:56:00.000,326.371,23.043,1206.001339
09 Jan 2024 17:20:00.000,319.716,20.648,1291.224442
20 Jul 2023 16:25:00.000,324.659,23.350,1199.795683
23 Nov 2023 08:58:00.000,52.504,25.070,1142.525185
09 Aug 2023 10:37:00.000,314.180,13.112,1650.423019
14 Jan 2024 12:01:00.000,282.800,7.824,1999.985893
06 Jun 2023 14:11:00.000,335.238,30.224,1010.545304
18 Jun 2023 08:41:00.000,309.023,7.885,1999.982762
04 Oct 2023 07:10:00.000,274.717,13.088,1646.037067
01 Feb 2024 07:59:00.000,100.744,7.770,1999.975863
04 Jul 2023 22:03:00.000,359.749,42.025,800.958166
22 Mar 2024 05:50:00.000,257.425,13.419,1622.297119
02 Aug 2023 12:39:00.000,59.310,12.437,1690.836358
15 Nov 2023 17:38:00.000,302.101,13.684,1615.393938
29 Feb 2024 20:31:00.000,121.041,9.225,1885.600155
23 Jul 2023 16:18:00.000,325.903,17.201,1440.746237
18 Jun 2023 10:29:00.000,131.401,15.295,1526.030308
28 Feb 2024 20:34:00.000,110.493,7.698,1999.998703
13 Apr 2023 10:29:00.000,11.920,23.781,1186.902737
10 Jun 2023 10:43:00.000,24.329,20.543,1300.111077
08 Jul 2023 23:36:00.000,8.967,28.233,1055.695589
21 Oct 2023 22:09:00.000,66.745,8.432,1952.474621
23 Feb 2024 22:26:00.000,84.447,36.217,882.737596
06 May 2023 20:15:00.000,149.332,7.764,1999.993875
28 Aug 2023 23:48:00.000,351.518,24.758,1151.520918
25 Dec 2023 19:45:00.000,40.994,20.135,1309.282444
21 Oct 2023 23:50:00.000,51.470,7.825,1999.990041
22 Jul 2023 12:59:00.000,168.047,44.943,764.800617
25 Sep 2023 16:02:00.000,143.916,39.441,835.163875
01 Mar 2024 13:37:00.000,214.092,21.249,1262.799768
30 Jul 2023 17:48:00.000,182.963,8.737,1925.731092
12 Sep 2023 14:52:00.000,71.068,14.122,1591.819723
02 Dec 2023 08:34:00.000,30.888,22.661,1219.816639
08 Dec 2023 08:16:00.000,293.912,36.163,887.024644
04 Dec 2023 08:27:00.000,341.658,26.715,1095.133899
08 Dec 2023 03:17:00.000,48.712,13.198,1640.653916
19 Jan 2024 13:33:00.000,51.544,53.250,684.704791
11 Nov 2023 16:08:00.000,317.175,17.252,1435.212915
23 Feb 2024 20:45:00.000,47.136,17.412,1422.300313
16 Jul 2023 21:37:00.000,314.624,35.342,903.631054
15 Dec 2023 02:58:00.000,46.403,17.143,1436.344522
19 Jul 2023 16:26:00.000,297.847,18.970,1361.564799
23 Mar 2024 04:11:00.000,121.240,38.313,848.800011
15 Jul 2023 23:21:00.000,225.778,32.446,955.875749
07 Sep 2023 21:46:00.000,36.304,28.747,1041.649495
06 Aug 2023 10:44:00.000,327.692,17.399,1430.552881
18 Nov 2023 12:34:00.000,50.656,7.880,1999.981804
26 Apr 2023 05:01:00.000,348.767,25.767,1123.572807
01 Feb 2024 09:35:00.000,226.392,32.945,944.542310
03 Aug 2023 15:56:00.000,212.441,17.679,1411.668970
20 Aug 2023 03:30:00.000,327.171,22.806,1213.962651
10 Jun 2023 08:58:00.000,289.866,19.569,1335.253256
16 Apr 2023 08:42:00.000,5.219,29.242,1032.937934
25 Feb 2024 18:54:00.000,307.917,12.210,1697.710891
18 Oct 2023 03:17:00.000,342.805,21.241,1268.678867
26 Nov 2023 07:11:00.000,64.441,8.985,1914.886517
25 Jun 2023 03:29:00.000,30.642,18.224,1391.524855
26 Oct 2023 21:52:00.000,336.082,31.452,978.054176
02 Jul 2023 03:13:00.000,41.146,37.174,871.099293
06 Aug 2023 14:04:00.000,284.025,7.874,1999.981402
20 Jan 2024 13:30:00.000,322.049,61.495,630.638733
01 Feb 2024 04:29:00.000,301.314,18.510,1374.586131
27 Oct 2023 21:51:00.000,9.703,25.152,1138.804875
28 Mar 2024 09:04:00.000,130.575,7.712,1999.975405
24 Mar 2024 07:33:00.000,58.000,7.824,1999.986309
29 Jan 2024 04:44:00.000,54.606,8.536,1946.182918
02 Jan 2024 22:47:00.000,172.401,8.281,1951.812765
04 Jun 2023 15:53:00.000,300.208,7.921,1999.991229
29 Oct 2023 20:07:00.000,48.645,13.029,1651.134774
05 Nov 2023 14:44:00.000,148.751,18.380,1378.545827
12 Dec 2023 04:45:00.000,8.956,27.942,1060.902772
05 Nov 2023 23:13:00.000,156.249,7.672,1999.983157
26 Apr 2023 03:23:00.000,54.662,15.517,1518.766293
15 Mar 2024 12:55:00.000,308.185,7.841,1999.979075
26 Jun 2023 01:41:00.000,270.921,21.009,1276.050772
11 Aug 2023 10:39:00.000,105.108,15.080,1538.505145
17 Feb 2024 20:59:00.000,306.830,27.025,1082.518003
02 May 2023 06:30:00.000,288.698,35.978,891.656233
17 Jul 2023 16:32:00.000,315.280,43.443,784.300704
25 Apr 2023 05:03:00.000,340.187,29.306,1029.763746
20 Oct 2023 22:05:00.000,199.582,20.157,1303.008801
18 Jan 2024 11:51:00.000,305.697,7.855,1999.988330
22 Apr 2023 06:49:00.000,328.511,22.669,1221.326966
04 Jan 2024 15:51:00.000,289.728,19.507,1334.992114
14 Oct 2023 03:25:00.000,296.849,18.880,1359.865679
25 Aug 2023 23:54:00.000,294.715,29.858,1013.603159
31 Jan 2024 06:17:00.000,24.305,20.514,1295.988842
19 Apr 2023 05:14:00.000,162.449,41.538,805.470486
02 Jan 2024 22:42:00.000,250.230,15.702,1500.383185
20 Jan 2024 15:11:00.000,213.257,18.245,1383.011198
03 Jan 2024 19:20:00.000,36.379,28.870,1037.008667
13 Oct 2023 03:31:00.000,26.006,26.235,1107.415588
26 Oct 2023 23:35:00.000,25.569,20.596,1292.432348
27 Nov 2023 13:44:00.000,283.911,7.841,1999.984313
03 Dec 2023 11:54:00.000,182.840,10.415,1806.452506
29 Nov 2023 06:57:00.000,287.477,31.179,983.539752
23 Nov 2023 15:41:00.000,196.699,23.832,1176.183239
21 Apr 2023 06:55:00.000,48.830,9.219,1902.343472
09 Jun 2023 07:25:00.000,74.924,12.445,1687.986834
13 May 2023 02:49:00.000,196.519,25.748,1118.406057
06 May 2023 03:06:00.000,76.997,9.770,1858.785299
27 Dec 2023 17:52:00.000,238.994,7.734,1999.977373
06 Sep 2023 16:45:00.000,118.077,25.330,1132.572144
27 Oct 2023 21:53:00.000,41.010,13.925,1600.256504
11 Feb 2024 21:21:00.000,77.095,10.967,1772.057435
08 Mar 2024 18:20:00.000,256.961,17.225,1428.560048
16 Jul 2023 14:58:00.000,81.244,7.870,1999.983983
06 Nov 2023 21:30:00.000,114.884,9.151,1894.422482
12 Mar 2024 11:30:00.000,49.466,8.758,1931.209706
04 Jul 2023 21:58:00.000,262.910,7.814,1999.992062
24 Aug 2023 05:02:00.000,321.819,33.905,928.642242
23 Feb 2024 20:40:00.000,316.145,12.331,1690.168480
08 Jun 2023 07:26:00.000,87.513,13.773,1610.083085
14 Aug 2023 10:29:00.000,193.011,40.945,813.683752
11 Jan 2024 12:17:00.000,55.108,7.855,1999.978767
24 Jan 2024 08:15:00.000,327.326,22.770,1215.107831
10 Jan 2024 17:22:00.000,95.854,23.070,1201.552616
17 Jan 2024 08:34:00.000,174.318,48.457,725.143341
05 Jun 2023 12:32:00.000,339.145,21.326,1271.364926
22 May 2023 19:43:00.000,327.732,18.625,1377.985510
15 Aug 2023 03:40:00.000,250.437,36.102,886.891167
12 Nov 2023 19:27:00.000,288.177,21.802,1247.781797
19 Jun 2023 05:20:00.000,335.361,31.666,975.372720
13 Dec 2023 03:05:00.000,55.733,7.816,1999.986237
25 Mar 2024 09:05:00.000,310.499,13.421,1627.974143
05 Feb 2024 23:14:00.000,168.051,15.847,1488.696119
14 Jul 2023 21:41:00.000,337.413,29.217,1031.886065
15 Apr 2023 13:45:00.000,289.830,21.981,1246.517088
11 Oct 2023 03:35:00.000,4.646,58.920,644.729071
07 Sep 2023 20:07:00.000,47.606,11.492,1746.270969
03 Oct 2023 07:13:00.000,270.039,21.039,1274.739620
11 Mar 2024 13:12:00.000,26.040,20.748,1287.466299
25 May 2023 16:14:00.000,304.934,18.287,1392.397618
22 Feb 2024 15:46:00.000,99.649,7.742,1999.991778
01 Mar 2024 22:05:00.000,209.287,8.493,1935.861231
21 Apr 2023 08:31:00.000,327.735,17.421,1429.739942
20 Jul 2023 19:45:00.000,306.685,13.642,1620.392859
05 Oct 2023 05:33:00.000,64.094,15.663,1509.272867
05 Nov 2023 16:20:00.000,244.490,7.775,1999.980073
22 Jul 2023 16:26:00.000,55.519,7.903,1999.976719
17 Jul 2023 18:15:00.000,18.352,21.129,1277.262257
21 Sep 2023 17:53:00.000,143.024,22.909,1207.292316
10 Jan 2024 10:36:00.000,130.475,19.018,1351.728283
09 Jun 2023 10:43:00.000,337.115,21.440,1266.353139
05 Jul 2023 04:48:00.000,206.536,12.400,1680.937394
30 Nov 2023 11:56:00.000,290.651,13.651,1616.452491
21 Jul 2023 14:46:00.000,50.310,14.213,1589.945611
11 Mar 2024 11:26:00.000,284.967,12.849,1659.937682
11 Nov 2023 17:52:00.000,34.924,26.800,1092.714994
10 Feb 2024 23:05:00.000,56.508,7.785,1999.977579
08 Dec 2023 03:12:00.000,288.712,30.813,990.127974
19 Dec 2023 21:36:00.000,251.107,13.516,1616.548940
03 Dec 2023 03:27:00.000,148.081,31.227,978.939887
09 Sep 2023 23:20:00.000,254.140,27.642,1066.969855
06 Feb 2024 23:12:00.000,145.024,28.926,1030.105000
24 Oct 2023 21:56:00.000,280.006,32.628,952.018134
13 Sep 2023 14:45:00.000,229.421,36.055,889.545809
01 Apr 2023 19:20:00.000,118.900,7.830,1999.994119
16 Jan 2024 15:19:00.000,299.319,13.722,1612.232675
11 Jan 2024 17:13:00.000,302.508,13.743,1610.667166
14 Aug 2023 07:08:00.000,25.911,20.675,1292.350153
08 Aug 2023 05:37:00.000,184.421,29.077,1029.827138
31 May 2023 12:38:00.000,261.741,7.852,1999.982313
10 Dec 2023 06:35:00.000,94.098,13.468,1622.762158
21 Sep 2023 16:10:00.000,38.973,33.568,937.280733
10 Mar 2024 09:56:00.000,67.974,7.821,1999.970656
04 Oct 2023 12:19:00.000,138.488,23.966,1173.792919
27 Oct 2023 20:06:00.000,245.586,22.059,1235.675732
21 Feb 2024 20:47:00.000,322.702,16.945,1444.653291
18 Apr 2023 12:05:00.000,115.713,7.838,1999.971005
24 Aug 2023 03:19:00.000,316.348,12.440,1686.746520
02 Sep 2023 21:55:00.000,333.457,21.855,1247.826157
29 Dec 2023 17:51:00.000,359.850,45.700,754.947729
07 Jun 2023 09:07:00.000,25.065,71.155,591.187640
02 Dec 2023 03:32:00.000,99.139,14.341,1573.172025
06 Apr 2023 10:45:00.000,74.568,12.705,1675.382637
12 Dec 2023 03:02:00.000,316.090,17.330,1427.682072
11 Jun 2023 10:37:00.000,315.430,12.423,1692.242683
11 Feb 2024 04:00:00.000,302.971,7.791,1999.990980
03 Aug 2023 07:30:00.000,170.807,25.501,1125.778164
26 Jun 2023 08:30:00.000,194.507,12.017,1705.432929
15 Mar 2024 11:20:00.000,40.239,16.067,1489.499635
07 Jan 2024 17:26:00.000,344.499,24.849,1148.473959
31 Jan 2024 07:58:00.000,40.585,35.976,890.451576
17 Nov 2023 14:17:00.000,52.368,11.339,1756.654991
11 Feb 2024 04:01:00.000,305.055,13.606,1615.125396
16 Jan 2024 10:15:00.000,264.520,13.326,1631.395110
19 Oct 2023 01:38:00.000,50.686,7.829,1999.985248
30 Apr 2023 23:46:00.000,197.063,12.757,1661.660468
28 Feb 2024 20:26:00.000,305.212,13.547,1618.651536
05 Nov 2023 16:21:00.000,245.630,13.589,1616.010120
27 Jul 2023 16:13:00.000,64.320,26.734,1096.525846
06 Jan 2024 20:54:00.000,180.721,15.879,1488.593035
13 Jan 2024 12:12:00.000,51.152,7.860,1999.983497
22 Jan 2024 06:35:00.000,228.965,7.707,1999.986263
08 Apr 2023 17:21:00.000,251.982,27.124,1086.129394
23 Nov 2023 14:00:00.000,52.732,55.501,668.531089
26 Mar 2024 10:48:00.000,180.184,16.684,1451.439136
18 Nov 2023 15:51:00.000,328.000,32.440,959.158692
05 Mar 2024 18:30:00.000,274.059,60.675,633.057687
08 Nov 2023 12:55:00.000,145.854,9.325,1883.047916
05 Mar 2024 20:14:00.000,189.871,7.638,1999.991579
08 Jun 2023 12:23:00.000,309.191,7.918,1999.998966
30 Oct 2023 01:04:00.000,297.084,13.648,1613.879850
24 Apr 2023 05:08:00.000,47.623,11.438,1751.632432
18 Mar 2024 09:32:00.000,52.970,7.838,1999.999826
15 Nov 2023 19:19:00.000,261.853,11.696,1728.429005
17 Mar 2024 11:09:00.000,316.584,12.473,1684.584525
18 Mar 2024 06:08:00.000,98.171,24.044,1169.397480
09 Dec 2023 01:27:00.000,223.751,13.482,1615.794434
01 Aug 2023 10:58:00.000,26.596,22.313,1234.787497
31 Jul 2023 09:21:00.000,71.188,14.063,1595.769832
27 Aug 2023 01:33:00.000,342.778,21.253,1269.026349
16 May 2023 18:19:00.000,59.808,9.472,1884.576282
18 Sep 2023 12:53:00.000,251.268,62.937,624.025025
06 Aug 2023 12:31:00.000,97.973,14.110,1591.318240
14 Jan 2024 10:26:00.000,59.599,25.682,1123.621864
13 Jun 2023 10:32:00.000,309.350,7.902,1999.984280
20 Sep 2023 11:10:00.000,96.776,26.510,1100.459403
12 Jun 2023 10:34:00.000,308.873,7.903,1999.991649
29 May 2023 16:11:00.000,45.304,16.883,1456.203501
08 Jun 2023 15:47:00.000,250.700,15.989,1494.378759
21 Apr 2023 06:47:00.000,283.708,7.851,1999.987562
24 Apr 2023 08:31:00.000,84.586,11.534,1743.682991
15 Sep 2023 14:46:00.000,54.832,7.889,1999.979759
09 May 2023 01:19:00.000,68.991,7.852,1999.989295
23 Aug 2023 03:21:00.000,305.884,7.840,1999.995144
15 May 2023 19:53:00.000,274.994,7.874,1999.983214
11 Nov 2023 12:48:00.000,152.703,34.526,915.552798
22 Mar 2024 09:20:00.000,63.815,13.553,1620.136901
14 Oct 2023 01:43:00.000,233.646,22.143,1230.959553
15 Jun 2023 08:52:00.000,26.838,20.965,1283.022036
27 Feb 2024 20:35:00.000,89.598,21.505,1253.549366
08 Jun 2023 09:09:00.000,54.953,8.712,1939.577381
24 Jul 2023 16:16:00.000,327.958,17.514,1426.475158
12 Apr 2023 13:48:00.000,306.628,7.936,1999.982517
21 Oct 2023 04:47:00.000,298.341,7.816,1999.991238
02 Jan 2024 17:42:00.000,32.268,17.361,1428.031213
02 Mar 2024 11:57:00.000,116.335,11.228,1754.850092
11 Mar 2024 14:50:00.000,334.169,30.363,1002.334111
28 Sep 2023 12:34:00.000,63.436,13.531,1625.509850
15 Jan 2024 13:47:00.000,61.570,12.989,1653.862624
24 Mar 2024 04:09:00.000,83.154,37.533,862.026487
01 Sep 2023 20:22:00.000,56.920,9.107,1906.225655
04 Mar 2024 18:36:00.000,111.675,25.204,1131.928077
09 Apr 2023 17:17:00.000,267.098,12.283,1699.659363
18 Feb 2024 20:56:00.000,318.391,24.597,1152.918648
08 Mar 2024 18:24:00.000,180.636,15.875,1488.307615
02 Mar 2024 20:22:00.000,168.027,28.586,1038.235855
30 Jun 2023 01:35:00.000,353.982,24.014,1175.612292
08 Sep 2023 21:39:00.000,308.168,7.865,1999.985429
19 Feb 2024 22:37:00.000,31.666,23.338,1192.825982
23 Dec 2023 18:09:00.000,111.971,15.794,1496.708515
05 Jan 2024 20:52:00.000,270.328,19.706,1323.768346
16 Feb 2024 00:32:00.000,74.219,7.760,1999.982376
19 Dec 2023 23:22:00.000,30.246,18.372,1381.509094
04 Dec 2023 06:45:00.000,338.783,21.231,1269.818381
19 Sep 2023 11:08:00.000,191.613,12.462,1679.204883
17 Oct 2023 05:04:00.000,71.878,16.269,1477.859768
05 Mar 2024 16:49:00.000,342.800,25.986,1113.802857
09 Feb 2024 00:48:00.000,3.955,31.160,982.584922
01 Jul 2023 22:10:00.000,77.760,39.632,832.876453
08 Jan 2024 19:05:00.000,254.524,54.865,670.778524
30 Jan 2024 11:18:00.000,258.002,7.772,1999.998871
04 Sep 2023 20:15:00.000,50.848,7.858,1999.998052
06 Jan 2024 14:06:00.000,263.885,34.942,908.262469
15 Feb 2024 00:35:00.000,67.127,7.771,1999.999791
11 Aug 2023 03:54:00.000,88.665,10.242,1823.987931
03 Dec 2023 08:27:00.000,316.577,12.655,1674.523924
02 Nov 2023 21:40:00.000,75.000,9.302,1888.340611
06 Dec 2023 03:18:00.000,257.882,62.250,624.842602
24 Dec 2023 18:07:00.000,87.521,13.717,1607.903133
07 Jul 2023 18:38:00.000,88.651,10.604,1802.089800
22 Mar 2024 05:57:00.000,51.673,14.692,1557.853172
13 Sep 2023 19:55:00.000,96.044,7.792,1999.978740
26 Mar 2024 07:23:00.000,345.543,22.717,1216.016141
18 May 2023 21:35:00.000,35.547,27.607,1073.400909
17 Nov 2023 14:13:00.000,342.436,21.266,1270.779296
27 Jan 2024 11:34:00.000,144.533,7.717,1999.987013
14 Apr 2023 12:08:00.000,8.731,28.165,1061.079039
06 Jun 2023 12:35:00.000,60.154,7.919,1999.986904
21 Jun 2023 08:40:00.000,102.359,40.969,814.346495
02 May 2023 01:30:00.000,40.583,19.818,1325.661227
23 Dec 2023 23:13:00.000,58.560,12.108,1703.075559
29 Oct 2023 02:48:00.000,264.801,11.918,1712.376705
30 Nov 2023 10:18:00.000,339.395,28.090,1059.244939
12 Apr 2023 10:26:00.000,280.785,7.876,1999.987203
29 Nov 2023 12:01:00.000,295.451,36.190,887.795136
15 Dec 2023 06:21:00.000,164.544,14.557,1557.657472
26 Jan 2024 06:31:00.000,26.176,26.470,1100.870193
20 Nov 2023 10:46:00.000,42.145,21.082,1276.857284
23 Sep 2023 12:41:00.000,325.076,23.321,1199.697845
26 Mar 2024 09:00:00.000,303.531,7.819,1999.991306
07 Sep 2023 16:41:00.000,160.134,40.048,826.076122
12 May 2023 23:28:00.000,47.088,17.359,1430.985920
27 Jan 2024 03:05:00.000,131.739,12.740,1659.045457
07 Jun 2023 14:08:00.000,313.878,21.641,1259.271077
15 Jun 2023 07:08:00.000,314.200,25.612,1127.330355
14 Mar 2024 07:55:00.000,211.598,13.151,1635.322225
02 Sep 2023 23:38:00.000,8.777,27.986,1060.860789
16 Sep 2023 18:04:00.000,58.543,23.034,1207.296062
21 Aug 2023 08:32:00.000,208.646,14.161,1581.817901
27 Aug 2023 20:33:00.000,90.535,7.795,1999.992931
29 Oct 2023 01:15:00.000,113.584,9.095,1898.154901
27 Jan 2024 06:27:00.000,6.001,28.483,1047.602334
28 Sep 2023 07:32:00.000,79.921,8.331,1962.589664
02 Apr 2023 20:52:00.000,251.679,7.852,1999.993871
19 Sep 2023 14:37:00.000,51.335,7.998,1992.010222
17 Sep 2023 16:15:00.000,304.416,7.891,1999.988973
07 May 2023 23:37:00.000,27.168,21.416,1265.482193
10 Jan 2024 15:39:00.000,29.790,22.180,1235.796014
21 Jul 2023 14:47:00.000,54.410,7.911,1999.974041
08 Jul 2023 01:23:00.000,105.802,15.121,1533.295592
09 Aug 2023 10:41:00.000,39.082,33.842,932.326943
03 Aug 2023 09:16:00.000,54.482,8.533,1952.007846
28 Jun 2023 06:44:00.000,194.092,37.897,857.446705
29 Mar 2024 03:52:00.000,336.309,31.142,983.106029
12 Aug 2023 03:51:00.000,98.484,23.059,1202.994969
25 Feb 2024 15:30:00.000,217.032,7.695,1999.976882
19 May 2023 16:24:00.000,222.631,13.587,1618.736719
17 Jan 2024 15:20:00.000,182.811,57.689,651.796704
06 Sep 2023 23:26:00.000,305.210,22.167,1235.456419
15 Feb 2024 19:25:00.000,145.095,28.864,1032.004378
26 Apr 2023 03:24:00.000,57.266,7.874,1999.983867
26 Jan 2024 11:35:00.000,139.979,23.561,1184.585399
05 Aug 2023 14:06:00.000,290.912,7.885,1999.990841
01 Jan 2024 21:10:00.000,104.490,8.436,1946.290276
16 Apr 2023 06:57:00.000,232.267,13.693,1610.364700
28 May 2023 16:13:00.000,40.667,16.185,1489.873636
13 Nov 2023 11:01:00.000,160.722,10.484,1802.772026
17 Nov 2023 17:41:00.000,139.091,7.785,1995.079154
15 Nov 2023 19:23:00.000,195.871,15.415,1514.257227
04 May 2023 03:01:00.000,307.339,7.877,1999.984463
17 Oct 2023 01:42:00.000,48.040,12.509,1681.348450
27 Sep 2023 14:14:00.000,353.355,48.635,727.007228
07 Dec 2023 04:55:00.000,311.966,17.541,1418.743217
15 May 2023 18:16:00.000,193.541,56.445,662.708182
22 Dec 2023 02:37:00.000,258.166,55.849,662.983641
03 Mar 2024 11:53:00.000,130.445,19.016,1350.511975
08 Jan 2024 14:01:00.000,299.427,28.699,1042.389671
27 Oct 2023 20:05:00.000,244.105,13.595,1613.791223
01 Sep 2023 03:02:00.000,272.656,20.161,1307.103089
04 Nov 2023 18:11:00.000,39.536,15.922,1497.380009
