aer_data/rounded_times/rounded_TP_AER.csv

Time (UTCG),Azimuth (deg),Elevation (deg),Range (km)
22 Jun 2023 08:38:00.000,100.827,7.845,1999.990104
22 Dec 2023 00:58:00.000,67.619,8.605,1940.472338
23 Jul 2023 16:17:00.000,13.369,25.452,1136.555188
05 Oct 2023 07:11:00.000,54.731,15.281,1531.839276
12 Aug 2023 08:49:00.000,1.296,25.376,1136.656882
14 Nov 2023 12:40:00.000,84.020,18.459,1381.581367
11 Apr 2023 13:53:00.000,48.599,19.928,1327.111819
01 Aug 2023 15:55:00.000,300.509,22.338,1235.032953
26 Jun 2023 03:21:00.000,333.248,34.036,928.512265
12 May 2023 02:52:00.000,116.288,9.362,1885.038592
24 Jul 2023 12:53:00.000,121.316,33.186,945.097490
23 Feb 2024 22:26:00.000,84.301,7.771,1999.982401
16 Sep 2023 19:45:00.000,102.813,8.568,1943.598305
30 Nov 2023 05:16:00.000,89.085,8.345,1959.843414
07 Mar 2024 16:37:00.000,306.466,7.863,1999.998377
06 May 2023 04:36:00.000,308.203,13.511,1628.409515
29 Mar 2024 02:13:00.000,81.946,7.780,1999.981492
01 Sep 2023 03:04:00.000,120.233,25.462,1127.772485
04 Mar 2024 16:51:00.000,23.049,23.046,1206.749734
05 Oct 2023 08:53:00.000,53.555,8.845,1929.471891
14 Mar 2024 14:38:00.000,313.089,21.338,1266.828719
24 Oct 2023 21:59:00.000,66.210,7.841,1999.984946
19 Jun 2023 10:21:00.000,79.490,71.015,592.183222
03 Dec 2023 06:47:00.000,28.319,25.983,1116.745265
21 May 2023 19:46:00.000,49.926,12.944,1664.104220
21 Aug 2023 06:50:00.000,73.120,32.309,961.672031
23 Nov 2023 14:00:00.000,85.352,7.857,1999.982096
08 May 2023 23:26:00.000,265.010,7.868,1999.982984
11 Oct 2023 08:35:00.000,3.293,36.937,876.969752
01 Aug 2023 17:40:00.000,182.252,10.989,1773.677372
02 Oct 2023 08:51:00.000,265.865,7.827,1999.970460
05 Sep 2023 02:51:00.000,232.087,18.348,1380.617935
09 Dec 2023 09:52:00.000,217.620,23.488,1188.434090
09 Dec 2023 06:31:00.000,4.909,27.449,1076.042991
23 Nov 2023 10:37:00.000,50.784,13.462,1631.140248
23 Mar 2024 10:55:00.000,97.042,14.135,1587.116653
23 Aug 2023 23:57:00.000,158.504,38.276,851.918054
26 May 2023 21:10:00.000,290.137,7.930,1999.973001
19 Aug 2023 05:14:00.000,46.899,13.383,1634.465452
20 Jan 2024 06:43:00.000,139.512,8.752,1923.595007
05 Sep 2023 18:28:00.000,77.561,11.333,1757.036692
15 Oct 2023 10:05:00.000,228.340,10.910,1777.666941
15 Dec 2023 07:57:00.000,204.375,11.026,1766.570397
10 Jan 2024 13:54:00.000,0.940,45.091,764.249188
19 Oct 2023 23:51:00.000,72.839,13.719,1611.442868
14 Jun 2023 13:49:00.000,271.106,12.611,1680.125237
29 Aug 2023 22:02:00.000,208.496,60.490,636.423096
30 Mar 2024 05:24:00.000,295.135,7.809,1999.976982
09 Nov 2023 19:32:00.000,323.219,19.256,1349.446306
08 Mar 2024 14:57:00.000,358.016,25.215,1139.113913
09 May 2023 02:54:00.000,37.606,34.096,928.015153
26 May 2023 17:51:00.000,320.107,17.913,1411.640734
15 Apr 2023 13:46:00.000,86.065,37.648,867.616814
01 Jul 2023 01:31:00.000,8.092,29.253,1031.813436
21 Jul 2023 16:19:00.000,303.877,28.422,1054.341546
06 Oct 2023 08:46:00.000,332.770,23.074,1208.128938
16 Nov 2023 15:56:00.000,45.434,18.919,1364.003337
12 Feb 2024 21:13:00.000,111.452,14.807,1546.790418
23 Nov 2023 17:15:00.000,253.536,7.819,1999.989426
19 Jan 2024 13:29:00.000,338.033,27.542,1074.865247
06 Jan 2024 20:49:00.000,184.469,54.313,675.226695
16 Jun 2023 12:06:00.000,281.649,35.162,908.656363
03 Sep 2023 18:29:00.000,142.674,16.287,1476.294899
31 Oct 2023 00:58:00.000,301.401,7.851,1999.978333
17 Nov 2023 15:56:00.000,71.390,9.273,1896.380017
07 Feb 2024 04:13:00.000,23.165,23.056,1205.348937
14 Nov 2023 17:39:00.000,337.956,27.648,1072.598323
19 Nov 2023 12:20:00.000,267.635,7.843,1999.999211
17 Nov 2023 14:07:00.000,287.426,7.882,1999.984426
05 Aug 2023 07:23:00.000,157.302,21.107,1271.584128
02 Sep 2023 01:14:00.000,306.267,7.877,1999.982855
23 Sep 2023 16:01:00.000,337.067,28.179,1060.276261
16 Jan 2024 11:55:00.000,307.022,27.624,1071.887270
26 Jan 2024 09:53:00.000,69.652,7.860,1999.984381
13 Sep 2023 19:48:00.000,32.497,27.848,1067.478324
17 Dec 2023 23:26:00.000,57.965,15.673,1507.912831
03 Aug 2023 15:56:00.000,144.421,13.088,1647.053413
07 Mar 2024 18:24:00.000,126.198,42.069,797.167076
05 Mar 2024 13:21:00.000,236.121,13.600,1614.613542
12 May 2023 02:51:00.000,115.430,15.888,1497.188203
20 Aug 2023 06:46:00.000,306.105,7.880,1999.979765
22 Jun 2023 05:15:00.000,50.148,10.732,1798.165149
31 Mar 2023 17:29:00.000,297.287,7.970,1999.991602
01 Apr 2023 15:51:00.000,4.369,33.922,935.432758
16 Aug 2023 08:37:00.000,310.685,13.364,1636.193015
25 Jan 2024 11:29:00.000,308.788,13.417,1632.041226
30 Jan 2024 06:18:00.000,42.187,16.147,1486.875615
28 Sep 2023 14:10:00.000,39.826,37.970,861.529964
27 Nov 2023 07:01:00.000,151.138,33.136,942.009022
24 Apr 2023 05:06:00.000,59.857,9.424,1887.957986
27 Feb 2024 22:08:00.000,293.989,36.171,885.898427
23 May 2023 16:22:00.000,61.488,7.951,1999.979463
20 Jun 2023 05:10:00.000,260.206,7.819,1999.982200
07 Mar 2024 13:18:00.000,304.537,49.516,717.362117
29 Sep 2023 10:41:00.000,284.634,13.012,1655.212221
27 Nov 2023 07:05:00.000,78.390,10.521,1808.432550
28 Nov 2023 07:03:00.000,69.236,7.863,1999.973208
27 Oct 2023 02:55:00.000,107.191,41.710,802.668155
02 Aug 2023 14:14:00.000,4.718,34.142,929.232144
28 Aug 2023 22:08:00.000,72.733,13.732,1612.507319
21 Feb 2024 20:45:00.000,342.581,29.511,1022.200309
10 Nov 2023 14:30:00.000,93.445,31.300,983.363293
27 Aug 2023 03:12:00.000,5.487,28.447,1050.664304
01 Apr 2023 14:10:00.000,82.690,38.401,856.320924
14 Mar 2024 12:57:00.000,322.930,17.991,1402.292093
01 Mar 2024 15:12:00.000,242.196,7.766,1999.991857
10 Oct 2023 08:41:00.000,77.349,10.430,1815.673109
07 Nov 2023 22:57:00.000,283.825,7.837,1999.984007
17 Sep 2023 19:38:00.000,73.032,68.463,600.518275
18 Jul 2023 21:34:00.000,105.728,15.333,1526.232167
14 Aug 2023 05:24:00.000,50.900,24.539,1159.874142
19 Dec 2023 23:14:00.000,270.185,13.287,1633.325817
31 Aug 2023 20:13:00.000,204.496,7.756,1999.977311
05 Feb 2024 07:37:00.000,300.535,22.169,1235.371245
30 Oct 2023 21:42:00.000,43.609,14.710,1560.288834
24 Aug 2023 22:14:00.000,143.359,9.073,1901.374581
25 Dec 2023 02:23:00.000,286.896,13.476,1623.596760
25 Apr 2023 06:40:00.000,328.405,23.666,1189.656673
22 Jan 2024 08:14:00.000,249.163,13.569,1616.983218
11 May 2023 04:34:00.000,158.017,8.455,1946.842403
13 Dec 2023 04:43:00.000,68.375,7.835,1999.986946
15 May 2023 23:16:00.000,341.066,24.671,1159.149445
11 May 2023 20:02:00.000,162.556,22.899,1211.231914
24 Dec 2023 23:02:00.000,308.049,12.466,1684.854242
24 May 2023 14:34:00.000,162.144,22.705,1218.755488
11 Dec 2023 08:03:00.000,291.441,13.666,1615.353521
05 Oct 2023 07:07:00.000,291.246,54.948,672.722475
14 Apr 2023 08:40:00.000,223.906,21.851,1247.041885
04 Mar 2024 15:09:00.000,3.531,35.792,895.295790
10 May 2023 21:45:00.000,244.578,63.271,623.733587
22 Jan 2024 10:03:00.000,52.363,9.236,1899.838755
16 Jun 2023 12:07:00.000,257.664,56.224,665.285712
29 Jan 2024 08:03:00.000,61.492,7.861,1999.984005
11 Jun 2023 08:54:00.000,277.199,33.394,941.012348
16 Feb 2024 20:59:00.000,224.521,62.385,624.187722
31 Oct 2023 19:51:00.000,256.100,7.808,1999.985239
12 Nov 2023 12:41:00.000,162.949,15.103,1534.375788
12 Apr 2023 08:50:00.000,78.722,7.909,1999.985385
27 Jun 2023 08:19:00.000,279.551,7.857,1999.987261
26 May 2023 21:16:00.000,162.080,32.191,964.266903
29 Apr 2023 03:12:00.000,6.499,59.900,641.538994
13 Jan 2024 13:48:00.000,31.280,20.542,1298.525798
17 Jan 2024 17:00:00.000,166.765,12.863,1654.292173
07 Jan 2024 17:25:00.000,25.006,23.330,1198.454048
21 Jan 2024 11:44:00.000,27.006,23.981,1178.166703
11 Jan 2024 10:31:00.000,117.598,7.787,1999.993415
17 Aug 2023 01:53:00.000,150.786,12.987,1647.683552
05 Nov 2023 19:41:00.000,303.464,12.542,1683.172410
15 Apr 2023 13:49:00.000,105.402,8.869,1926.839818
26 Jul 2023 19:36:00.000,153.217,10.405,1811.783733
30 Jan 2024 04:37:00.000,63.403,15.804,1501.791525
17 Mar 2024 07:50:00.000,74.534,12.971,1654.540544
19 Sep 2023 14:33:00.000,49.937,12.692,1677.524237
05 Jun 2023 14:07:00.000,304.532,7.951,1999.991589
12 Jan 2024 10:28:00.000,120.503,13.189,1639.378842
10 Jan 2024 19:01:00.000,129.885,15.296,1522.664039
04 Mar 2024 15:05:00.000,276.463,13.190,1641.359476
24 Feb 2024 22:21:00.000,81.131,19.721,1323.677556
08 Feb 2024 04:08:00.000,340.375,23.295,1197.244508
26 Jun 2023 04:59:00.000,302.278,7.884,1999.987487
01 Sep 2023 03:06:00.000,120.172,9.255,1889.617425
23 Apr 2023 08:25:00.000,339.623,23.151,1207.467427
10 Aug 2023 13:57:00.000,209.704,15.377,1522.602020
22 Mar 2024 12:38:00.000,148.176,21.373,1259.994941
03 Sep 2023 01:13:00.000,316.823,20.951,1281.737885
01 Oct 2023 15:41:00.000,241.224,13.957,1598.877820
11 May 2023 20:00:00.000,191.762,12.542,1678.637709
08 Oct 2023 12:01:00.000,277.170,13.043,1652.663310
14 Jun 2023 05:28:00.000,128.875,17.867,1403.659832
09 Nov 2023 21:20:00.000,122.399,7.753,1999.990051
02 Apr 2023 19:07:00.000,305.716,13.778,1618.496874
04 Jul 2023 23:37:00.000,283.739,12.999,1655.824043
12 Jan 2024 15:28:00.000,323.107,18.055,1400.500913
28 Dec 2023 21:10:00.000,306.043,12.517,1682.380621
28 Dec 2023 19:30:00.000,292.487,30.521,999.220601
04 Aug 2023 14:09:00.000,350.565,50.077,715.273386
05 May 2023 06:24:00.000,156.367,34.760,912.595118
19 Jan 2024 15:11:00.000,173.681,63.998,618.154374
31 Dec 2023 22:51:00.000,116.463,9.222,1889.745481
10 Oct 2023 10:23:00.000,123.007,7.798,1999.974084
06 Apr 2023 17:23:00.000,48.082,50.624,711.641360
10 Jul 2023 20:09:00.000,54.876,15.265,1534.370459
13 May 2023 04:28:00.000,191.741,7.744,1999.989672
12 Nov 2023 21:03:00.000,279.543,7.844,1999.995294
05 Jun 2023 10:49:00.000,62.251,74.864,581.729719
26 Jul 2023 14:33:00.000,50.130,10.780,1798.494583
17 Jun 2023 10:25:00.000,41.624,41.306,812.763851
06 Jan 2024 17:24:00.000,306.294,12.565,1681.393271
12 Jul 2023 02:47:00.000,231.494,11.610,1733.134605
26 Aug 2023 01:35:00.000,29.224,22.709,1219.098837
19 Sep 2023 14:32:00.000,42.245,19.661,1335.195157
24 Dec 2023 21:26:00.000,42.053,18.795,1365.505158
16 Aug 2023 06:57:00.000,319.973,17.852,1409.354039
06 Aug 2023 14:07:00.000,131.834,41.600,807.458421
25 Aug 2023 01:32:00.000,277.777,13.150,1644.229981
20 Aug 2023 03:23:00.000,266.772,7.811,1999.990250
02 Feb 2024 02:41:00.000,216.433,13.330,1625.089847
23 Jul 2023 18:02:00.000,72.585,9.604,1875.383213
21 Jul 2023 21:24:00.000,233.862,41.103,813.402942
05 Dec 2023 11:46:00.000,181.599,12.891,1654.167377
24 Aug 2023 01:35:00.000,274.219,20.960,1279.016341
17 Dec 2023 04:32:00.000,96.663,14.086,1588.590860
01 Mar 2024 22:00:00.000,243.534,23.619,1181.991224
02 Feb 2024 11:11:00.000,208.083,7.730,1999.997613
08 Jan 2024 17:26:00.000,69.345,7.845,1999.985966
01 Feb 2024 07:48:00.000,312.955,12.928,1658.667354
25 Nov 2023 10:28:00.000,339.767,30.940,992.865059
20 Nov 2023 08:58:00.000,168.877,7.734,1999.982470
12 Apr 2023 12:08:00.000,351.563,26.582,1104.964037
09 Jul 2023 01:10:00.000,304.962,7.898,1999.998475
12 Mar 2024 18:09:00.000,191.257,7.687,1999.989479
08 Sep 2023 23:24:00.000,109.252,15.525,1513.797043
01 Apr 2023 15:50:00.000,331.376,35.234,910.705589
08 Sep 2023 23:16:00.000,301.117,7.883,1999.980242
09 Mar 2024 13:09:00.000,275.119,7.825,1999.984744
13 Nov 2023 19:21:00.000,299.688,13.752,1613.353840
15 Mar 2024 12:56:00.000,4.993,27.807,1067.056409
25 Mar 2024 05:47:00.000,56.715,7.844,1999.980708
21 Jun 2023 10:18:00.000,159.728,33.434,938.457614
27 Jun 2023 08:27:00.000,158.832,7.758,1999.989355
28 Aug 2023 01:27:00.000,313.730,17.982,1402.414035
31 Jan 2024 02:53:00.000,99.782,14.676,1555.717600
28 Oct 2023 02:48:00.000,292.837,22.110,1237.097555
07 Jun 2023 15:46:00.000,287.082,35.942,896.096392
24 Aug 2023 23:56:00.000,85.509,36.845,876.390886
28 Jun 2023 05:03:00.000,74.158,9.808,1857.996221
26 Jun 2023 08:23:00.000,273.688,20.413,1301.424845
08 Jan 2024 19:03:00.000,53.874,57.575,654.028153
13 Nov 2023 21:04:00.000,229.829,17.343,1425.422161
26 Jan 2024 08:07:00.000,342.924,29.554,1023.240126
08 Jun 2023 09:03:00.000,88.784,35.173,907.846460
03 Jan 2024 21:02:00.000,101.736,7.766,1999.990028
12 Jun 2023 13:58:00.000,153.853,35.875,894.951085
17 Mar 2024 07:42:00.000,219.024,7.714,1999.983661
01 Jun 2023 14:16:00.000,302.449,18.908,1367.435984
23 Jan 2024 11:35:00.000,312.948,12.942,1659.868107
13 Jul 2023 01:09:00.000,143.183,13.245,1634.419180
17 Apr 2023 13:40:00.000,265.268,58.781,649.617599
26 Aug 2023 22:11:00.000,115.842,20.219,1305.810341
19 Sep 2023 14:31:00.000,28.505,28.884,1042.549071
24 Sep 2023 17:45:00.000,142.646,7.775,1999.999873
28 Jan 2024 11:28:00.000,130.501,15.305,1523.870973
15 Sep 2023 19:40:00.000,317.902,20.704,1293.357341
31 Jul 2023 09:12:00.000,185.851,7.755,1999.978863
03 Jun 2023 16:00:00.000,86.177,7.912,1999.981910
23 May 2023 16:21:00.000,61.424,9.459,1888.952884
01 Feb 2024 04:31:00.000,46.264,22.792,1214.069084
18 Aug 2023 08:41:00.000,111.660,7.815,1999.982156
05 Jan 2024 22:32:00.000,224.018,14.673,1553.446403
23 Dec 2023 21:24:00.000,284.078,32.090,964.132319
20 Jun 2023 10:20:00.000,135.603,41.047,814.253489
28 Mar 2024 05:32:00.000,316.377,25.688,1122.575439
19 May 2023 16:26:00.000,130.325,18.829,1366.244019
20 Aug 2023 08:28:00.000,289.968,13.632,1618.983664
22 Dec 2023 02:35:00.000,52.101,56.113,662.832648
10 Jul 2023 02:57:00.000,157.298,7.733,1999.990502
15 Sep 2023 14:40:00.000,118.704,54.737,675.323471
29 Aug 2023 04:46:00.000,282.978,21.432,1261.926009
24 Oct 2023 21:50:00.000,228.851,7.749,1999.987271
30 Sep 2023 14:02:00.000,306.326,22.054,1244.021493
15 Sep 2023 21:27:00.000,144.404,13.031,1646.582554
26 Aug 2023 06:35:00.000,248.461,25.778,1119.513220
16 Jun 2023 05:28:00.000,72.335,7.879,1999.984140
31 Mar 2024 07:10:00.000,87.063,12.386,1686.869040
24 Dec 2023 00:45:00.000,312.553,12.972,1654.835697
24 Feb 2024 23:56:00.000,286.043,13.405,1626.492041
18 Jul 2023 23:07:00.000,278.342,7.874,1999.975815
18 Jun 2023 03:36:00.000,170.614,11.183,1757.864692
27 Apr 2023 08:23:00.000,96.061,7.862,1999.988795
14 May 2023 23:23:00.000,66.654,7.900,1999.987579
15 Nov 2023 17:43:00.000,93.321,7.827,1999.975742
28 May 2023 16:06:00.000,322.501,24.642,1161.621567
31 Jan 2024 02:48:00.000,185.447,12.023,1700.884308
27 Dec 2023 00:36:00.000,301.217,7.832,1999.979246
18 Mar 2024 07:42:00.000,218.375,35.064,904.709462
10 Mar 2024 11:28:00.000,248.772,62.695,624.374023
03 Jun 2023 14:13:00.000,316.803,17.927,1410.489116
22 Jan 2024 08:22:00.000,58.775,9.295,1894.626129
16 Jul 2023 23:20:00.000,135.140,8.271,1961.876411
25 Aug 2023 03:21:00.000,61.516,8.113,1980.882936
22 Oct 2023 03:01:00.000,305.319,7.853,1999.979613
18 Jul 2023 18:10:00.000,30.328,21.383,1269.931735
08 Sep 2023 16:39:00.000,99.679,14.133,1590.528697
21 Dec 2023 21:34:00.000,60.965,15.920,1495.695574
16 Jan 2024 11:52:00.000,275.472,7.839,1999.996099
07 Jun 2023 17:28:00.000,232.945,12.065,1710.390963
14 Nov 2023 19:23:00.000,142.144,39.590,832.761386
09 Feb 2024 02:25:00.000,346.523,27.951,1060.754063
04 Jan 2024 19:12:00.000,341.207,24.446,1162.347646
06 Mar 2024 15:04:00.000,11.716,26.229,1109.504686
15 Jan 2024 13:44:00.000,58.967,8.083,1984.404582
11 Jun 2023 14:04:00.000,122.671,7.847,1999.972131
05 Nov 2023 19:48:00.000,57.316,7.869,1999.990646
11 Jul 2023 21:47:00.000,36.584,18.433,1385.543271
22 Sep 2023 14:19:00.000,291.614,7.905,1999.983406
12 Jul 2023 23:26:00.000,67.340,29.232,1031.437241
14 May 2023 01:02:00.000,0.932,39.993,830.887305
07 Jun 2023 12:28:00.000,36.161,18.579,1382.029060
14 Jun 2023 08:53:00.000,53.783,7.928,1999.998246
31 Mar 2024 07:11:00.000,91.306,7.792,1999.978367
07 Dec 2023 03:15:00.000,90.374,33.782,929.719908
30 Jan 2024 11:22:00.000,154.718,9.826,1847.699563
09 Nov 2023 22:57:00.000,207.844,13.656,1608.854480
19 Feb 2024 03:37:00.000,239.154,13.344,1625.573263
29 Sep 2023 09:04:00.000,71.521,41.583,807.493901
23 Mar 2024 12:35:00.000,160.911,16.253,1474.316677
11 Sep 2023 19:50:00.000,321.855,17.901,1408.687680
17 Apr 2023 08:41:00.000,55.319,8.111,1986.754129
10 Jan 2024 15:33:00.000,315.352,17.863,1408.652681
13 Sep 2023 16:20:00.000,252.943,7.843,1999.974791
29 Nov 2023 12:00:00.000,45.123,46.621,747.582847
22 Jun 2023 08:34:00.000,46.235,48.694,726.903399
10 Jul 2023 20:03:00.000,258.007,21.968,1244.813869
17 Aug 2023 03:31:00.000,235.474,13.677,1610.300911
18 May 2023 21:29:00.000,339.606,23.170,1207.976438
12 Jul 2023 23:28:00.000,88.468,12.702,1671.322294
25 Mar 2024 05:42:00.000,302.556,50.540,706.665862
11 Sep 2023 23:10:00.000,281.786,13.293,1637.488895
10 Nov 2023 17:47:00.000,306.305,12.527,1685.186244
14 Apr 2023 13:45:00.000,330.108,31.316,987.885015
04 Jan 2024 19:15:00.000,49.910,20.243,1307.437564
04 Oct 2023 05:32:00.000,98.160,10.585,1801.798953
14 Dec 2023 02:55:00.000,348.585,27.256,1079.946978
24 Dec 2023 21:23:00.000,327.343,37.449,866.388710
28 Jun 2023 23:54:00.000,121.720,36.659,879.499730
23 Mar 2024 07:33:00.000,53.516,7.858,1999.990574
22 Oct 2023 01:28:00.000,53.907,7.854,1999.998140
28 Jul 2023 17:48:00.000,138.897,73.688,584.430655
16 Jun 2023 08:46:00.000,19.600,23.313,1201.872952
21 Aug 2023 00:06:00.000,113.398,9.681,1860.733990
14 May 2023 23:18:00.000,340.393,23.424,1198.779560
07 Mar 2024 13:16:00.000,265.761,21.436,1260.842393
27 Nov 2023 15:26:00.000,221.102,13.392,1627.467631
19 Aug 2023 03:30:00.000,2.300,51.314,701.729018
20 Apr 2023 10:09:00.000,305.844,7.930,1999.990811
23 Feb 2024 00:06:00.000,98.370,73.634,580.676824
05 Sep 2023 21:47:00.000,18.416,23.505,1193.785263
29 Mar 2024 05:32:00.000,32.550,19.730,1327.129835
26 Feb 2024 15:32:00.000,89.139,9.988,1840.886529
25 Aug 2023 03:19:00.000,41.295,18.166,1394.490835
03 Jan 2024 17:34:00.000,338.131,31.773,973.454020
05 Jul 2023 04:40:00.000,285.207,7.856,1999.983566
28 Jul 2023 14:23:00.000,312.180,18.188,1397.821166
19 Oct 2023 08:16:00.000,205.885,12.176,1695.909811
05 Dec 2023 10:07:00.000,113.194,15.761,1502.886860
14 Sep 2023 16:25:00.000,43.975,21.227,1274.283367
27 Aug 2023 04:54:00.000,75.085,68.976,597.479497
13 Sep 2023 16:28:00.000,54.339,15.130,1541.499484
13 Sep 2023 21:26:00.000,300.409,22.333,1232.620491
11 Mar 2024 16:31:00.000,111.301,42.225,795.981578
01 Aug 2023 12:39:00.000,53.738,8.847,1932.108960
14 Aug 2023 03:44:00.000,100.144,17.137,1437.191522
11 Jun 2023 07:15:00.000,120.180,29.062,1034.214537
01 Nov 2023 19:52:00.000,291.821,30.693,996.417399
25 Sep 2023 09:16:00.000,97.475,9.532,1876.083595
06 Aug 2023 12:23:00.000,339.233,26.772,1098.026069
06 May 2023 03:03:00.000,64.789,7.889,1999.996471
08 Nov 2023 14:37:00.000,89.124,9.811,1856.897336
05 Apr 2023 15:47:00.000,60.870,8.160,1985.615711
30 Apr 2023 03:05:00.000,261.830,7.840,1999.980154
12 Feb 2024 02:13:00.000,302.417,7.815,1999.993022
29 Apr 2023 04:55:00.000,45.221,13.925,1605.907698
23 Nov 2023 08:54:00.000,96.525,28.062,1059.073751
09 Feb 2024 00:43:00.000,257.471,35.451,897.192393
01 Nov 2023 23:15:00.000,336.435,28.475,1049.282490
24 Jul 2023 17:58:00.000,57.643,24.250,1171.504476
31 Jan 2024 04:33:00.000,46.523,40.979,813.385515
16 Feb 2024 03:51:00.000,143.590,13.073,1639.958185
15 Jan 2024 10:23:00.000,70.304,7.866,1999.984570
13 Oct 2023 10:09:00.000,259.772,17.941,1401.795048
05 Apr 2023 15:45:00.000,40.731,18.213,1399.555332
17 Jun 2023 10:29:00.000,94.661,7.873,1999.983044
26 Feb 2024 23:53:00.000,236.793,20.470,1291.672862
14 Nov 2023 19:25:00.000,130.677,15.201,1528.876657
15 Dec 2023 06:10:00.000,295.856,7.833,1999.978566
21 May 2023 21:22:00.000,321.165,20.021,1322.191685
14 Jan 2024 17:07:00.000,127.081,42.261,796.073299
19 Sep 2023 19:29:00.000,291.795,7.897,1999.975888
20 Apr 2023 08:29:00.000,305.873,18.597,1378.529062
01 Jun 2023 12:40:00.000,57.445,25.598,1131.818644
20 Sep 2023 14:30:00.000,41.881,16.966,1452.327023
20 Feb 2024 03:35:00.000,218.361,8.669,1926.021267
27 Oct 2023 01:16:00.000,74.889,7.821,1999.990114
10 Apr 2023 08:51:00.000,129.759,12.163,1702.826079
03 Feb 2024 07:46:00.000,43.873,44.620,768.125332
06 Dec 2023 03:16:00.000,152.878,34.048,922.902994
04 Mar 2024 20:10:00.000,266.843,32.157,961.525498
16 Jan 2024 10:12:00.000,229.847,13.621,1613.517876
19 Aug 2023 03:28:00.000,276.860,33.489,936.875999
20 Apr 2023 13:35:00.000,215.249,20.965,1280.799639
04 Dec 2023 08:22:00.000,312.054,12.635,1677.200192
14 Nov 2023 19:26:00.000,128.818,8.893,1915.193380
25 Apr 2023 05:01:00.000,36.237,37.018,876.316452
26 Oct 2023 01:17:00.000,58.940,13.459,1627.050416
18 Dec 2023 04:24:00.000,306.411,21.908,1244.220527
02 Apr 2023 19:15:00.000,105.050,8.786,1932.880808
28 Dec 2023 19:27:00.000,266.073,7.805,1999.983157
20 Oct 2023 23:48:00.000,68.244,24.963,1144.343794
26 Feb 2024 15:31:00.000,99.744,14.512,1565.726631
05 Mar 2024 11:42:00.000,165.629,10.797,1781.530582
18 Nov 2023 15:51:00.000,56.325,23.281,1200.789738
06 Jun 2023 15:50:00.000,84.670,71.974,590.304087
22 Apr 2023 10:13:00.000,85.625,12.197,1705.321283
05 Jan 2024 22:30:00.000,253.838,11.010,1770.447991
06 Oct 2023 08:43:00.000,295.861,7.872,1999.988814
12 Sep 2023 21:34:00.000,104.163,15.116,1535.847563
04 Dec 2023 04:59:00.000,239.414,22.186,1231.403842
08 Jun 2023 09:06:00.000,68.087,7.916,1999.976319
22 Mar 2024 09:17:00.000,60.596,8.041,1985.802395
16 Jan 2024 13:37:00.000,339.019,22.978,1211.264539
07 Jun 2023 10:46:00.000,31.694,33.161,948.115322
21 May 2023 19:39:00.000,297.452,7.947,1999.984145
23 Apr 2023 11:50:00.000,171.896,25.340,1134.481803
01 Aug 2023 16:02:00.000,117.651,7.838,1999.993822
02 Mar 2024 21:58:00.000,230.405,17.550,1412.655072
12 Sep 2023 23:13:00.000,178.637,18.282,1382.510839
09 Dec 2023 08:12:00.000,60.059,62.949,623.574711
18 Apr 2023 12:02:00.000,92.803,7.901,1999.974271
24 Nov 2023 07:11:00.000,118.061,8.572,1940.452495
16 Jan 2024 15:20:00.000,43.597,44.348,772.356798
17 Nov 2023 12:34:00.000,58.958,7.902,1999.979154
20 Nov 2023 13:59:00.000,302.680,7.903,1999.992942
30 Jul 2023 12:43:00.000,49.825,11.346,1761.558160
14 Jul 2023 19:59:00.000,12.333,26.055,1117.949338
06 Jun 2023 09:03:00.000,190.511,12.389,1685.694825
17 Jul 2023 00:57:00.000,211.404,7.751,2000.000015
28 Mar 2024 05:31:00.000,299.517,18.958,1356.880317
29 Oct 2023 18:22:00.000,118.167,12.028,1707.877474
10 Sep 2023 23:13:00.000,290.088,13.661,1617.403542
06 Jan 2024 19:06:00.000,320.493,20.063,1315.543351
24 Aug 2023 01:39:00.000,30.436,31.800,972.671027
27 Dec 2023 17:57:00.000,79.506,9.585,1870.371685
12 Jul 2023 02:48:00.000,216.839,11.571,1734.298067
01 Mar 2024 13:34:00.000,175.878,11.467,1738.303902
06 Oct 2023 08:49:00.000,36.683,18.392,1386.633792
27 Dec 2023 21:11:00.000,292.788,7.836,1999.984419
25 Sep 2023 09:10:00.000,181.951,7.743,1999.986705
24 Jan 2024 09:55:00.000,21.040,23.108,1206.353643
14 Jul 2023 19:57:00.000,322.736,24.602,1160.860561
01 Oct 2023 12:25:00.000,76.246,10.316,1825.183882
31 Oct 2023 01:02:00.000,334.815,57.707,653.007639
16 Feb 2024 00:26:00.000,23.234,23.014,1205.737219
04 Mar 2024 20:08:00.000,286.246,13.476,1624.018427
29 Sep 2023 07:23:00.000,133.489,13.284,1633.286567
11 Nov 2023 14:30:00.000,65.078,7.889,1999.999667
03 Jan 2024 20:59:00.000,79.162,34.701,912.761373
07 Mar 2024 13:14:00.000,257.114,7.794,1999.982437
24 Oct 2023 06:23:00.000,199.367,7.776,1994.983529
06 May 2023 23:35:00.000,52.187,42.224,800.016991
31 Mar 2024 05:25:00.000,359.664,25.121,1139.998180
29 Jun 2023 03:18:00.000,37.062,18.321,1388.973056
07 Nov 2023 21:16:00.000,303.794,7.877,1999.990816
04 Oct 2023 13:52:00.000,261.582,18.416,1383.000967
03 Aug 2023 14:12:00.000,0.328,40.699,821.981441
28 Feb 2024 22:05:00.000,285.317,21.723,1248.823300
04 Jun 2023 12:34:00.000,41.751,18.017,1406.468076
03 Dec 2023 06:50:00.000,53.741,7.878,1999.989776
24 Sep 2023 15:55:00.000,305.160,7.925,1999.998797
14 Feb 2024 02:13:00.000,32.641,27.630,1068.660727
24 Jul 2023 19:39:00.000,130.232,25.026,1143.591159
17 Dec 2023 04:31:00.000,90.292,22.193,1232.619127
25 Dec 2023 23:06:00.000,65.960,7.819,1999.973288
18 Nov 2023 14:08:00.000,353.273,25.996,1118.722043
27 Feb 2024 18:48:00.000,352.972,26.023,1114.114621
04 Jan 2024 22:38:00.000,169.958,10.321,1810.233071
06 Jan 2024 20:53:00.000,133.595,8.378,1949.985246
22 Sep 2023 12:39:00.000,262.187,21.659,1255.636394
02 Nov 2023 18:09:00.000,217.646,35.251,903.251201
13 Dec 2023 23:31:00.000,190.382,12.312,1684.249859
27 Feb 2024 17:07:00.000,2.202,50.935,704.095979
22 Sep 2023 12:43:00.000,36.802,37.319,872.108056
09 Jun 2023 14:07:00.000,97.630,14.341,1582.288064
01 Aug 2023 17:36:00.000,246.480,15.205,1534.287792
28 Feb 2024 22:04:00.000,290.007,13.606,1616.113138
16 Jul 2023 16:36:00.000,69.747,7.916,1999.944898
30 Jul 2023 12:42:00.000,41.711,17.510,1428.243809
08 Feb 2024 23:06:00.000,99.764,14.669,1554.949457
31 May 2023 10:57:00.000,169.331,7.785,1999.990196
26 Sep 2023 15:58:00.000,113.750,15.799,1502.900832
15 May 2023 19:52:00.000,252.482,22.139,1239.938911
22 Oct 2023 04:46:00.000,338.150,56.316,662.460988
25 Apr 2023 10:01:00.000,298.233,22.285,1235.808676
11 Sep 2023 16:28:00.000,220.524,35.444,901.401619
06 Jun 2023 10:45:00.000,263.963,35.019,910.727232
20 Jan 2024 08:21:00.000,218.365,21.602,1252.105382
05 Mar 2024 13:24:00.000,221.978,62.016,627.632950
20 May 2023 18:03:00.000,299.481,52.038,698.517937
11 Mar 2024 13:10:00.000,45.319,13.841,1607.708514
18 Dec 2023 01:07:00.000,43.669,14.648,1561.742106
05 Aug 2023 09:01:00.000,253.522,21.979,1242.819617
01 Mar 2024 15:19:00.000,59.292,25.552,1127.440992
30 Apr 2023 03:14:00.000,55.306,8.062,1987.937657
12 Dec 2023 01:21:00.000,82.241,38.348,850.730131
14 Dec 2023 02:54:00.000,324.811,24.027,1173.685813
24 Jul 2023 17:52:00.000,306.485,7.944,1999.977117
02 Oct 2023 07:16:00.000,121.772,41.825,802.508652
23 Dec 2023 23:11:00.000,56.616,8.225,1970.033663
14 Jul 2023 18:13:00.000,249.496,13.759,1611.847024
15 Mar 2024 09:32:00.000,255.200,35.680,895.226169
17 Feb 2024 20:52:00.000,247.712,7.740,1999.976783
29 Aug 2023 01:31:00.000,59.828,8.044,1986.067044
20 Nov 2023 15:44:00.000,356.507,45.070,765.144109
29 Mar 2024 02:09:00.000,139.047,24.245,1160.616213
04 Mar 2024 20:15:00.000,143.007,13.180,1633.741059
23 Nov 2023 17:18:00.000,213.894,10.407,1810.177123
08 Mar 2024 18:21:00.000,152.392,36.545,878.326180
14 Jul 2023 19:58:00.000,346.882,28.075,1063.190764
15 Jan 2024 13:44:00.000,59.280,7.879,1999.997928
04 Apr 2023 12:21:00.000,183.073,28.715,1044.242164
28 Jul 2023 12:47:00.000,52.784,14.631,1569.463544
02 Jul 2023 22:00:00.000,209.991,7.771,1999.981550
13 Apr 2023 10:28:00.000,43.142,20.722,1295.169485
05 Aug 2023 14:12:00.000,113.217,9.250,1896.196626
01 Sep 2023 23:39:00.000,38.031,18.159,1395.196023
12 Jan 2024 18:55:00.000,154.353,9.964,1836.577302
06 Mar 2024 15:00:00.000,293.873,12.686,1672.397101
16 Nov 2023 12:30:00.000,234.517,36.252,886.833560
21 Dec 2023 04:15:00.000,283.013,13.225,1637.745203
19 Jul 2023 14:48:00.000,79.213,7.907,1999.998441
12 May 2023 23:22:00.000,332.493,23.082,1209.901154
18 Aug 2023 10:17:00.000,216.315,21.975,1241.117831
18 Dec 2023 23:20:00.000,2.065,53.079,685.709549
29 Oct 2023 01:05:00.000,319.057,20.368,1302.792775
15 Feb 2024 02:13:00.000,80.775,11.068,1767.785581
24 Sep 2023 16:02:00.000,83.626,20.576,1296.649588
03 Jul 2023 04:52:00.000,125.951,15.566,1511.410929
20 Feb 2024 00:17:00.000,76.577,18.461,1375.977562
20 Jul 2023 21:30:00.000,133.052,14.974,1542.626830
10 Oct 2023 08:33:00.000,306.482,7.882,1999.990033
23 Jun 2023 06:54:00.000,72.039,7.881,1999.998123
29 Jul 2023 12:43:00.000,29.026,29.966,1017.238500
12 Aug 2023 07:04:00.000,279.670,13.141,1645.888948
11 Nov 2023 16:10:00.000,49.890,11.223,1766.262421
03 Feb 2024 09:23:00.000,281.566,13.257,1637.529065
09 Dec 2023 09:51:00.000,239.613,21.859,1244.597045
12 Jan 2024 15:32:00.000,45.251,18.754,1369.661340
18 May 2023 00:59:00.000,135.368,7.781,1999.972689
10 Dec 2023 08:11:00.000,121.199,42.633,791.390272
20 Feb 2024 00:15:00.000,38.163,35.458,898.626071
02 Mar 2024 15:13:00.000,292.676,54.679,673.974109
20 Sep 2023 14:25:00.000,292.918,19.631,1335.098536
11 Oct 2023 10:19:00.000,137.598,14.340,1575.392438
26 Aug 2023 04:57:00.000,82.042,35.983,891.134013
11 Feb 2024 00:34:00.000,267.049,7.759,1999.981630
13 Jun 2023 12:09:00.000,304.606,7.932,1999.982481
30 Jun 2023 06:38:00.000,151.334,20.327,1300.794604
11 Jul 2023 20:02:00.000,285.351,32.174,966.481185
15 Aug 2023 05:22:00.000,44.578,21.821,1250.499746
27 May 2023 19:35:00.000,92.096,22.846,1216.218756
07 May 2023 03:00:00.000,61.309,14.010,1599.798135
28 Oct 2023 02:47:00.000,294.862,13.680,1614.093689
15 Dec 2023 04:31:00.000,312.639,12.972,1655.214411
20 Sep 2023 16:12:00.000,55.858,13.149,1649.979410
02 Mar 2024 15:12:00.000,267.284,34.717,912.901797
29 Apr 2023 03:14:00.000,50.417,24.307,1168.246362
14 Feb 2024 05:35:00.000,195.058,14.592,1555.794727
14 Jun 2023 12:17:00.000,108.104,7.862,1999.983033
17 Jul 2023 21:29:00.000,304.489,7.924,1999.990638
02 Jun 2023 12:31:00.000,254.483,7.862,1999.991750
12 Jul 2023 01:07:00.000,264.520,58.995,645.847509
30 Jan 2024 02:56:00.000,107.172,10.982,1771.436197
20 Feb 2024 17:29:00.000,113.394,9.642,1861.011098
01 May 2023 01:24:00.000,218.156,21.622,1254.103402
17 Jun 2023 07:06:00.000,49.811,11.700,1736.941336
02 Apr 2023 14:09:00.000,61.097,25.882,1124.638878
06 Sep 2023 18:26:00.000,68.089,7.883,1999.977440
15 Sep 2023 19:43:00.000,40.898,40.208,827.007241
24 Jan 2024 06:27:00.000,220.223,7.716,1999.982417
07 Apr 2023 19:04:00.000,181.030,14.441,1573.337216
24 Mar 2024 07:30:00.000,54.066,7.856,1999.998043
05 Oct 2023 05:24:00.000,192.378,12.481,1676.447385
30 Jan 2024 02:57:00.000,96.032,7.773,1999.983132
05 Dec 2023 03:20:00.000,116.435,21.049,1272.332620
12 Jan 2024 10:26:00.000,152.039,13.250,1633.556410
16 May 2023 18:12:00.000,150.033,32.315,962.738509
20 Feb 2024 19:09:00.000,78.360,39.824,828.547914
12 Mar 2024 14:43:00.000,312.604,13.107,1649.283953
19 May 2023 21:29:00.000,29.807,25.336,1139.357447
22 Aug 2023 01:38:00.000,242.766,7.773,1999.976070
16 Sep 2023 16:18:00.000,7.933,29.436,1029.160710
08 Jun 2023 12:27:00.000,52.401,12.910,1666.351008
04 Jan 2024 19:11:00.000,324.083,18.498,1379.934594
15 Oct 2023 05:07:00.000,57.490,8.144,1978.782489
14 Dec 2023 02:59:00.000,54.696,7.844,1999.975840
25 Jul 2023 12:46:00.000,224.016,7.807,1999.976289
10 Aug 2023 13:59:00.000,182.613,9.489,1874.518709
12 May 2023 01:10:00.000,73.362,9.711,1865.966955
09 Aug 2023 05:37:00.000,87.732,7.844,1999.977922
11 Feb 2024 22:52:00.000,227.396,21.974,1236.334284
20 Mar 2024 09:19:00.000,349.015,27.115,1084.947085
27 Dec 2023 02:22:00.000,196.031,19.789,1317.472316
17 Jul 2023 19:56:00.000,64.430,7.905,1999.980361
23 Aug 2023 06:43:00.000,306.639,62.916,624.084877
23 Jul 2023 17:54:00.000,306.090,7.944,1999.990662
16 Dec 2023 01:07:00.000,298.498,29.292,1026.851156
13 Nov 2023 12:44:00.000,80.435,7.869,1999.988815
19 Apr 2023 06:52:00.000,86.489,73.121,585.554519
14 Oct 2023 06:48:00.000,33.070,27.946,1063.430890
03 Nov 2023 16:29:00.000,110.343,13.862,1602.935543
16 Jun 2023 07:08:00.000,50.697,13.471,1631.277159
02 Sep 2023 01:15:00.000,311.987,13.148,1647.333520
07 Mar 2024 13:23:00.000,56.102,8.563,1947.098241
06 Apr 2023 19:04:00.000,195.808,29.533,1025.122808
06 Jan 2024 19:12:00.000,84.052,11.849,1720.347979
20 Apr 2023 05:07:00.000,186.053,12.143,1699.480237
06 Jul 2023 23:35:00.000,311.313,18.152,1396.851241
28 Oct 2023 01:07:00.000,322.525,19.493,1337.610306
30 Jun 2023 06:32:00.000,285.200,13.468,1627.854288
25 Dec 2023 19:38:00.000,230.594,36.184,885.601011
14 Aug 2023 03:39:00.000,190.896,12.364,1683.760261
08 Sep 2023 23:25:00.000,111.170,9.135,1899.553349
21 May 2023 17:59:00.000,269.248,13.413,1634.699989
04 Dec 2023 10:02:00.000,306.092,13.622,1620.354226
22 Feb 2024 20:41:00.000,309.057,18.148,1392.164009
07 Jun 2023 17:29:00.000,218.029,12.196,1701.217051
19 Jun 2023 05:21:00.000,57.967,9.161,1906.015521
19 Jun 2023 08:39:00.000,5.457,28.799,1044.189649
15 Jan 2024 17:03:00.000,185.734,53.881,679.446186
03 Feb 2024 07:45:00.000,357.434,44.364,771.346918
25 Mar 2024 07:19:00.000,292.506,7.822,1999.985651
04 Feb 2024 09:19:00.000,279.439,7.819,1999.985791
01 Oct 2023 13:58:00.000,297.580,13.807,1612.024727
01 Jun 2023 10:58:00.000,112.517,16.015,1494.239620
12 Nov 2023 16:02:00.000,301.018,18.910,1363.914656
31 Oct 2023 19:52:00.000,259.137,13.486,1624.101087
01 Dec 2023 08:33:00.000,15.243,24.483,1162.405175
24 Feb 2024 22:15:00.000,310.407,13.308,1634.468703
15 Jan 2024 13:40:00.000,358.273,25.237,1139.863009
16 Mar 2024 14:37:00.000,122.935,25.444,1127.905173
12 Jul 2023 19:59:00.000,285.118,20.158,1313.915394
17 Sep 2023 17:58:00.000,31.198,26.424,1106.649682
21 Jan 2024 06:38:00.000,177.298,7.699,1999.985312
01 Feb 2024 09:33:00.000,128.037,42.020,799.066743
19 Jul 2023 18:05:00.000,327.635,23.758,1188.310274
25 Apr 2023 06:44:00.000,46.351,13.530,1628.632667
19 Apr 2023 11:54:00.000,323.606,33.563,940.418086
03 Aug 2023 07:28:00.000,142.020,9.004,1908.195051
19 Dec 2023 21:40:00.000,74.837,12.779,1664.064348
24 Jan 2024 11:36:00.000,38.175,35.569,899.922920
16 Feb 2024 02:05:00.000,332.513,30.220,1004.959241
17 Jul 2023 00:57:00.000,214.972,8.077,1975.492720
29 Aug 2023 22:00:00.000,230.750,22.157,1234.335642
13 Feb 2024 22:45:00.000,252.799,7.739,1999.978008
24 Oct 2023 23:31:00.000,273.496,7.814,1999.972426
22 May 2023 16:15:00.000,229.389,7.843,1999.986148
10 Apr 2023 10:35:00.000,64.609,9.269,1901.969936
12 Jun 2023 07:14:00.000,93.037,31.678,975.581728
01 Apr 2023 17:35:00.000,62.700,7.966,1999.999802
10 Jun 2023 10:34:00.000,286.707,7.898,1999.990158
22 May 2023 23:07:00.000,147.240,12.362,1688.224316
28 Sep 2023 10:49:00.000,42.059,19.135,1356.138473
04 Jan 2024 15:55:00.000,59.332,7.867,1999.983580
04 Jan 2024 22:34:00.000,237.408,20.765,1282.189999
16 Apr 2023 08:43:00.000,57.941,7.936,1999.990614
18 Feb 2024 03:37:00.000,275.133,7.772,1999.983691
22 Oct 2023 06:25:00.000,257.872,17.560,1416.607896
12 Jun 2023 10:39:00.000,59.034,8.177,1981.479116
06 Jul 2023 21:56:00.000,3.167,53.723,683.410143
19 Dec 2023 21:35:00.000,193.024,31.073,983.167322
25 Sep 2023 15:55:00.000,310.821,21.714,1256.545633
12 Mar 2024 13:02:00.000,315.290,17.911,1405.475385
28 Apr 2023 09:57:00.000,244.984,24.299,1166.408328
02 Jun 2023 19:16:00.000,267.813,7.900,1999.980776
26 Nov 2023 08:49:00.000,58.662,7.889,1999.978669
03 Apr 2023 19:05:00.000,299.662,7.972,1999.991026
17 Jul 2023 00:56:00.000,227.755,8.502,1944.997577
24 Nov 2023 08:52:00.000,74.500,23.517,1191.673454
22 May 2023 19:45:00.000,54.292,12.955,1663.171434
01 Jul 2023 01:26:00.000,280.545,7.859,1999.985703
02 Feb 2024 09:34:00.000,134.313,8.330,1955.916766
11 Mar 2024 13:05:00.000,308.753,18.294,1388.341995
18 Oct 2023 23:52:00.000,98.944,23.856,1177.095496
17 May 2023 02:40:00.000,184.316,7.745,1999.991528
29 Jul 2023 12:38:00.000,271.048,13.338,1637.063308
15 Mar 2024 16:17:00.000,237.549,21.001,1274.455444
12 Feb 2024 04:03:00.000,97.721,7.767,1999.982271
30 Sep 2023 07:23:00.000,99.416,13.533,1622.367072
24 Apr 2023 10:01:00.000,301.758,7.919,1999.978421
09 Aug 2023 05:33:00.000,149.873,18.674,1366.911314
22 Oct 2023 04:51:00.000,109.319,7.776,1999.977644
28 Jan 2024 11:26:00.000,141.902,39.892,828.356137
10 Mar 2024 16:37:00.000,106.210,8.741,1926.742464
14 Oct 2023 03:26:00.000,49.059,23.886,1179.001647
31 Jan 2024 06:10:00.000,305.495,18.518,1376.940359
30 Mar 2024 07:12:00.000,71.121,16.860,1450.223766
09 Jul 2023 23:29:00.000,323.622,18.198,1395.481598
30 Dec 2023 22:45:00.000,305.235,13.550,1621.785159
20 Oct 2023 22:06:00.000,116.379,11.068,1766.572577
29 Jul 2023 19:26:00.000,219.977,9.137,1900.895329
30 Oct 2023 21:43:00.000,51.882,9.446,1883.211302
14 Apr 2023 08:39:00.000,227.501,13.577,1619.057765
22 Apr 2023 10:06:00.000,311.316,13.348,1639.652890
14 Apr 2023 13:47:00.000,42.075,42.779,795.124418
29 Apr 2023 09:59:00.000,172.436,7.774,1999.992685
16 Jun 2023 08:49:00.000,57.610,8.218,1977.336567
14 Jun 2023 10:30:00.000,340.956,24.000,1180.152387
17 Feb 2024 02:07:00.000,98.543,14.305,1574.606529
24 Feb 2024 20:35:00.000,320.144,17.713,1412.012713
03 Aug 2023 14:10:00.000,317.856,20.700,1295.240131
13 Mar 2024 14:41:00.000,318.590,20.522,1297.652102
19 Sep 2023 19:32:00.000,272.474,33.589,936.688082
13 May 2023 02:45:00.000,264.542,59.029,646.127017
27 Jul 2023 11:09:00.000,86.081,7.890,1999.998721
02 Jul 2023 01:32:00.000,54.432,7.888,1999.979215
22 Dec 2023 23:10:00.000,13.762,25.096,1141.062399
02 Jul 2023 01:32:00.000,52.670,9.145,1906.616733
31 May 2023 12:42:00.000,69.164,24.994,1149.301546
19 Apr 2023 06:56:00.000,62.870,9.418,1889.022891
05 Oct 2023 05:28:00.000,117.320,22.957,1206.773547
01 Aug 2023 10:53:00.000,293.794,54.272,679.416016
11 Jan 2024 17:09:00.000,305.560,7.882,1999.999724
08 Jul 2023 01:16:00.000,3.621,35.613,899.866982
10 Feb 2024 05:40:00.000,297.155,7.819,1999.976246
02 Apr 2023 20:47:00.000,280.951,7.939,1999.989511
09 Apr 2023 10:36:00.000,73.324,13.667,1621.676742
05 May 2023 02:58:00.000,318.948,17.880,1409.468857
03 Feb 2024 06:07:00.000,55.238,12.962,1656.072875
26 Jul 2023 11:10:00.000,105.773,9.922,1849.864868
07 Jun 2023 10:45:00.000,1.568,46.360,752.242297
20 Feb 2024 01:59:00.000,133.915,7.693,1999.973955
09 Dec 2023 03:08:00.000,24.618,70.576,591.154822
02 Apr 2023 15:52:00.000,50.864,10.133,1844.553987
11 Jan 2024 17:16:00.000,80.842,19.785,1324.483560
22 Nov 2023 14:00:00.000,53.597,21.886,1249.069663
26 Jan 2024 13:09:00.000,243.218,23.457,1190.767963
15 Nov 2023 14:18:00.000,41.868,18.506,1382.005642
17 May 2023 18:12:00.000,92.168,32.867,953.061376
14 Aug 2023 03:38:00.000,198.808,7.720,1999.997348
26 Nov 2023 07:06:00.000,100.032,15.747,1503.991935
07 Oct 2023 12:08:00.000,162.237,31.764,971.874838
02 Jan 2024 00:22:00.000,245.572,10.194,1822.742255
29 Jul 2023 14:27:00.000,58.748,8.164,1982.759452
24 Dec 2023 19:47:00.000,68.079,7.827,1999.983553
14 Sep 2023 16:23:00.000,1.634,44.100,777.257954
20 Mar 2024 07:37:00.000,290.049,55.555,667.195766
09 May 2023 21:50:00.000,72.434,24.241,1170.670590
20 Mar 2024 12:43:00.000,109.927,42.257,796.168369
07 Feb 2024 05:53:00.000,1.144,40.223,824.305597
03 Jan 2024 14:11:00.000,164.993,10.801,1782.532620
30 Oct 2023 21:36:00.000,292.951,12.717,1670.883805
06 Oct 2023 10:32:00.000,83.952,7.867,1999.997126
07 Jan 2024 20:42:00.000,287.100,7.835,1999.982529
10 Oct 2023 05:10:00.000,257.756,7.785,1999.990725
02 Jun 2023 14:12:00.000,291.509,7.934,1999.991773
03 Feb 2024 06:01:00.000,310.283,12.509,1682.345609
11 Sep 2023 23:11:00.000,273.378,20.395,1301.285309
05 Jan 2024 17:33:00.000,56.014,7.863,1999.983755
23 Oct 2023 23:34:00.000,268.956,13.326,1632.402605
20 Apr 2023 11:52:00.000,309.707,36.013,894.837227
28 Apr 2023 06:32:00.000,304.704,7.906,1999.990975
15 May 2023 23:15:00.000,324.017,18.612,1379.292338
28 Sep 2023 10:44:00.000,283.356,20.329,1305.830781
27 Feb 2024 20:29:00.000,5.536,31.332,980.901745
21 Feb 2024 01:50:00.000,257.923,29.332,1023.205546
12 Jul 2023 18:20:00.000,179.711,50.912,705.949265
29 Feb 2024 17:01:00.000,5.461,32.413,959.051679
11 Oct 2023 05:09:00.000,272.128,13.295,1634.589280
28 Jul 2023 17:52:00.000,121.854,7.824,1999.995839
01 Aug 2023 15:57:00.000,308.463,62.913,626.260279
02 Nov 2023 16:28:00.000,163.705,7.746,2000.000004
11 Nov 2023 19:30:00.000,43.415,44.429,771.354016
23 Sep 2023 14:19:00.000,316.805,17.887,1410.240707
31 Aug 2023 23:40:00.000,15.466,24.379,1165.240709
20 Mar 2024 10:57:00.000,313.161,12.803,1666.780881
02 Nov 2023 00:59:00.000,150.436,37.138,868.958618
15 Apr 2023 08:38:00.000,241.450,22.297,1232.189270
17 Dec 2023 04:26:00.000,313.699,21.304,1266.421080
24 Feb 2024 22:19:00.000,40.775,39.313,836.184361
16 Feb 2024 19:23:00.000,96.220,7.811,1996.163323
16 Feb 2024 22:40:00.000,313.119,26.377,1102.214472
12 Dec 2023 01:24:00.000,65.997,7.825,1999.983960
09 Mar 2024 16:39:00.000,92.717,13.524,1620.174365
04 Oct 2023 13:56:00.000,178.014,19.004,1354.698481
19 Oct 2023 23:48:00.000,121.346,46.999,740.506776
14 Aug 2023 05:23:00.000,41.341,39.385,838.042905
06 Jan 2024 15:43:00.000,278.945,20.615,1293.094563
19 Jun 2023 05:21:00.000,58.384,7.896,1999.989997
31 May 2023 12:43:00.000,66.285,15.606,1519.076014
16 Nov 2023 19:17:00.000,195.706,28.678,1041.007025
24 Aug 2023 01:37:00.000,316.216,43.629,780.449284
23 May 2023 16:14:00.000,241.175,22.376,1231.726534
14 Oct 2023 01:47:00.000,88.314,13.323,1632.548269
09 Sep 2023 21:38:00.000,33.998,29.536,1024.636406
07 Aug 2023 14:08:00.000,135.891,7.811,1999.980150
24 Oct 2023 21:52:00.000,222.802,21.856,1243.193000
25 Nov 2023 08:49:00.000,64.591,42.418,796.057369
22 Mar 2024 07:30:00.000,284.053,20.178,1307.827615
18 May 2023 18:04:00.000,232.116,13.670,1616.822179
15 Feb 2024 00:32:00.000,57.136,8.142,1975.007379
27 Jan 2024 11:30:00.000,116.786,15.870,1496.622214
30 Oct 2023 01:09:00.000,100.638,7.777,1999.979716
14 Jun 2023 12:07:00.000,302.142,7.927,1999.976296
24 Jul 2023 12:57:00.000,74.573,7.915,1999.990215
27 Feb 2024 22:06:00.000,296.872,13.668,1613.178355
30 Aug 2023 21:57:00.000,247.587,22.211,1233.385225
16 Sep 2023 17:59:00.000,3.698,26.219,1112.869304
01 Mar 2024 18:37:00.000,323.787,18.202,1391.444903
31 Jul 2023 14:14:00.000,304.948,7.938,2000.000045
10 Jan 2024 17:17:00.000,35.853,32.143,965.460549
01 Jan 2024 21:07:00.000,83.744,7.797,1999.991181
23 Nov 2023 12:12:00.000,304.680,12.602,1680.759273
16 Jul 2023 23:18:00.000,143.717,22.604,1218.876536
10 Nov 2023 17:49:00.000,335.305,22.847,1216.038335
27 Jan 2024 08:08:00.000,53.722,8.792,1931.028779
31 Dec 2023 17:42:00.000,291.415,55.320,669.594744
18 Oct 2023 04:52:00.000,305.934,7.857,1999.985214
07 Feb 2024 00:51:00.000,86.887,36.199,884.764776
17 May 2023 23:16:00.000,77.613,18.934,1362.722316
18 Jul 2023 21:32:00.000,91.656,39.281,839.799381
07 May 2023 02:54:00.000,312.843,12.779,1671.404750
23 Feb 2024 00:07:00.000,113.091,42.192,794.660091
30 Dec 2023 17:46:00.000,49.869,74.276,580.909987
02 May 2023 03:03:00.000,296.476,19.251,1349.620733
13 Jan 2024 17:07:00.000,310.973,35.714,896.877774
28 May 2023 17:52:00.000,62.932,14.474,1578.135543
15 Jul 2023 21:35:00.000,323.117,19.411,1345.179480
14 Jun 2023 05:31:00.000,89.180,7.852,1999.987218
24 May 2023 16:14:00.000,289.614,55.921,668.759571
13 Oct 2023 03:31:00.000,60.440,9.375,1887.714042
15 Dec 2023 21:48:00.000,130.648,7.979,1980.065823
06 Dec 2023 03:14:00.000,195.887,19.647,1323.824413
04 Oct 2023 13:57:00.000,166.178,13.256,1635.090410
24 May 2023 19:39:00.000,31.985,27.358,1083.014568
04 Mar 2024 16:54:00.000,61.285,7.836,1999.999819
09 Mar 2024 18:14:00.000,274.035,20.391,1299.227035
24 Sep 2023 10:53:00.000,222.671,21.764,1249.174587
22 Oct 2023 23:38:00.000,262.508,21.625,1253.040954
11 Jul 2023 21:48:00.000,48.682,13.045,1655.571017
09 Nov 2023 21:19:00.000,122.986,15.715,1502.561247
22 Nov 2023 14:02:00.000,74.709,9.901,1852.426501
04 Nov 2023 16:23:00.000,180.282,17.750,1407.206355
05 Jan 2024 20:55:00.000,122.721,15.708,1501.524903
08 Jul 2023 18:32:00.000,110.740,8.533,1947.480037
20 Aug 2023 03:26:00.000,293.636,30.311,1004.643609
23 Jun 2023 06:46:00.000,305.586,7.894,1999.986305
22 Feb 2024 01:52:00.000,166.843,12.754,1656.580614
25 Jun 2023 03:23:00.000,321.514,40.736,818.898878
17 Jun 2023 08:47:00.000,62.268,7.913,1999.999822
26 Mar 2024 10:46:00.000,135.062,14.734,1551.783842
17 Aug 2023 07:01:00.000,65.339,8.381,1962.061913
19 Sep 2023 14:28:00.000,295.955,29.911,1016.871011
19 May 2023 16:29:00.000,88.028,7.908,1999.977457
07 Oct 2023 05:26:00.000,70.898,14.473,1572.106088
30 Jun 2023 01:34:00.000,28.226,26.637,1099.326476
27 May 2023 16:14:00.000,53.502,7.962,1999.999541
25 Mar 2024 07:23:00.000,352.139,26.228,1108.724801
04 Jul 2023 04:45:00.000,271.475,33.178,943.466187
03 Dec 2023 08:26:00.000,338.349,22.885,1213.693726
14 Sep 2023 14:39:00.000,201.406,20.297,1303.760842
20 Apr 2023 06:51:00.000,45.930,40.779,819.552146
15 Nov 2023 10:56:00.000,115.397,7.809,1999.997914
25 Jul 2023 12:50:00.000,175.816,48.861,724.923617
27 Dec 2023 17:49:00.000,206.457,7.727,1999.990301
02 Nov 2023 18:12:00.000,80.713,38.924,844.182163
01 Jun 2023 10:57:00.000,129.852,18.459,1380.852722
05 Jan 2024 17:29:00.000,352.864,26.125,1113.076140
17 Jan 2024 08:33:00.000,127.726,17.125,1435.700532
23 Jan 2024 08:15:00.000,305.614,49.007,722.132297
17 Oct 2023 01:33:00.000,237.821,22.183,1231.580977
27 Sep 2023 10:45:00.000,264.197,13.502,1625.243560
09 Jul 2023 02:56:00.000,167.924,28.110,1055.183598
26 Oct 2023 03:00:00.000,104.932,7.773,1999.974705
29 Nov 2023 06:57:00.000,74.727,40.903,815.334694
28 Dec 2023 17:55:00.000,70.746,7.835,1999.982584
03 Oct 2023 13:55:00.000,274.545,20.500,1299.286338
15 Apr 2023 07:03:00.000,91.807,7.871,1999.987675
18 May 2023 21:33:00.000,55.876,13.134,1651.671681
08 Mar 2024 11:33:00.000,208.679,20.870,1278.711938
30 Jun 2023 23:54:00.000,62.352,7.881,1999.969520
06 Feb 2024 05:58:00.000,59.141,24.902,1146.193654
10 Sep 2023 23:16:00.000,247.959,52.005,695.109888
03 Sep 2023 21:52:00.000,9.022,28.395,1052.896984
31 Dec 2023 00:29:00.000,220.526,26.846,1086.154234
09 Feb 2024 04:07:00.000,5.281,28.026,1059.283021
26 May 2023 19:34:00.000,1.537,39.873,834.336479
23 Aug 2023 23:58:00.000,121.655,36.929,874.040623
25 Jan 2024 13:13:00.000,230.114,37.350,867.485208
13 Sep 2023 16:27:00.000,49.517,24.032,1177.795470
06 Mar 2024 13:22:00.000,15.992,67.796,602.082123
24 Apr 2023 08:28:00.000,70.992,7.907,1999.990641
23 May 2023 21:21:00.000,52.280,55.754,669.250412
30 Sep 2023 15:41:00.000,276.523,7.879,1999.979119
02 Dec 2023 05:05:00.000,204.269,20.557,1289.300857
26 Nov 2023 13:53:00.000,113.843,7.808,1999.990299
15 Oct 2023 10:06:00.000,214.212,10.540,1800.958903
20 Feb 2024 22:33:00.000,55.231,12.890,1657.708666
14 Oct 2023 08:25:00.000,299.880,22.219,1235.370306
25 Mar 2024 10:44:00.000,296.327,36.478,882.550541
26 Dec 2023 19:40:00.000,57.614,15.704,1507.364391
25 Mar 2024 03:58:00.000,205.871,7.672,1999.991235
25 Jan 2024 13:11:00.000,273.305,20.280,1305.565806
02 Nov 2023 23:11:00.000,316.376,20.961,1280.615045
11 Jan 2024 18:56:00.000,162.255,31.752,969.507485
25 Mar 2024 07:24:00.000,16.018,24.156,1170.669605
22 Oct 2023 03:09:00.000,70.950,7.833,1999.977736
08 Jun 2023 14:04:00.000,333.325,30.060,1015.778496
25 Aug 2023 06:36:00.000,285.154,13.387,1631.486862
01 Apr 2023 17:28:00.000,309.574,12.660,1683.379864
04 Feb 2024 09:21:00.000,260.393,18.095,1393.106263
30 Mar 2024 07:13:00.000,82.849,7.807,1999.990514
07 Jun 2023 10:42:00.000,271.314,21.293,1270.142398
07 Jan 2024 20:47:00.000,193.760,36.496,879.411202
21 Aug 2023 06:52:00.000,93.393,13.653,1615.809660
27 Dec 2023 22:55:00.000,323.343,19.158,1350.557551
27 Jul 2023 16:06:00.000,324.037,18.540,1383.275877
22 May 2023 16:19:00.000,190.647,55.690,669.484441
15 Apr 2023 13:43:00.000,319.452,34.365,925.670644
17 Sep 2023 17:56:00.000,341.119,24.767,1155.610796
01 Jul 2023 23:50:00.000,56.219,15.521,1519.590109
10 Apr 2023 13:53:00.000,2.560,25.747,1129.448143
26 Aug 2023 01:34:00.000,8.092,29.206,1031.933150
29 Sep 2023 10:45:00.000,6.818,30.627,1000.871805
13 Jan 2024 13:43:00.000,294.041,12.713,1672.391450
12 Jan 2024 17:07:00.000,307.087,13.507,1626.893144
08 Jan 2024 20:44:00.000,196.365,24.109,1166.375380
02 Mar 2024 15:11:00.000,258.884,21.809,1246.645315
07 Nov 2023 18:00:00.000,42.092,16.339,1479.593784
20 Nov 2023 12:25:00.000,41.858,17.104,1444.665088
11 Jun 2023 09:00:00.000,56.039,8.587,1950.384415
21 Aug 2023 06:47:00.000,328.526,31.814,972.934052
10 Aug 2023 05:28:00.000,197.407,12.664,1666.646968
24 Mar 2024 12:26:00.000,268.055,12.333,1690.778785
14 Jun 2023 08:46:00.000,291.012,12.831,1666.730255
24 Sep 2023 15:56:00.000,309.701,13.484,1631.516802
12 Jul 2023 21:44:00.000,23.106,23.119,1207.867049
15 Oct 2023 06:44:00.000,4.527,34.341,922.145896
05 Dec 2023 11:44:00.000,213.671,19.398,1337.576783
09 Jan 2024 20:39:00.000,247.421,15.292,1524.179653
08 Apr 2023 18:58:00.000,237.935,13.233,1643.063208
09 Sep 2023 01:04:00.000,180.626,15.084,1532.403910
24 Aug 2023 00:00:00.000,83.676,18.691,1369.405201
10 Apr 2023 15:39:00.000,99.030,7.907,1999.976392
25 Jun 2023 06:48:00.000,62.345,26.727,1096.344753
22 Jul 2023 19:38:00.000,305.989,13.687,1620.557611
20 Apr 2023 11:58:00.000,112.570,9.250,1897.555011
16 May 2023 02:40:00.000,195.854,18.436,1377.767168
03 May 2023 04:44:00.000,341.079,24.667,1157.889808
03 Dec 2023 08:31:00.000,62.050,8.139,1979.943610
09 Mar 2024 11:28:00.000,229.291,13.597,1614.169584
03 Sep 2023 01:20:00.000,95.746,7.803,1999.991124
23 Jul 2023 19:43:00.000,114.912,9.330,1888.874623
02 Feb 2024 07:50:00.000,62.987,27.037,1085.789476
21 Jul 2023 14:37:00.000,222.324,21.836,1248.591746
02 Jul 2023 23:49:00.000,55.967,7.890,1999.977390
10 Aug 2023 12:20:00.000,120.061,7.828,1999.990746
20 Mar 2024 12:37:00.000,299.584,7.859,1999.986099
07 Aug 2023 07:23:00.000,69.263,7.888,1999.980619
16 Nov 2023 15:51:00.000,311.608,12.601,1681.684851
27 Mar 2024 08:56:00.000,309.382,13.413,1630.129861
22 Feb 2024 01:49:00.000,219.955,26.010,1108.268026
16 Jan 2024 17:02:00.000,156.557,18.304,1381.529525
27 Aug 2023 23:49:00.000,32.726,34.305,922.661704
08 Feb 2024 05:49:00.000,323.571,33.310,939.970375
03 May 2023 03:08:00.000,54.309,7.905,1999.999511
09 Sep 2023 23:17:00.000,294.603,36.305,886.509033
03 Nov 2023 18:11:00.000,60.817,15.876,1500.837743
21 Mar 2024 14:17:00.000,246.653,10.294,1818.390973
06 Sep 2023 21:41:00.000,308.045,12.514,1685.880454
11 Aug 2023 13:53:00.000,238.074,9.517,1875.654438
29 Dec 2023 19:29:00.000,332.756,34.269,922.645887
11 Oct 2023 05:12:00.000,323.023,39.934,829.295546
02 Dec 2023 08:32:00.000,37.709,18.217,1393.228305
10 Mar 2024 13:12:00.000,29.859,21.810,1250.396272
09 May 2023 04:37:00.000,134.404,14.881,1546.818384
19 Jan 2024 16:49:00.000,256.082,7.803,1999.989460
31 Aug 2023 04:40:00.000,277.553,7.826,1999.996385
09 Jun 2023 10:43:00.000,42.107,16.417,1479.433416
01 Apr 2023 19:17:00.000,95.518,7.905,1999.985957
18 Sep 2023 16:17:00.000,55.663,8.455,1959.283505
25 Jul 2023 14:33:00.000,28.406,27.900,1068.491718
11 Aug 2023 12:18:00.000,131.611,8.705,1932.888408
21 Oct 2023 04:52:00.000,95.253,13.878,1601.218637
25 Jan 2024 04:46:00.000,167.013,7.688,2000.000001
11 May 2023 02:54:00.000,105.515,8.794,1927.077142
12 Jan 2024 15:34:00.000,66.425,7.861,1999.973807
11 Mar 2024 14:49:00.000,5.626,29.324,1028.761229
26 Sep 2023 14:15:00.000,31.788,26.970,1092.067290
19 Jan 2024 13:27:00.000,312.418,13.067,1653.002698
03 May 2023 08:06:00.000,235.620,20.073,1312.877454
19 May 2023 19:45:00.000,302.629,18.775,1372.845317
22 Nov 2023 10:40:00.000,57.336,7.901,1999.974931
09 Dec 2023 09:50:00.000,257.059,17.406,1424.583959
11 Feb 2024 00:35:00.000,271.841,13.177,1638.211000
16 Mar 2024 11:12:00.000,352.541,26.174,1111.451893
25 Jul 2023 14:35:00.000,54.075,7.945,1999.989570
28 Aug 2023 22:04:00.000,171.718,46.843,742.876375
05 Oct 2023 10:30:00.000,5.669,29.396,1029.228809
01 Oct 2023 14:02:00.000,134.712,74.121,582.739391
26 Jul 2023 17:51:00.000,353.389,47.614,739.110673
10 Jan 2024 20:36:00.000,244.809,10.140,1827.964389
10 Aug 2023 08:50:00.000,299.528,12.665,1676.484045
18 Aug 2023 01:55:00.000,85.539,7.826,1999.985410
24 Mar 2024 10:48:00.000,334.068,57.917,652.054039
07 Apr 2023 15:36:00.000,305.816,7.974,1999.990771
24 Dec 2023 18:03:00.000,121.733,7.796,1996.655111
01 Jul 2023 23:46:00.000,281.986,58.179,651.257461
05 Mar 2024 18:33:00.000,101.635,8.326,1956.926107
14 Aug 2023 05:25:00.000,55.185,15.397,1525.642445
16 Oct 2023 08:27:00.000,141.136,7.756,1999.973319
07 Oct 2023 07:02:00.000,300.696,29.053,1035.003119
25 Aug 2023 23:54:00.000,65.060,42.413,795.410726
04 May 2023 04:42:00.000,339.335,26.639,1100.255361
08 Apr 2023 18:57:00.000,251.774,10.937,1784.677218
28 Jul 2023 19:31:00.000,180.983,7.769,1999.985030
21 Jul 2023 21:21:00.000,284.120,13.391,1634.781182
01 Jun 2023 12:33:00.000,244.001,7.846,1999.982413
04 Jul 2023 04:46:00.000,242.867,48.352,728.167153
01 Jan 2024 00:28:00.000,195.276,15.299,1519.088377
15 Feb 2024 05:31:00.000,215.737,11.104,1759.785649
05 Jun 2023 12:31:00.000,29.525,22.339,1236.808695
22 Jun 2023 10:18:00.000,150.138,7.784,1999.980383
02 Nov 2023 00:56:00.000,277.698,34.508,916.579883
19 Feb 2024 00:21:00.000,80.349,7.778,1999.999498
09 Jul 2023 01:13:00.000,330.029,31.491,980.493997
25 Aug 2023 22:15:00.000,94.627,7.814,1999.981785
24 Apr 2023 03:22:00.000,130.656,18.930,1358.394124
19 Apr 2023 05:15:00.000,96.115,7.850,1999.988045
06 Jun 2023 17:33:00.000,181.895,12.354,1690.282180
21 Sep 2023 11:04:00.000,130.092,18.705,1368.737654
03 Apr 2023 15:44:00.000,308.062,18.408,1390.391355
03 May 2023 23:41:00.000,120.378,30.440,1002.071152
02 Jan 2024 22:44:00.000,142.665,13.321,1626.396696
11 Jun 2023 07:17:00.000,86.948,15.591,1515.348169
02 Sep 2023 21:54:00.000,4.487,33.609,936.869501
14 Feb 2024 00:26:00.000,290.403,7.797,1999.999448
15 Jun 2023 08:50:00.000,45.900,13.682,1620.526908
14 Aug 2023 12:08:00.000,195.578,16.049,1488.034626
30 Dec 2023 17:47:00.000,58.475,42.396,795.409472
22 Jul 2023 17:58:00.000,323.493,18.197,1397.891582
20 Nov 2023 14:06:00.000,55.573,13.059,1654.171171
10 Jul 2023 02:51:00.000,262.159,18.399,1381.841972
14 Nov 2023 15:55:00.000,296.231,7.895,1999.972766
31 Dec 2023 22:43:00.000,300.206,13.738,1610.885276
04 Oct 2023 07:15:00.000,61.062,9.454,1884.309336
27 Mar 2024 05:35:00.000,305.433,27.980,1059.552206
27 Oct 2023 02:58:00.000,115.164,7.755,1999.985209
19 Sep 2023 12:45:00.000,218.232,13.503,1622.349763
05 Feb 2024 09:21:00.000,211.591,17.113,1434.164542
16 May 2023 23:11:00.000,306.498,7.937,1999.990118
01 Nov 2023 19:56:00.000,42.894,20.370,1303.850825
10 May 2023 20:03:00.000,173.640,11.415,1747.324621
28 Oct 2023 04:33:00.000,188.390,7.697,1999.983510
29 Dec 2023 16:06:00.000,164.690,7.725,1999.988816
11 Nov 2023 17:49:00.000,25.214,23.371,1198.347577
14 Mar 2024 09:41:00.000,63.300,9.329,1891.071780
26 Aug 2023 04:58:00.000,94.038,23.059,1204.586040
10 Nov 2023 17:48:00.000,318.032,17.815,1411.686944
05 Dec 2023 04:59:00.000,285.305,57.246,655.660072
04 Apr 2023 12:26:00.000,77.406,11.528,1749.800231
20 Nov 2023 17:24:00.000,256.581,28.897,1038.175015
24 Jul 2023 17:57:00.000,35.293,31.354,985.625074
27 Nov 2023 15:24:00.000,250.426,10.705,1794.262326
16 Jan 2024 13:35:00.000,310.134,12.522,1685.033967
16 Aug 2023 07:02:00.000,52.532,12.794,1669.144412
09 Oct 2023 10:25:00.000,111.984,9.168,1899.828914
27 Aug 2023 04:52:00.000,308.357,36.071,890.249872
28 Mar 2024 02:10:00.000,173.190,11.248,1747.934986
08 Nov 2023 16:15:00.000,16.158,67.937,602.620674
26 Aug 2023 06:40:00.000,155.801,9.395,1877.812853
03 Feb 2024 07:41:00.000,304.672,7.848,1999.990478
20 Nov 2023 15:49:00.000,98.296,8.053,1982.846672
01 Mar 2024 16:55:00.000,290.122,12.795,1664.936159
08 Nov 2023 21:22:00.000,111.441,9.090,1901.931646
19 Jun 2023 03:34:00.000,189.324,12.268,1690.594472
06 Feb 2024 00:57:00.000,73.136,7.798,1999.974197
20 Jun 2023 10:19:00.000,164.525,68.213,601.588071
30 Mar 2024 03:47:00.000,1.118,46.664,744.192348
23 Dec 2023 02:35:00.000,113.341,25.453,1126.516435
15 Sep 2023 21:28:00.000,140.570,7.751,1999.990064
17 Nov 2023 10:53:00.000,84.396,7.861,1999.987770
08 Jun 2023 15:48:00.000,148.412,21.324,1267.449324
09 May 2023 02:57:00.000,86.802,7.853,1999.981847
18 Apr 2023 12:01:00.000,88.523,12.777,1671.456301
18 Nov 2023 17:30:00.000,281.375,61.915,629.634776
05 Feb 2024 06:03:00.000,76.607,7.820,1999.993816
18 May 2023 00:55:00.000,187.282,50.894,705.325673
28 Sep 2023 15:54:00.000,137.558,7.789,1999.986926
21 Aug 2023 06:53:00.000,97.587,7.967,1989.103151
10 Apr 2023 13:57:00.000,64.621,7.961,1999.981517
22 Aug 2023 05:01:00.000,305.012,7.872,1999.984134
13 Apr 2023 10:25:00.000,319.013,42.062,803.413531
02 Oct 2023 12:15:00.000,311.853,13.267,1643.146052
31 Aug 2023 21:56:00.000,272.863,33.974,928.244024
21 Jul 2023 14:38:00.000,213.915,34.729,915.204407
02 Sep 2023 03:01:00.000,138.618,23.742,1179.615235
12 Dec 2023 03:02:00.000,28.158,25.711,1122.985821
26 Mar 2024 10:47:00.000,132.130,7.741,1999.999974
23 Sep 2023 12:43:00.000,50.532,13.392,1636.759909
24 Dec 2023 19:41:00.000,205.550,33.524,933.471058
10 Oct 2023 05:17:00.000,46.324,22.715,1218.480579
03 May 2023 01:18:00.000,248.263,7.826,1999.981742
12 Mar 2024 14:47:00.000,36.167,31.827,971.627558
23 Sep 2023 19:21:00.000,251.328,7.828,1999.994196
20 Jan 2024 10:07:00.000,41.812,18.645,1374.602772
19 May 2023 23:05:00.000,301.820,7.933,1999.977828
07 Jun 2023 09:02:00.000,181.835,28.512,1047.115988
28 Jan 2024 04:41:00.000,97.161,26.941,1086.038795
19 Jun 2023 12:03:00.000,195.573,16.811,1452.405334
18 Aug 2023 03:28:00.000,246.980,7.778,1999.979277
31 Dec 2023 21:04:00.000,340.943,25.243,1137.347846
20 Jan 2024 10:01:00.000,276.706,13.126,1645.679129
16 Dec 2023 02:51:00.000,22.493,23.003,1207.445777
15 Apr 2023 12:00:00.000,312.269,12.720,1677.674645
17 Oct 2023 06:40:00.000,49.647,52.494,691.479607
24 Oct 2023 20:13:00.000,148.244,9.462,1872.748432
04 Jun 2023 10:55:00.000,66.530,8.860,1930.626235
03 Oct 2023 12:13:00.000,309.161,13.468,1631.424993
09 Jan 2024 12:17:00.000,117.716,23.308,1195.943403
12 Apr 2023 13:54:00.000,78.230,7.938,1999.977810
22 Sep 2023 11:05:00.000,80.126,8.813,1930.471054
22 Oct 2023 03:02:00.000,312.723,12.658,1674.484573
09 Feb 2024 04:03:00.000,305.766,7.825,2000.000054
12 Nov 2023 12:46:00.000,90.070,7.853,1999.986229
25 Apr 2023 08:18:00.000,306.416,7.916,1999.984158
02 Jun 2023 15:59:00.000,33.221,28.503,1053.861546
13 Apr 2023 12:10:00.000,58.487,7.959,1999.996762
12 Mar 2024 14:44:00.000,322.273,19.679,1330.947301
06 Jan 2024 14:02:00.000,208.689,20.912,1278.291211
01 May 2023 23:42:00.000,166.867,10.927,1776.593936
28 Feb 2024 22:11:00.000,136.801,14.317,1570.495828
29 Sep 2023 15:46:00.000,252.660,27.614,1071.831227
30 Jun 2023 04:57:00.000,68.285,29.972,1013.308943
15 Jul 2023 20:00:00.000,55.511,8.433,1960.891236
23 May 2023 21:26:00.000,105.662,7.849,1999.976250
04 May 2023 23:34:00.000,221.772,7.797,1999.976114
25 Nov 2023 10:24:00.000,280.740,7.853,1999.981961
05 Feb 2024 07:45:00.000,117.614,7.762,1999.995246
28 Nov 2023 10:25:00.000,60.024,7.892,1999.975185
04 Jan 2024 19:13:00.000,5.295,27.877,1064.797826
09 Aug 2023 05:34:00.000,130.534,18.949,1356.434988
18 Apr 2023 08:35:00.000,3.346,35.867,897.202347
08 Jun 2023 07:22:00.000,121.477,7.812,1999.879566
14 Oct 2023 06:47:00.000,5.805,29.863,1016.425092
31 Mar 2023 19:13:00.000,336.993,28.275,1060.703362
15 Dec 2023 06:20:00.000,126.224,7.748,1999.980912
17 Jan 2024 13:35:00.000,4.697,26.881,1092.826982
14 Mar 2024 09:35:00.000,231.415,36.007,888.938732
07 Feb 2024 04:11:00.000,337.499,22.747,1215.593520
26 Sep 2023 15:50:00.000,299.957,7.917,1999.990869
10 Mar 2024 16:28:00.000,302.553,7.859,1999.991439
20 Aug 2023 03:31:00.000,50.135,12.893,1662.083526
04 Apr 2023 20:49:00.000,203.447,10.439,1812.603993
12 Apr 2023 12:07:00.000,328.184,23.731,1190.171857
28 Nov 2023 10:17:00.000,299.281,7.879,1999.991369
24 Jun 2023 03:23:00.000,265.110,21.603,1255.829340
05 Mar 2024 13:22:00.000,235.008,22.079,1236.083980
23 Aug 2023 06:42:00.000,301.537,36.313,886.338316
17 May 2023 19:55:00.000,54.324,7.941,1999.989691
16 Nov 2023 12:32:00.000,83.715,73.392,584.456759
18 Sep 2023 12:55:00.000,78.632,10.497,1813.224074
25 Jan 2024 09:49:00.000,321.864,17.851,1408.700396
04 Dec 2023 10:05:00.000,348.552,51.404,701.474975
11 Aug 2023 08:50:00.000,334.349,22.924,1213.886353
01 Sep 2023 20:14:00.000,162.643,40.963,813.856381
01 Dec 2023 11:59:00.000,119.531,9.348,1885.562220
30 Dec 2023 19:25:00.000,317.099,25.536,1128.740702
23 Oct 2023 23:37:00.000,318.626,42.240,797.294329
21 Oct 2023 22:00:00.000,180.064,11.732,1721.437678
02 Apr 2023 17:33:00.000,59.115,13.686,1623.219278
28 May 2023 16:04:00.000,294.377,12.820,1671.376554
01 Mar 2024 18:42:00.000,59.945,13.694,1612.619371
08 Jun 2023 15:44:00.000,268.037,32.698,956.589740
03 Jan 2024 17:39:00.000,53.517,7.864,1999.994865
22 Jun 2023 06:55:00.000,56.838,13.167,1647.764153
22 Mar 2024 05:51:00.000,176.681,49.514,714.777085
10 Jul 2023 20:11:00.000,57.889,7.910,1999.990650
14 Jul 2023 23:23:00.000,107.561,25.118,1140.279646
10 Apr 2023 12:08:00.000,282.985,13.102,1653.173664
31 Dec 2023 16:01:00.000,163.361,22.892,1207.458328
27 Aug 2023 04:58:00.000,113.499,9.181,1896.295897
08 Sep 2023 20:02:00.000,52.193,9.312,1895.218818
10 Sep 2023 16:30:00.000,195.585,31.785,971.898349
