aer_data/rounded_times/rounded_WS_AER.csv

Time (UTCG),Azimuth (deg),Elevation (deg),Range (km)
14 Mar 2024 13:03:00.000,36.486,28.763,1040.394802
30 Mar 2024 03:49:00.000,345.102,27.061,1082.650901
17 Mar 2024 06:09:00.000,136.390,22.826,1207.081834
27 Mar 2024 08:59:00.000,300.812,22.256,1230.742663
05 Mar 2024 11:51:00.000,70.877,7.812,1999.990110
15 Mar 2024 09:38:00.000,25.919,24.642,1154.584520
11 Mar 2024 09:50:00.000,66.241,25.236,1135.396723
07 Mar 2024 11:37:00.000,239.737,13.643,1610.408888
03 Mar 2024 20:20:00.000,165.977,13.717,1600.132756
13 Mar 2024 11:24:00.000,15.017,22.135,1237.265314
10 Mar 2024 11:29:00.000,275.012,13.128,1642.813332
29 Mar 2024 08:55:00.000,235.323,42.014,797.165445
28 Mar 2024 08:59:00.000,179.211,61.145,630.619581
16 Mar 2024 09:37:00.000,48.438,9.480,1879.324785
13 Mar 2024 13:03:00.000,328.105,18.167,1392.557423
05 Mar 2024 16:54:00.000,78.908,10.150,1827.753785
19 Mar 2024 12:45:00.000,289.428,21.924,1242.585257
13 Mar 2024 16:30:00.000,170.939,7.660,1999.993995
29 Mar 2024 07:18:00.000,82.267,19.533,1331.443456
27 Mar 2024 07:19:00.000,327.513,18.470,1378.037040
24 Mar 2024 09:15:00.000,85.750,11.734,1725.847456
18 Mar 2024 14:30:00.000,242.983,14.196,1579.763591
22 Mar 2024 07:35:00.000,352.795,24.357,1162.938008
20 Mar 2024 09:19:00.000,313.786,12.243,1697.824822
20 Mar 2024 04:18:00.000,157.981,10.182,1817.843343
28 Mar 2024 07:21:00.000,73.398,16.764,1452.915534
03 Mar 2024 11:55:00.000,98.714,12.670,1668.009310
14 Mar 2024 08:01:00.000,82.025,19.481,1334.396462
15 Mar 2024 09:34:00.000,289.396,19.503,1334.189188
16 Mar 2024 09:35:00.000,27.394,20.904,1281.678805
20 Mar 2024 09:21:00.000,343.330,21.307,1266.649718
19 Mar 2024 11:11:00.000,85.592,7.789,1999.990781
15 Mar 2024 13:01:00.000,64.537,26.781,1091.114345
13 Mar 2024 13:08:00.000,64.090,13.648,1614.601524
07 Mar 2024 18:28:00.000,160.810,16.580,1454.484827
20 Mar 2024 09:23:00.000,25.847,20.711,1288.831389
08 Mar 2024 11:40:00.000,49.438,24.320,1163.921072
04 Mar 2024 20:18:00.000,172.444,8.056,1967.859656
09 Mar 2024 18:22:00.000,179.681,7.647,1999.988617
18 Mar 2024 11:10:00.000,34.793,26.361,1103.905739
10 Mar 2024 09:52:00.000,119.955,48.429,725.498412
06 Mar 2024 10:03:00.000,146.341,9.294,1882.452485
08 Mar 2024 15:03:00.000,61.469,12.862,1659.166989
19 Mar 2024 12:50:00.000,137.904,23.896,1172.813679
17 Mar 2024 07:54:00.000,56.874,7.831,1999.990154
13 Mar 2024 07:59:00.000,196.302,12.581,1667.891283
27 Mar 2024 09:03:00.000,117.137,42.240,794.573445
23 Mar 2024 09:17:00.000,70.021,15.593,1510.867636
09 Mar 2024 18:18:00.000,242.345,13.993,1589.294921
06 Mar 2024 15:08:00.000,40.551,16.014,1491.138845
07 Mar 2024 16:40:00.000,306.099,7.826,1999.990555
17 Mar 2024 14:38:00.000,163.057,7.674,1999.978626
22 Mar 2024 04:12:00.000,167.307,24.178,1161.456132
02 Mar 2024 15:21:00.000,50.779,7.822,1999.989889
20 Mar 2024 06:00:00.000,102.388,68.624,596.774278
29 Mar 2024 02:12:00.000,104.881,67.371,600.508368
17 Mar 2024 07:53:00.000,54.003,15.360,1523.799681
30 Mar 2024 05:34:00.000,58.264,12.059,1706.839511
03 Mar 2024 13:31:00.000,252.906,35.816,891.469666
10 Mar 2024 14:59:00.000,86.011,7.773,1999.991073
21 Mar 2024 04:19:00.000,98.478,12.036,1704.407105
07 Mar 2024 15:07:00.000,63.643,7.807,1999.998946
31 Mar 2024 05:26:00.000,328.305,18.081,1393.948000
28 Mar 2024 09:00:00.000,145.863,38.954,839.635193
14 Mar 2024 08:03:00.000,71.138,7.813,1999.989895
02 Mar 2024 20:22:00.000,168.027,28.586,1038.235855
09 Mar 2024 11:37:00.000,42.798,21.478,1260.024926
23 Mar 2024 10:59:00.000,125.331,7.723,1999.973778
27 Mar 2024 05:36:00.000,295.876,7.788,1999.996269
24 Mar 2024 10:52:00.000,188.996,49.917,710.864840
02 Mar 2024 18:42:00.000,83.706,19.999,1311.300675
28 Mar 2024 09:01:00.000,136.899,24.146,1164.712643
17 Mar 2024 12:53:00.000,341.893,55.430,667.867890
22 Mar 2024 05:52:00.000,272.653,33.626,931.082679
17 Mar 2024 06:08:00.000,158.042,21.338,1258.231024
02 Mar 2024 11:55:00.000,145.976,12.205,1691.845312
04 Mar 2024 20:17:00.000,182.339,12.101,1693.691312
24 Mar 2024 09:10:00.000,338.355,28.544,1045.823968
16 Mar 2024 09:33:00.000,341.473,28.598,1044.877474
16 Mar 2024 13:00:00.000,95.473,13.617,1613.539375
08 Mar 2024 16:38:00.000,305.385,13.560,1619.728623
22 Mar 2024 04:17:00.000,79.794,8.597,1938.098828
11 Mar 2024 11:25:00.000,278.314,7.798,1999.990443
17 Mar 2024 09:35:00.000,51.198,7.841,1999.983388
18 Mar 2024 07:45:00.000,282.550,32.036,964.104947
24 Mar 2024 05:47:00.000,304.846,27.421,1072.898938
12 Mar 2024 11:24:00.000,305.095,18.139,1392.814384
05 Mar 2024 15:05:00.000,299.343,7.824,1999.996690
24 Mar 2024 10:56:00.000,136.687,7.708,1999.978658
25 Mar 2024 10:48:00.000,228.035,34.935,906.310742
29 Mar 2024 02:07:00.000,232.673,7.665,1999.986262
30 Mar 2024 05:32:00.000,29.529,21.808,1246.753824
19 Mar 2024 06:02:00.000,171.652,47.003,738.487923
12 Mar 2024 09:41:00.000,244.672,7.738,1999.978631
28 Mar 2024 08:54:00.000,295.289,7.806,1999.991656
16 Mar 2024 14:36:00.000,254.560,27.961,1057.951994
12 Mar 2024 14:51:00.000,95.316,22.972,1204.419374
22 Mar 2024 11:02:00.000,114.584,7.740,1999.995256
27 Mar 2024 10:46:00.000,177.862,7.677,1999.987653
10 Mar 2024 14:58:00.000,82.368,10.992,1772.481550
29 Mar 2024 05:32:00.000,325.945,17.056,1440.301475
28 Mar 2024 05:36:00.000,339.249,21.152,1270.735464
17 Mar 2024 09:33:00.000,30.432,18.298,1386.835680
09 Mar 2024 13:17:00.000,17.539,21.266,1268.255724
23 Mar 2024 12:32:00.000,260.486,7.765,1999.997165
06 Mar 2024 11:45:00.000,81.404,38.291,851.643281
28 Mar 2024 10:41:00.000,199.745,7.818,1989.547522
13 Mar 2024 11:25:00.000,32.200,17.397,1426.959717
17 Mar 2024 11:10:00.000,328.285,17.767,1410.203571
23 Mar 2024 07:30:00.000,319.565,17.110,1438.654691
24 Mar 2024 09:13:00.000,64.188,26.454,1100.012527
21 Mar 2024 07:38:00.000,345.408,26.901,1088.693809
14 Mar 2024 09:43:00.000,48.462,12.835,1662.911528
25 Mar 2024 02:27:00.000,96.376,8.437,1946.678689
02 Mar 2024 16:58:00.000,343.767,21.363,1263.622900
28 Mar 2024 02:12:00.000,211.496,21.065,1266.242850
14 Mar 2024 14:43:00.000,161.152,69.482,593.786276
03 Mar 2024 20:13:00.000,281.552,7.768,1999.990211
16 Mar 2024 06:13:00.000,122.854,14.544,1560.052691
22 Mar 2024 05:54:00.000,0.971,53.375,682.541009
09 Mar 2024 09:56:00.000,97.877,24.429,1158.318915
26 Mar 2024 03:59:00.000,254.515,21.845,1240.816919
05 Mar 2024 18:28:00.000,294.296,22.072,1236.060948
19 Mar 2024 14:29:00.000,211.060,9.172,1890.179705
06 Mar 2024 13:21:00.000,280.305,12.975,1652.129402
21 Mar 2024 12:37:00.000,282.254,7.802,1999.989566
20 Mar 2024 05:56:00.000,232.257,13.493,1616.116382
25 Mar 2024 07:30:00.000,55.997,11.672,1732.040190
05 Mar 2024 11:49:00.000,81.596,19.592,1330.068151
11 Mar 2024 08:10:00.000,103.587,8.528,1942.037996
26 Mar 2024 02:21:00.000,135.656,22.280,1223.852240
26 Mar 2024 09:09:00.000,108.674,8.877,1915.494265
08 Mar 2024 11:41:00.000,53.786,15.249,1529.791869
06 Mar 2024 16:52:00.000,90.676,7.752,1999.989544
29 Mar 2024 02:16:00.000,63.536,9.124,1900.058113
12 Mar 2024 08:08:00.000,88.714,8.359,1956.453051
31 Mar 2024 07:10:00.000,70.899,67.557,600.961556
07 Mar 2024 13:26:00.000,50.657,7.834,1999.981165
13 Mar 2024 09:46:00.000,51.442,14.651,1561.245317
14 Mar 2024 07:57:00.000,189.592,30.304,999.569334
06 Mar 2024 13:29:00.000,51.177,7.833,1999.980978
12 Mar 2024 11:27:00.000,10.178,24.734,1152.072562
18 Mar 2024 06:03:00.000,203.708,12.897,1648.596504
03 Mar 2024 18:34:00.000,312.994,21.528,1256.250431
04 Mar 2024 18:30:00.000,302.531,13.642,1614.023141
13 Mar 2024 08:00:00.000,185.402,18.445,1372.503598
24 Mar 2024 07:30:00.000,2.910,22.658,1218.337363
03 Mar 2024 18:36:00.000,351.145,50.526,705.937681
09 Mar 2024 15:01:00.000,75.483,9.356,1884.153834
08 Mar 2024 09:55:00.000,176.370,17.195,1428.173292
26 Mar 2024 04:03:00.000,41.398,39.454,833.313235
31 Mar 2024 08:53:00.000,171.685,8.936,1905.757301
07 Mar 2024 13:21:00.000,317.737,24.745,1150.952060
23 Mar 2024 05:53:00.000,27.352,30.049,1008.814964
29 Mar 2024 02:15:00.000,64.915,15.514,1512.484321
16 Mar 2024 07:48:00.000,239.091,7.718,1999.990536
02 Mar 2024 18:37:00.000,319.624,20.580,1291.774607
18 Mar 2024 14:31:00.000,226.595,15.681,1501.368605
01 Mar 2024 20:26:00.000,139.336,23.500,1182.831293
10 Mar 2024 16:35:00.000,255.445,55.031,669.340853
04 Mar 2024 20:18:00.000,171.564,7.635,1999.994000
19 Mar 2024 07:41:00.000,283.301,20.138,1307.879477
16 Mar 2024 07:53:00.000,61.719,74.957,577.887232
22 Mar 2024 07:37:00.000,32.189,17.401,1426.094947
19 Mar 2024 07:48:00.000,51.921,7.836,1999.982302
31 Mar 2024 00:26:00.000,117.705,24.456,1152.978758
28 Mar 2024 10:39:00.000,225.750,10.236,1817.640204
06 Mar 2024 11:47:00.000,67.730,14.973,1543.016468
24 Mar 2024 02:26:00.000,155.515,7.645,1999.993899
23 Mar 2024 05:51:00.000,318.795,40.859,813.789425
29 Mar 2024 03:56:00.000,47.768,10.327,1818.427369
25 Mar 2024 09:05:00.000,310.499,13.421,1627.974143
08 Mar 2024 18:25:00.000,169.580,10.976,1764.840153
16 Mar 2024 06:12:00.000,139.498,15.245,1522.386208
26 Mar 2024 10:42:00.000,278.317,7.789,1999.984143
30 Mar 2024 08:57:00.000,156.760,9.157,1890.577382
17 Mar 2024 07:52:00.000,49.782,24.512,1157.592196
28 Mar 2024 02:19:00.000,68.581,7.777,1999.980989
26 Mar 2024 09:10:00.000,109.109,7.746,1999.990201
07 Mar 2024 18:21:00.000,285.481,7.787,1999.984686
02 Mar 2024 15:13:00.000,278.626,7.793,1999.980794
16 Mar 2024 14:37:00.000,227.400,34.248,918.850815
14 Mar 2024 11:20:00.000,337.063,21.344,1265.546248
25 Mar 2024 05:49:00.000,50.663,7.824,1999.997418
03 Mar 2024 15:10:00.000,286.582,7.805,1999.990309
12 Mar 2024 16:25:00.000,281.858,7.793,1999.989652
31 Mar 2024 00:28:00.000,87.648,13.240,1632.043834
12 Mar 2024 13:07:00.000,345.412,22.195,1235.047053
15 Mar 2024 14:40:00.000,243.030,48.050,728.930172
19 Mar 2024 07:47:00.000,47.822,11.950,1715.769982
28 Mar 2024 05:39:00.000,37.801,16.074,1487.570585
22 Mar 2024 09:13:00.000,309.162,7.832,1999.972693
07 Mar 2024 18:29:00.000,150.106,7.657,1999.977354
21 Mar 2024 10:58:00.000,313.668,21.499,1258.891230
16 Mar 2024 14:41:00.000,152.677,10.694,1785.495162
30 Mar 2024 05:28:00.000,316.033,12.374,1687.914898
09 Mar 2024 16:37:00.000,299.943,36.448,881.224616
07 Mar 2024 10:03:00.000,96.759,9.099,1901.482068
19 Mar 2024 12:43:00.000,294.989,7.822,1999.991735
28 Mar 2024 10:38:00.000,239.355,9.544,1866.392449
08 Mar 2024 13:22:00.000,42.625,12.881,1660.120969
17 Mar 2024 06:06:00.000,187.674,12.156,1692.177849
08 Mar 2024 11:42:00.000,56.299,8.992,1913.409588
05 Mar 2024 18:36:00.000,126.367,7.683,1999.979818
18 Mar 2024 12:46:00.000,299.626,7.829,1999.978874
08 Mar 2024 15:00:00.000,8.521,25.352,1132.855051
17 Mar 2024 12:56:00.000,102.322,24.226,1164.028573
31 Mar 2024 07:14:00.000,113.932,7.729,1999.996841
01 Mar 2024 18:46:00.000,82.721,10.966,1772.256234
08 Mar 2024 11:34:00.000,252.311,13.563,1615.950937
16 Mar 2024 13:01:00.000,99.706,7.760,1999.987082
18 Mar 2024 12:52:00.000,118.819,42.524,791.153536
31 Mar 2024 03:47:00.000,352.040,24.439,1158.604093
28 Mar 2024 03:57:00.000,26.400,27.300,1076.365702
17 Mar 2024 06:13:00.000,82.801,7.786,1999.998392
06 Mar 2024 11:39:00.000,228.467,7.720,1999.997968
21 Mar 2024 09:22:00.000,46.821,17.210,1434.616731
23 Mar 2024 12:34:00.000,235.258,12.368,1683.387460
15 Mar 2024 14:45:00.000,137.474,7.995,1977.058449
16 Mar 2024 07:57:00.000,60.620,9.389,1884.506855
16 Mar 2024 12:52:00.000,306.207,7.838,1999.983724
23 Mar 2024 05:54:00.000,41.030,20.233,1305.756278
13 Mar 2024 08:03:00.000,118.438,25.790,1116.494704
03 Mar 2024 16:53:00.000,316.181,12.386,1688.648490
11 Mar 2024 11:32:00.000,39.643,15.782,1503.679420
18 Mar 2024 09:26:00.000,316.608,17.252,1432.746655
29 Mar 2024 02:11:00.000,206.389,59.573,638.065398
31 Mar 2024 05:30:00.000,51.281,18.967,1355.715819
19 Mar 2024 07:42:00.000,298.751,28.980,1033.825328
08 Mar 2024 16:37:00.000,303.199,7.823,1999.991176
30 Mar 2024 07:09:00.000,308.472,13.454,1624.951008
12 Mar 2024 14:54:00.000,104.865,7.742,1999.976400
30 Mar 2024 02:10:00.000,51.250,41.810,799.724559
20 Mar 2024 06:04:00.000,63.234,9.203,1896.759281
05 Mar 2024 16:51:00.000,36.515,28.969,1034.245932
02 Mar 2024 15:21:00.000,47.949,10.066,1837.168447
12 Mar 2024 08:06:00.000,112.419,16.265,1474.506625
23 Mar 2024 04:14:00.000,75.208,12.228,1694.926602
06 Mar 2024 16:50:00.000,78.614,18.494,1374.127990
02 Mar 2024 11:56:00.000,130.850,12.527,1673.593202
21 Mar 2024 12:39:00.000,264.776,18.699,1365.849251
07 Mar 2024 16:46:00.000,75.812,32.795,947.955959
10 Mar 2024 16:38:00.000,138.752,23.740,1176.589219
23 Mar 2024 12:36:00.000,205.343,11.452,1737.444865
16 Mar 2024 07:55:00.000,60.436,25.648,1123.173984
05 Mar 2024 16:54:00.000,81.872,7.767,1999.990294
12 Mar 2024 16:29:00.000,222.227,28.204,1049.964436
22 Mar 2024 05:57:00.000,51.673,14.692,1557.853172
27 Mar 2024 10:43:00.000,210.355,15.478,1510.627665
17 Mar 2024 11:11:00.000,345.549,22.824,1213.449958
05 Mar 2024 11:45:00.000,190.278,30.674,991.733933
12 Mar 2024 11:26:00.000,345.786,26.761,1093.271801
31 Mar 2024 02:04:00.000,271.492,33.835,925.538105
17 Mar 2024 12:49:00.000,303.349,7.835,1999.971952
03 Mar 2024 13:34:00.000,48.182,41.426,806.809353
13 Mar 2024 08:01:00.000,168.264,24.536,1152.031250
03 Mar 2024 18:33:00.000,307.811,13.530,1620.661998
08 Mar 2024 11:38:00.000,5.668,60.510,635.625258
20 Mar 2024 12:47:00.000,153.860,19.742,1319.761642
24 Mar 2024 02:29:00.000,117.070,8.261,1957.147699
08 Mar 2024 13:15:00.000,290.075,7.817,1999.984653
20 Mar 2024 04:20:00.000,129.264,11.960,1705.912188
26 Mar 2024 07:20:00.000,308.646,7.817,1999.990742
28 Mar 2024 04:00:00.000,52.019,7.809,1999.969441
13 Mar 2024 11:19:00.000,293.292,7.821,1999.994036
09 Mar 2024 13:20:00.000,53.084,7.832,1999.975613
14 Mar 2024 16:21:00.000,259.635,7.755,1999.995396
10 Mar 2024 11:36:00.000,47.743,11.906,1718.880149
17 Mar 2024 14:35:00.000,196.838,21.021,1270.274568
18 Mar 2024 14:33:00.000,194.687,12.511,1671.987108
20 Mar 2024 12:43:00.000,263.532,30.742,991.905471
29 Mar 2024 05:36:00.000,42.070,16.165,1482.851921
03 Mar 2024 11:54:00.000,112.598,16.567,1460.150219
13 Mar 2024 07:58:00.000,203.314,7.681,1999.983397
14 Mar 2024 09:35:00.000,264.676,7.770,1999.982483
18 Mar 2024 07:50:00.000,49.699,13.847,1604.624287
22 Mar 2024 10:54:00.000,303.048,13.617,1616.967517
12 Mar 2024 13:04:00.000,307.999,7.841,1999.980615
19 Mar 2024 07:46:00.000,39.972,18.526,1376.290938
31 Mar 2024 03:44:00.000,300.546,12.318,1689.277466
10 Mar 2024 09:53:00.000,89.527,33.798,929.036402
05 Mar 2024 15:07:00.000,320.046,17.083,1440.502281
16 Mar 2024 14:33:00.000,285.789,7.807,1999.997087
04 Mar 2024 15:10:00.000,330.833,22.129,1236.564108
31 Mar 2024 02:02:00.000,256.710,13.431,1619.506769
20 Mar 2024 05:57:00.000,230.292,21.901,1238.623781
10 Mar 2024 16:34:00.000,280.816,34.834,909.116402
08 Mar 2024 13:17:00.000,309.641,17.784,1408.632496
13 Mar 2024 08:04:00.000,99.511,19.997,1312.683046
05 Mar 2024 20:14:00.000,192.250,8.266,1952.407582
24 Mar 2024 04:04:00.000,225.067,13.452,1616.816961
02 Mar 2024 17:02:00.000,60.969,7.798,1999.986609
10 Mar 2024 14:54:00.000,7.021,33.299,939.997125
08 Mar 2024 09:57:00.000,137.103,23.264,1193.583083
19 Mar 2024 11:07:00.000,38.301,31.428,978.712562
15 Mar 2024 14:37:00.000,288.906,13.497,1622.669624
14 Mar 2024 09:44:00.000,52.776,7.840,1999.991139
22 Mar 2024 12:42:00.000,170.141,7.679,1999.993371
04 Mar 2024 13:31:00.000,0.613,51.976,694.549972
16 Mar 2024 09:31:00.000,300.105,18.554,1374.248719
12 Mar 2024 11:30:00.000,49.466,8.758,1931.209706
09 Mar 2024 18:22:00.000,182.953,8.828,1911.716696
13 Mar 2024 16:29:00.000,182.266,12.412,1676.811660
19 Mar 2024 14:28:00.000,224.474,9.930,1838.385530
21 Mar 2024 05:55:00.000,250.803,35.857,889.623259
14 Mar 2024 09:39:00.000,320.132,40.560,818.992184
24 Mar 2024 05:48:00.000,331.378,33.701,931.137033
11 Mar 2024 14:55:00.000,90.803,12.773,1661.721887
11 Mar 2024 11:33:00.000,47.872,10.174,1831.246720
22 Mar 2024 07:34:00.000,330.463,22.289,1230.648893
30 Mar 2024 02:09:00.000,26.959,71.402,586.537270
01 Mar 2024 16:59:00.000,322.619,16.983,1444.495213
28 Mar 2024 08:58:00.000,259.180,56.370,660.182737
12 Mar 2024 16:32:00.000,165.553,13.909,1591.270851
09 Mar 2024 16:34:00.000,299.432,7.818,1999.991904
20 Mar 2024 09:25:00.000,53.755,11.448,1746.984921
16 Mar 2024 11:18:00.000,56.179,11.760,1727.245445
27 Mar 2024 10:39:00.000,267.903,7.771,1999.978510
29 Mar 2024 05:33:00.000,343.265,21.266,1266.533244
02 Mar 2024 18:43:00.000,91.154,12.813,1657.470202
09 Mar 2024 16:35:00.000,299.598,13.747,1608.869500
22 Mar 2024 07:39:00.000,51.878,7.833,1999.998958
30 Mar 2024 05:27:00.000,307.778,7.801,2000.000058
23 Mar 2024 09:16:00.000,56.991,22.204,1233.176922
29 Mar 2024 07:17:00.000,68.650,28.853,1036.419180
26 Mar 2024 05:38:00.000,289.357,7.780,1999.991557
23 Mar 2024 04:11:00.000,121.240,38.313,848.800011
03 Mar 2024 15:14:00.000,346.313,26.628,1096.222527
11 Mar 2024 13:07:00.000,305.513,7.838,1999.984682
12 Mar 2024 11:23:00.000,293.777,12.565,1677.504111
30 Mar 2024 07:12:00.000,353.194,48.802,722.315758
01 Mar 2024 18:39:00.000,314.862,13.030,1649.633717
18 Mar 2024 14:32:00.000,209.640,15.009,1534.375331
07 Mar 2024 10:04:00.000,93.126,7.780,2000.000018
15 Mar 2024 06:16:00.000,131.409,9.557,1864.054141
15 Mar 2024 11:15:00.000,312.175,12.233,1698.875020
03 Mar 2024 20:16:00.000,246.410,24.434,1154.909150
16 Mar 2024 06:11:00.000,155.718,13.861,1594.688242
02 Mar 2024 20:21:00.000,194.034,38.786,840.374806
19 Mar 2024 09:29:00.000,56.066,7.834,1999.984025
30 Mar 2024 02:06:00.000,246.055,22.009,1233.748306
10 Mar 2024 11:32:00.000,326.822,36.512,881.509445
08 Mar 2024 09:53:00.000,196.615,7.686,1999.999658
14 Mar 2024 11:19:00.000,319.778,17.089,1440.779308
21 Mar 2024 06:00:00.000,57.208,15.761,1502.647045
31 Mar 2024 00:29:00.000,79.205,7.747,1999.981306
10 Mar 2024 16:31:00.000,294.744,7.813,1999.975580
15 Mar 2024 11:14:00.000,303.676,7.835,1999.987624
27 Mar 2024 07:24:00.000,66.559,14.437,1570.585552
12 Mar 2024 14:50:00.000,83.280,35.859,890.951536
04 Mar 2024 11:48:00.000,186.152,18.550,1368.669523
04 Mar 2024 13:35:00.000,55.125,7.827,1999.982836
05 Mar 2024 20:14:00.000,189.871,7.638,1999.991579
09 Mar 2024 15:02:00.000,77.605,7.787,1999.982904
10 Mar 2024 14:51:00.000,314.866,12.982,1654.092665
20 Mar 2024 09:24:00.000,42.240,16.255,1480.063726
26 Mar 2024 04:06:00.000,57.064,7.806,1999.973022
11 Mar 2024 14:49:00.000,319.847,20.580,1293.253573
10 Mar 2024 13:12:00.000,340.006,21.208,1270.495068
23 Mar 2024 09:12:00.000,326.368,18.974,1357.438772
07 Mar 2024 13:23:00.000,8.066,26.466,1101.225338
19 Mar 2024 12:48:00.000,180.302,59.745,638.780479
08 Mar 2024 10:01:00.000,82.395,7.798,1999.993421
29 Mar 2024 07:16:00.000,42.217,38.690,845.460552
30 Mar 2024 03:47:00.000,304.170,18.208,1386.633723
05 Mar 2024 11:42:00.000,216.666,7.706,1999.992170
16 Mar 2024 11:17:00.000,44.540,16.680,1459.707341
12 Mar 2024 09:44:00.000,251.972,35.807,891.647419
18 Mar 2024 12:48:00.000,300.230,22.164,1234.682924
11 Mar 2024 16:35:00.000,154.387,19.347,1334.372494
31 Mar 2024 07:07:00.000,305.880,22.003,1239.029898
09 Mar 2024 09:58:00.000,74.363,7.811,1999.982256
14 Mar 2024 16:26:00.000,192.482,8.594,1930.081057
15 Mar 2024 09:33:00.000,279.828,12.939,1653.821363
31 Mar 2024 08:48:00.000,251.774,16.162,1478.777584
25 Mar 2024 02:23:00.000,154.617,13.627,1605.486581
11 Mar 2024 14:53:00.000,69.672,29.542,1020.022178
12 Mar 2024 13:08:00.000,7.643,24.238,1167.279068
10 Mar 2024 09:47:00.000,222.441,7.708,1999.999952
13 Mar 2024 14:50:00.000,114.841,9.135,1895.352502
16 Mar 2024 07:57:00.000,60.657,7.827,1999.985327
05 Mar 2024 11:48:00.000,94.572,29.221,1027.373534
06 Mar 2024 13:22:00.000,289.971,19.517,1333.844402
21 Mar 2024 12:45:00.000,157.412,8.991,1902.774875
23 Mar 2024 10:57:00.000,128.285,25.110,1135.988830
21 Mar 2024 04:20:00.000,88.641,8.042,1978.567419
29 Mar 2024 03:49:00.000,283.909,12.807,1658.796071
21 Mar 2024 12:40:00.000,247.727,25.017,1139.501592
23 Mar 2024 09:13:00.000,343.126,25.765,1120.817807
26 Mar 2024 05:42:00.000,348.895,25.525,1126.793778
08 Mar 2024 11:33:00.000,250.087,7.752,1999.990600
05 Mar 2024 16:52:00.000,57.589,22.516,1221.136856
15 Mar 2024 06:17:00.000,118.298,8.681,1928.236580
27 Mar 2024 05:37:00.000,304.171,12.289,1692.393302
25 Mar 2024 07:28:00.000,27.804,21.129,1272.445714
07 Mar 2024 13:20:00.000,300.675,18.584,1373.222091
05 Mar 2024 13:32:00.000,52.695,7.830,1999.989645
12 Mar 2024 11:30:00.000,50.794,7.841,1999.990240
31 Mar 2024 00:22:00.000,194.443,12.476,1670.126971
04 Mar 2024 11:53:00.000,87.268,14.207,1582.079309
05 Mar 2024 13:28:00.000,0.085,39.627,832.526635
07 Mar 2024 18:24:00.000,254.010,27.620,1065.534729
14 Mar 2024 07:55:00.000,211.598,13.151,1635.322225
02 Mar 2024 15:16:00.000,312.573,25.892,1116.293421
02 Mar 2024 20:23:00.000,154.960,19.187,1339.304388
01 Mar 2024 18:38:00.000,308.758,7.815,1999.983171
07 Mar 2024 16:41:00.000,310.040,13.366,1631.038503
24 Mar 2024 09:14:00.000,77.801,18.206,1387.987731
23 Mar 2024 07:35:00.000,47.467,11.481,1744.809298
04 Mar 2024 13:34:00.000,51.293,14.550,1566.020816
17 Mar 2024 11:08:00.000,308.723,7.840,1999.983865
17 Mar 2024 07:45:00.000,249.627,7.734,1999.991105
14 Mar 2024 11:18:00.000,307.538,12.246,1697.766011
17 Mar 2024 11:16:00.000,69.331,8.102,1978.042287
07 Mar 2024 11:45:00.000,60.415,9.343,1887.871890
23 Mar 2024 05:49:00.000,276.391,20.516,1291.927697
12 Mar 2024 09:47:00.000,48.919,41.661,803.942434
26 Mar 2024 07:27:00.000,60.866,12.759,1665.510705
22 Mar 2024 09:21:00.000,72.016,8.606,1939.887448
11 Mar 2024 13:11:00.000,4.988,22.943,1209.386241
30 Mar 2024 05:30:00.000,345.429,22.052,1238.148238
24 Mar 2024 09:07:00.000,308.263,7.828,1999.977011
08 Mar 2024 09:58:00.000,115.863,20.887,1277.842912
11 Mar 2024 16:32:00.000,233.523,40.506,817.239052
26 Mar 2024 09:07:00.000,101.433,24.123,1167.167910
11 Mar 2024 09:52:00.000,62.986,9.248,1894.590262
16 Mar 2024 07:49:00.000,239.172,13.560,1613.917995
22 Mar 2024 04:14:00.000,118.235,25.205,1132.027691
08 Mar 2024 14:58:00.000,328.379,17.826,1407.178879
04 Mar 2024 16:54:00.000,33.411,24.715,1150.819380
07 Mar 2024 11:38:00.000,239.960,22.171,1231.309872
10 Mar 2024 11:33:00.000,1.631,35.331,902.311886
20 Mar 2024 11:03:00.000,3.182,39.995,827.283939
30 Mar 2024 08:50:00.000,275.975,12.834,1658.540746
27 Mar 2024 09:02:00.000,109.241,74.192,579.545972
30 Mar 2024 05:35:00.000,65.884,7.798,1999.972723
09 Mar 2024 16:39:00.000,119.818,74.347,578.766811
27 Mar 2024 09:05:00.000,119.086,15.725,1500.126711
30 Mar 2024 03:54:00.000,50.746,7.808,1999.990581
25 Mar 2024 10:49:00.000,195.367,33.059,941.313178
18 Mar 2024 11:14:00.000,77.234,7.803,1999.984310
29 Mar 2024 03:55:00.000,39.544,16.014,1489.697784
24 Mar 2024 10:50:00.000,272.857,33.284,938.801713
01 Mar 2024 20:23:00.000,253.960,54.638,671.231911
24 Mar 2024 07:26:00.000,303.460,7.813,1999.987055
13 Mar 2024 09:39:00.000,258.021,13.429,1623.683374
25 Mar 2024 07:25:00.000,327.319,17.241,1432.797217
27 Mar 2024 09:04:00.000,118.469,25.416,1127.087886
10 Mar 2024 13:09:00.000,301.673,7.833,1999.996230
13 Mar 2024 09:42:00.000,301.219,50.226,709.484037
23 Mar 2024 07:29:00.000,307.309,12.257,1695.682759
02 Mar 2024 13:41:00.000,62.607,7.815,1999.993149
09 Mar 2024 09:57:00.000,85.038,16.838,1449.685380
06 Mar 2024 18:31:00.000,147.477,21.761,1242.165620
04 Mar 2024 11:54:00.000,79.487,8.975,1912.146835
25 Mar 2024 10:44:00.000,286.176,7.802,1999.976793
08 Mar 2024 13:21:00.000,30.553,18.215,1390.200578
15 Mar 2024 09:36:00.000,331.948,33.422,937.756252
05 Mar 2024 18:27:00.000,296.135,13.642,1613.621154
12 Mar 2024 14:45:00.000,307.980,13.525,1622.563577
27 Mar 2024 03:54:00.000,259.079,7.717,1999.982104
04 Mar 2024 11:47:00.000,196.937,12.619,1666.479016
19 Mar 2024 12:47:00.000,256.863,55.760,664.744705
04 Mar 2024 20:15:00.000,213.397,18.448,1370.744378
17 Mar 2024 14:37:00.000,169.344,11.285,1746.867898
02 Mar 2024 15:20:00.000,39.736,15.638,1509.672223
26 Mar 2024 09:08:00.000,106.032,15.112,1532.225681
02 Mar 2024 15:15:00.000,295.767,19.040,1353.250837
17 Mar 2024 07:46:00.000,251.741,13.490,1618.891549
07 Mar 2024 18:23:00.000,270.254,19.696,1323.787565
17 Mar 2024 11:12:00.000,8.305,25.254,1136.329840
20 Mar 2024 04:22:00.000,101.510,7.741,1999.996879
05 Mar 2024 16:47:00.000,315.812,12.857,1660.749366
22 Mar 2024 12:36:00.000,263.992,11.871,1716.464659
06 Mar 2024 13:23:00.000,306.226,27.244,1079.092212
19 Mar 2024 11:04:00.000,324.827,19.579,1333.032721
08 Mar 2024 13:20:00.000,12.789,23.189,1201.034903
18 Mar 2024 14:28:00.000,267.181,7.776,1999.987073
02 Mar 2024 18:38:00.000,333.838,30.439,999.318061
15 Mar 2024 14:42:00.000,158.865,33.948,923.876331
18 Mar 2024 11:08:00.000,344.596,24.710,1152.644981
05 Mar 2024 15:11:00.000,36.285,16.252,1479.690522
29 Mar 2024 03:48:00.000,277.391,7.746,1999.990288
31 Mar 2024 07:13:00.000,111.935,15.560,1508.254566
13 Mar 2024 11:21:00.000,313.310,17.480,1422.555266
30 Mar 2024 03:48:00.000,321.360,23.914,1174.459410
20 Mar 2024 04:19:00.000,144.137,11.808,1713.965907
23 Mar 2024 04:08:00.000,202.949,20.384,1292.493337
19 Mar 2024 09:22:00.000,309.971,12.235,1698.090467
15 Mar 2024 07:59:00.000,68.079,14.973,1542.881382
21 Mar 2024 12:41:00.000,223.008,28.751,1037.116171
05 Mar 2024 11:44:00.000,204.557,20.670,1284.242136
11 Mar 2024 16:31:00.000,262.416,30.624,993.815575
26 Mar 2024 10:49:00.000,162.253,7.683,1999.973712
25 Mar 2024 05:42:00.000,288.897,12.733,1664.719729
22 Mar 2024 05:59:00.000,55.388,7.822,1999.984110
19 Mar 2024 05:58:00.000,221.887,7.681,1999.987401
23 Mar 2024 04:09:00.000,188.343,30.021,1004.505993
10 Mar 2024 18:14:00.000,248.983,7.725,1999.990788
17 Mar 2024 14:36:00.000,180.525,16.276,1470.444777
17 Mar 2024 09:30:00.000,326.594,22.938,1209.025649
10 Mar 2024 09:51:00.000,172.793,47.767,731.548870
16 Mar 2024 14:39:00.000,173.102,24.484,1153.357141
13 Mar 2024 09:45:00.000,45.674,23.152,1201.700042
09 Mar 2024 11:34:00.000,312.394,44.916,763.822411
18 Mar 2024 11:13:00.000,75.211,9.290,1890.033007
28 Mar 2024 10:41:00.000,199.043,7.682,1999.993064
02 Mar 2024 18:44:00.000,95.496,7.732,1999.976719
25 Mar 2024 05:47:00.000,27.498,20.957,1278.365009
02 Mar 2024 16:59:00.000,5.324,22.942,1208.163486
25 Mar 2024 02:25:00.000,122.124,14.103,1581.687347
06 Mar 2024 11:43:00.000,189.601,55.364,667.168054
25 Mar 2024 05:48:00.000,40.226,14.769,1554.180120
07 Mar 2024 15:03:00.000,6.510,23.471,1191.363181
27 Mar 2024 09:07:00.000,119.565,7.729,1999.981632
12 Mar 2024 09:42:00.000,245.853,13.573,1614.517303
14 Mar 2024 14:46:00.000,127.192,15.489,1510.865932
28 Mar 2024 03:53:00.000,282.517,20.117,1306.709017
02 Mar 2024 13:35:00.000,213.700,61.067,631.396366
12 Mar 2024 13:10:00.000,46.920,17.330,1429.064556
23 Mar 2024 12:38:00.000,187.897,7.679,1999.988098
28 Mar 2024 05:40:00.000,49.267,11.312,1754.437509
20 Mar 2024 07:40:00.000,311.554,26.097,1110.247101
02 Mar 2024 18:41:00.000,70.073,29.724,1014.362140
13 Mar 2024 16:28:00.000,196.045,16.311,1468.342159
28 Mar 2024 02:18:00.000,72.239,13.580,1615.071672
04 Mar 2024 20:14:00.000,232.518,18.315,1377.546324
07 Mar 2024 13:19:00.000,289.746,12.724,1667.694819
29 Mar 2024 05:38:00.000,60.218,7.807,1999.986549
26 Mar 2024 05:43:00.000,12.208,23.444,1191.363901
15 Mar 2024 13:03:00.000,86.158,11.864,1717.623324
02 Mar 2024 13:33:00.000,231.760,22.007,1236.436926
12 Mar 2024 08:05:00.000,130.045,18.699,1363.498652
16 Mar 2024 12:53:00.000,310.275,13.443,1627.625302
14 Mar 2024 13:02:00.000,8.395,30.590,997.614368
13 Mar 2024 13:02:00.000,316.746,12.610,1676.499411
12 Mar 2024 16:33:00.000,157.784,8.718,1921.065563
23 Mar 2024 07:33:00.000,19.529,20.780,1285.816935
26 Mar 2024 05:39:00.000,297.119,12.432,1683.238045
24 Mar 2024 10:55:00.000,140.188,13.988,1589.470197
06 Mar 2024 11:46:00.000,71.894,23.913,1175.712005
01 Mar 2024 20:21:00.000,288.442,21.856,1242.615935
30 Mar 2024 00:25:00.000,187.003,7.620,1999.987710
22 Mar 2024 04:18:00.000,78.706,7.779,1999.972488
16 Mar 2024 09:34:00.000,7.617,26.697,1094.933796
16 Mar 2024 09:32:00.000,317.072,24.781,1149.744380
05 Mar 2024 18:29:00.000,290.113,35.873,890.242545
06 Mar 2024 16:43:00.000,308.118,7.828,1999.970329
12 Mar 2024 08:07:00.000,98.680,12.425,1682.602611
10 Mar 2024 16:32:00.000,292.644,13.605,1616.279657
26 Mar 2024 05:45:00.000,42.301,13.033,1650.114095
28 Mar 2024 05:38:00.000,21.516,20.490,1295.926432
21 Mar 2024 10:56:00.000,304.960,7.832,1999.992514
23 Mar 2024 10:50:00.000,297.555,7.821,1999.991301
21 Mar 2024 11:00:00.000,352.608,49.603,715.532932
28 Mar 2024 07:20:00.000,60.027,24.044,1171.189412
07 Mar 2024 11:45:00.000,60.474,7.828,1999.981833
19 Mar 2024 12:46:00.000,281.698,35.038,906.115495
12 Mar 2024 14:46:00.000,313.264,21.495,1258.899827
02 Mar 2024 20:16:00.000,288.752,7.779,1999.985726
06 Mar 2024 11:41:00.000,222.677,21.817,1242.942164
21 Mar 2024 07:40:00.000,28.689,19.532,1334.653032
19 Mar 2024 11:05:00.000,341.177,27.249,1079.824221
24 Mar 2024 04:06:00.000,212.360,34.473,912.829236
13 Mar 2024 13:09:00.000,72.301,8.674,1934.584200
25 Mar 2024 05:49:00.000,48.451,9.472,1878.470758
29 Mar 2024 05:31:00.000,313.654,12.235,1696.226707
27 Mar 2024 02:16:00.000,176.603,27.068,1077.001090
16 Mar 2024 14:35:00.000,270.738,19.861,1318.591248
14 Mar 2024 16:22:00.000,248.229,10.381,1809.744509
28 Mar 2024 02:19:00.000,68.629,7.862,1993.451527
13 Mar 2024 14:44:00.000,309.218,36.030,889.067738
10 Mar 2024 13:13:00.000,1.408,22.684,1218.196334
20 Mar 2024 11:05:00.000,69.317,29.186,1029.122975
15 Mar 2024 07:51:00.000,227.986,7.703,1999.985322
15 Mar 2024 08:00:00.000,65.689,8.787,1927.411733
27 Mar 2024 07:25:00.000,74.806,9.233,1893.345801
05 Mar 2024 13:27:00.000,320.293,40.137,824.906403
11 Mar 2024 08:11:00.000,100.703,7.765,1999.989589
22 Mar 2024 04:09:00.000,202.632,7.650,1999.983520
14 Mar 2024 14:47:00.000,126.108,9.068,1899.009498
10 Mar 2024 09:56:00.000,68.100,8.060,1981.662577
31 Mar 2024 02:03:00.000,261.593,21.489,1253.099615
30 Mar 2024 07:08:00.000,305.130,7.807,1999.992737
10 Mar 2024 11:34:00.000,26.227,26.829,1091.206663
25 Mar 2024 10:47:00.000,255.437,28.282,1049.844779
21 Mar 2024 04:16:00.000,148.267,18.109,1385.971887
31 Mar 2024 03:46:00.000,329.685,22.268,1229.500143
24 Mar 2024 04:03:00.000,227.379,7.672,1999.995344
07 Mar 2024 14:59:00.000,306.972,7.835,1999.986728
24 Mar 2024 10:56:00.000,136.886,8.103,1969.799217
19 Mar 2024 07:45:00.000,26.398,26.999,1086.079759
14 Mar 2024 14:45:00.000,129.254,24.996,1138.833228
17 Mar 2024 11:15:00.000,61.161,12.849,1661.003583
22 Mar 2024 07:36:00.000,15.020,22.173,1235.216427
13 Mar 2024 08:05:00.000,87.395,13.979,1594.499549
12 Mar 2024 11:25:00.000,322.263,23.730,1183.083386
14 Mar 2024 14:40:00.000,294.727,22.190,1233.289137
21 Mar 2024 05:59:00.000,55.021,25.349,1131.447538
29 Mar 2024 03:57:00.000,50.866,7.809,1999.989867
08 Mar 2024 13:16:00.000,297.941,12.473,1683.329248
04 Mar 2024 15:13:00.000,32.311,17.332,1428.888908
18 Mar 2024 12:55:00.000,120.183,7.727,1999.995277
20 Mar 2024 07:39:00.000,294.828,19.104,1350.097931
10 Mar 2024 13:10:00.000,310.291,12.287,1695.474826
19 Mar 2024 11:10:00.000,82.097,10.851,1782.765427
25 Mar 2024 04:01:00.000,238.464,13.591,1609.914259
15 Mar 2024 09:37:00.000,3.144,31.951,967.964354
16 Mar 2024 13:01:00.000,99.598,7.922,1987.581078
21 Mar 2024 07:34:00.000,285.914,7.790,1999.990166
04 Mar 2024 13:28:00.000,263.825,21.423,1259.131587
27 Mar 2024 07:22:00.000,34.436,26.143,1109.188718
30 Mar 2024 03:53:00.000,49.283,8.831,1923.273999
08 Mar 2024 16:46:00.000,110.146,7.720,1999.989859
21 Mar 2024 11:02:00.000,82.507,35.482,898.039187
20 Mar 2024 05:58:00.000,225.898,35.634,892.948051
19 Mar 2024 07:39:00.000,269.095,7.765,1999.980212
31 Mar 2024 05:29:00.000,32.955,24.205,1166.251822
23 Mar 2024 05:47:00.000,264.179,7.741,1999.991604
17 Mar 2024 14:34:00.000,218.234,23.455,1186.632644
18 Mar 2024 09:31:00.000,45.671,11.832,1723.536431
04 Mar 2024 13:32:00.000,33.325,35.776,893.861882
04 Mar 2024 15:09:00.000,313.558,17.433,1424.100102
31 Mar 2024 08:53:00.000,169.169,7.673,1999.991291
16 Mar 2024 09:36:00.000,40.165,14.759,1556.084283
08 Mar 2024 11:36:00.000,263.841,34.906,908.157777
24 Mar 2024 10:51:00.000,244.290,48.827,721.501147
19 Mar 2024 14:26:00.000,250.176,7.746,1999.994540
11 Mar 2024 11:30:00.000,5.607,28.886,1038.005291
17 Mar 2024 09:34:00.000,42.518,12.940,1657.041094
02 Mar 2024 20:20:00.000,233.298,39.895,824.717781
21 Mar 2024 04:20:00.000,88.052,7.764,1999.999187
31 Mar 2024 03:45:00.000,312.413,17.468,1419.876106
05 Mar 2024 15:08:00.000,337.346,21.320,1265.805481
28 Mar 2024 05:33:00.000,301.176,7.795,1999.997132
16 Mar 2024 07:54:00.000,60.491,42.604,791.204457
21 Mar 2024 09:17:00.000,316.155,12.427,1686.799253
11 Mar 2024 16:33:00.000,193.540,39.365,832.927247
20 Mar 2024 07:43:00.000,26.576,22.612,1219.944853
30 Mar 2024 07:13:00.000,49.041,50.631,705.202907
31 Mar 2024 02:07:00.000,35.012,36.638,876.896161
28 Mar 2024 02:11:00.000,217.625,13.286,1624.731398
17 Mar 2024 06:11:00.000,99.536,15.843,1495.472510
15 Mar 2024 07:55:00.000,188.503,54.542,672.778782
06 Mar 2024 16:45:00.000,322.270,20.031,1313.955249
08 Mar 2024 13:19:00.000,349.721,25.306,1134.657733
21 Mar 2024 05:58:00.000,49.950,41.765,801.692643
13 Mar 2024 09:43:00.000,0.584,52.643,689.209853
04 Mar 2024 18:34:00.000,78.678,70.132,591.078320
24 Mar 2024 04:11:00.000,68.451,14.788,1550.739022
21 Mar 2024 05:52:00.000,244.149,7.710,1999.977539
19 Mar 2024 06:07:00.000,68.245,7.807,1999.997928
26 Mar 2024 05:46:00.000,50.496,8.247,1967.617177
12 Mar 2024 14:52:00.000,101.096,14.500,1564.107552
18 Mar 2024 11:12:00.000,66.986,14.525,1566.669318
09 Mar 2024 16:36:00.000,299.765,22.279,1229.849144
26 Mar 2024 02:25:00.000,83.311,7.755,1999.985176
11 Mar 2024 09:49:00.000,71.628,41.504,805.631140
20 Mar 2024 12:49:00.000,142.997,7.697,1999.999786
22 Mar 2024 07:38:00.000,44.007,12.284,1695.392726
15 Mar 2024 13:02:00.000,78.217,18.407,1379.321896
05 Mar 2024 13:23:00.000,265.064,7.776,1999.992060
13 Mar 2024 16:27:00.000,213.750,18.812,1357.094319
25 Mar 2024 09:09:00.000,45.377,44.366,769.834439
09 Mar 2024 16:43:00.000,120.681,7.704,1999.976546
14 Mar 2024 07:58:00.000,161.026,40.130,822.534666
13 Mar 2024 13:09:00.000,73.561,7.803,1999.995488
11 Mar 2024 14:47:00.000,307.263,7.836,1999.998341
24 Mar 2024 02:29:00.000,113.029,7.705,1999.997227
11 Mar 2024 09:45:00.000,231.126,21.955,1238.230445
23 Mar 2024 05:50:00.000,290.449,30.462,997.888960
16 Mar 2024 07:50:00.000,239.231,22.053,1234.557426
18 Mar 2024 11:11:00.000,54.329,20.607,1291.877540
11 Mar 2024 09:43:00.000,233.868,7.722,1999.988113
01 Mar 2024 17:03:00.000,38.378,16.041,1489.016171
27 Mar 2024 09:01:00.000,305.621,63.252,620.486015
17 Mar 2024 06:10:00.000,115.507,20.428,1294.231716
17 Mar 2024 06:05:00.000,195.974,7.663,1999.992346
09 Mar 2024 11:31:00.000,264.104,13.399,1626.335093
20 Mar 2024 12:42:00.000,277.552,20.689,1287.122037
02 Mar 2024 16:55:00.000,305.625,7.822,1999.991147
14 Mar 2024 14:39:00.000,296.412,13.718,1610.858944
17 Mar 2024 09:31:00.000,349.458,25.417,1131.352606
19 Mar 2024 06:05:00.000,77.878,21.707,1249.121988
05 Mar 2024 16:46:00.000,309.191,7.828,1999.991568
18 Mar 2024 06:07:00.000,120.248,31.502,973.753768
28 Mar 2024 05:34:00.000,309.659,12.192,1698.624450
29 Mar 2024 03:54:00.000,26.391,22.844,1210.314546
04 Mar 2024 16:50:00.000,316.791,12.633,1673.970997
09 Mar 2024 09:55:00.000,120.220,32.102,961.972879
06 Mar 2024 15:04:00.000,324.782,17.055,1442.019728
09 Mar 2024 09:54:00.000,151.817,33.964,924.231339
10 Mar 2024 16:33:00.000,288.896,21.846,1244.545138
29 Mar 2024 02:10:00.000,224.376,35.496,893.862497
22 Mar 2024 05:58:00.000,54.976,8.649,1937.672556
15 Mar 2024 14:39:00.000,271.834,33.084,942.669293
19 Mar 2024 06:03:00.000,120.286,47.516,733.789341
17 Mar 2024 09:35:00.000,50.687,8.177,1974.391055
18 Mar 2024 07:49:00.000,42.935,21.696,1251.731261
08 Mar 2024 15:01:00.000,31.630,23.214,1199.331618
30 Mar 2024 02:12:00.000,57.618,15.721,1502.478587
09 Mar 2024 11:38:00.000,49.605,13.712,1612.474890
10 Mar 2024 14:50:00.000,308.801,7.838,1999.982832
25 Mar 2024 09:04:00.000,306.337,7.824,1999.982258
07 Mar 2024 15:01:00.000,327.395,17.253,1432.996615
04 Mar 2024 15:15:00.000,52.044,7.822,1999.999200
30 Mar 2024 00:32:00.000,88.705,7.732,1999.992018
27 Mar 2024 02:20:00.000,85.547,16.201,1476.965279
06 Mar 2024 16:46:00.000,337.629,28.777,1039.502932
25 Mar 2024 07:24:00.000,315.127,12.317,1692.467063
21 Mar 2024 09:21:00.000,29.785,21.941,1243.514479
21 Mar 2024 10:57:00.000,308.228,13.544,1621.506685
17 Mar 2024 12:51:00.000,309.481,21.848,1246.313775
05 Mar 2024 20:12:00.000,218.675,12.104,1695.171260
23 Mar 2024 07:31:00.000,336.884,21.371,1263.551353
18 Mar 2024 11:05:00.000,309.344,7.840,1999.983740
11 Mar 2024 11:26:00.000,284.967,12.849,1659.937682
26 Mar 2024 09:06:00.000,91.277,38.584,846.491961
05 Mar 2024 13:30:00.000,40.784,19.932,1318.395997
26 Mar 2024 03:58:00.000,251.088,13.539,1613.881395
25 Mar 2024 09:08:00.000,359.227,44.155,772.593795
06 Mar 2024 15:10:00.000,58.433,7.814,1999.999873
18 Mar 2024 09:25:00.000,304.495,12.293,1694.214077
27 Mar 2024 03:57:00.000,281.746,32.330,956.428153
23 Mar 2024 07:32:00.000,358.444,22.985,1207.311758
27 Mar 2024 10:41:00.000,244.075,14.367,1570.480936
12 Mar 2024 16:30:00.000,196.607,25.887,1111.479826
14 Mar 2024 13:04:00.000,57.397,22.362,1227.732450
07 Mar 2024 09:57:00.000,180.701,7.683,1999.978350
02 Mar 2024 16:57:00.000,326.424,17.126,1438.054190
03 Mar 2024 13:30:00.000,248.460,22.030,1236.521340
17 Mar 2024 12:58:00.000,109.683,7.744,1999.983384
16 Mar 2024 12:59:00.000,88.641,21.372,1261.195034
26 Mar 2024 02:23:00.000,99.483,15.398,1515.683455
30 Mar 2024 08:55:00.000,176.800,20.906,1274.179323
19 Mar 2024 11:03:00.000,315.077,13.054,1650.145004
22 Mar 2024 12:40:00.000,196.200,16.771,1447.618717
01 Mar 2024 22:02:00.000,248.033,7.699,1999.990077
03 Mar 2024 13:32:00.000,269.070,60.545,634.735505
29 Mar 2024 00:29:00.000,168.220,7.623,1999.986848
01 Mar 2024 17:00:00.000,339.902,21.134,1271.980299
18 Mar 2024 06:02:00.000,209.590,7.670,1999.991386
21 Mar 2024 12:38:00.000,275.463,12.731,1665.758844
22 Mar 2024 09:18:00.000,33.014,24.462,1159.710221
10 Mar 2024 16:37:00.000,148.439,38.046,852.930662
22 Mar 2024 09:15:00.000,328.174,18.128,1393.760851
25 Mar 2024 04:08:00.000,60.906,15.784,1500.276492
09 Mar 2024 13:19:00.000,45.868,11.775,1726.756814
31 Mar 2024 08:50:00.000,214.595,19.768,1318.377715
15 Mar 2024 09:35:00.000,305.535,27.305,1077.373479
14 Mar 2024 14:41:00.000,290.862,36.097,887.473657
06 Mar 2024 18:27:00.000,271.155,32.786,947.483139
28 Mar 2024 03:52:00.000,273.904,13.108,1640.387868
30 Mar 2024 03:50:00.000,9.809,25.022,1140.944080
30 Mar 2024 08:53:00.000,223.198,29.416,1020.429164
21 Mar 2024 09:18:00.000,328.180,17.512,1421.251284
23 Mar 2024 10:54:00.000,278.259,61.673,628.638012
10 Mar 2024 09:48:00.000,219.094,13.421,1621.049788
01 Mar 2024 22:03:00.000,235.718,9.125,1892.521192
28 Mar 2024 02:17:00.000,78.445,21.426,1257.318043
31 Mar 2024 08:51:00.000,196.179,17.263,1424.275022
20 Mar 2024 07:37:00.000,277.901,7.778,1999.989970
14 Mar 2024 16:26:00.000,188.997,7.663,1999.993511
22 Mar 2024 04:13:00.000,143.217,27.427,1069.006157
13 Mar 2024 09:47:00.000,55.238,7.838,1999.982087
19 Mar 2024 11:09:00.000,73.990,16.842,1450.096811
02 Mar 2024 15:17:00.000,337.924,30.498,999.064563
11 Mar 2024 16:36:00.000,147.352,12.297,1684.348938
21 Mar 2024 07:41:00.000,41.122,13.815,1606.669016
17 Mar 2024 12:54:00.000,58.242,60.152,637.275728
29 Mar 2024 05:35:00.000,25.730,20.617,1290.893204
19 Mar 2024 14:29:00.000,200.720,7.680,1999.999779
26 Mar 2024 05:44:00.000,30.151,18.423,1380.002685
30 Mar 2024 07:16:00.000,99.837,14.347,1572.359340
08 Mar 2024 16:39:00.000,309.065,21.783,1247.741886
10 Mar 2024 18:17:00.000,210.132,8.800,1915.140479
15 Mar 2024 09:32:00.000,273.812,7.784,2000.000007
26 Mar 2024 02:22:00.000,115.181,19.878,1313.713321
08 Mar 2024 11:42:00.000,56.725,7.833,1999.979119
08 Mar 2024 11:39:00.000,39.794,39.002,841.678568
03 Mar 2024 20:22:00.000,156.936,7.641,1999.991340
05 Mar 2024 16:49:00.000,342.800,25.986,1113.802857
20 Mar 2024 12:44:00.000,234.797,41.113,809.587895
23 Mar 2024 05:48:00.000,268.791,13.179,1636.972649
27 Mar 2024 07:21:00.000,8.759,28.104,1056.605201
11 Mar 2024 09:46:00.000,227.132,35.749,892.058351
29 Mar 2024 08:53:00.000,278.197,20.852,1280.128047
13 Mar 2024 14:47:00.000,105.346,41.277,807.401612
31 Mar 2024 03:49:00.000,31.756,17.543,1417.703422
25 Mar 2024 02:22:00.000,168.349,10.909,1768.216233
07 Mar 2024 15:05:00.000,44.732,16.711,1457.296653
25 Mar 2024 07:31:00.000,63.071,7.816,1999.978561
19 Mar 2024 12:49:00.000,147.238,38.399,848.320600
21 Mar 2024 07:35:00.000,293.364,12.558,1676.552085
07 Mar 2024 13:24:00.000,27.661,20.699,1289.161023
24 Mar 2024 07:28:00.000,324.260,16.986,1444.564938
12 Mar 2024 16:28:00.000,246.760,24.759,1146.488040
27 Mar 2024 02:13:00.000,208.863,7.640,1999.991913
13 Mar 2024 13:05:00.000,8.817,26.699,1094.845596
11 Mar 2024 11:29:00.000,337.418,30.684,995.530930
25 Mar 2024 02:21:00.000,178.960,7.631,1999.997531
21 Mar 2024 09:23:00.000,58.581,12.136,1703.721433
07 Mar 2024 09:59:00.000,156.495,14.055,1585.350879
03 Mar 2024 17:00:00.000,66.840,7.790,1999.999802
31 Mar 2024 05:24:00.000,309.111,7.802,1999.983787
09 Mar 2024 09:52:00.000,194.994,19.697,1321.580513
02 Mar 2024 15:19:00.000,26.735,22.275,1231.159001
07 Mar 2024 18:27:00.000,173.639,24.107,1163.624227
03 Mar 2024 20:18:00.000,196.852,25.468,1122.084344
23 Mar 2024 10:51:00.000,296.776,13.711,1611.151295
28 Mar 2024 07:15:00.000,315.091,12.931,1655.713484
19 Mar 2024 14:27:00.000,237.991,9.389,1877.363003
09 Mar 2024 11:36:00.000,29.629,32.556,955.232886
01 Mar 2024 18:43:00.000,38.541,31.924,966.318065
01 Mar 2024 16:58:00.000,310.313,12.203,1699.257903
04 Mar 2024 13:30:00.000,302.342,49.850,712.840695
20 Mar 2024 09:20:00.000,326.042,17.074,1441.317844
28 Mar 2024 07:19:00.000,37.706,31.117,984.654569
02 Mar 2024 13:39:00.000,63.802,15.680,1506.637477
09 Mar 2024 11:32:00.000,270.746,21.075,1272.461010
03 Mar 2024 18:35:00.000,323.398,33.660,931.558902
23 Mar 2024 12:37:00.000,192.736,8.990,1902.544077
05 Mar 2024 13:26:00.000,292.004,30.245,1004.226769
31 Mar 2024 07:11:00.000,102.262,41.021,810.525854
25 Mar 2024 10:46:00.000,271.448,19.968,1314.303694
03 Mar 2024 11:49:00.000,189.349,7.686,1999.986195
22 Mar 2024 07:31:00.000,292.956,7.800,1999.993857
30 Mar 2024 08:51:00.000,265.395,18.919,1355.724982
06 Mar 2024 18:25:00.000,288.585,13.423,1625.384038
03 Mar 2024 18:42:00.000,105.254,7.716,1999.976677
04 Mar 2024 16:55:00.000,52.029,19.358,1339.711517
02 Mar 2024 13:36:00.000,97.716,70.146,591.895173
20 Mar 2024 04:22:00.000,103.100,8.155,1968.145797
07 Mar 2024 11:40:00.000,241.315,63.249,620.455299
22 Mar 2024 09:17:00.000,8.840,26.537,1099.109876
03 Mar 2024 16:58:00.000,47.098,17.363,1426.032560
23 Mar 2024 09:18:00.000,81.082,7.795,1999.976397
21 Mar 2024 11:01:00.000,50.092,51.472,698.604362
05 Mar 2024 18:32:00.000,135.608,41.112,807.980636
20 Mar 2024 11:04:00.000,42.629,39.268,837.550964
05 Mar 2024 18:30:00.000,274.059,60.675,633.057687
14 Mar 2024 09:40:00.000,0.413,39.952,827.948002
19 Mar 2024 06:04:00.000,90.165,33.363,936.590866
20 Mar 2024 11:08:00.000,94.678,7.774,1999.985377
04 Mar 2024 13:33:00.000,45.442,22.984,1206.877687
07 Mar 2024 16:42:00.000,316.594,21.005,1276.418394
23 Mar 2024 09:14:00.000,8.332,30.329,1003.299729
27 Mar 2024 07:17:00.000,309.334,7.817,1999.990259
01 Mar 2024 22:05:00.000,209.287,8.493,1935.861231
21 Mar 2024 07:37:00.000,321.803,23.805,1179.757194
27 Mar 2024 03:56:00.000,269.326,21.132,1267.415041
18 Mar 2024 06:10:00.000,74.689,7.798,1999.997498
05 Mar 2024 11:47:00.000,120.969,39.793,828.253008
18 Mar 2024 11:06:00.000,316.556,12.753,1667.878397
16 Mar 2024 07:51:00.000,239.214,36.129,885.331734
25 Mar 2024 02:26:00.000,107.753,11.666,1725.053036
04 Mar 2024 18:33:00.000,323.198,60.948,631.899538
26 Mar 2024 07:23:00.000,345.543,22.717,1216.016141
04 Mar 2024 16:49:00.000,309.214,7.828,1999.998427
23 Mar 2024 05:55:00.000,48.481,13.002,1651.875413
25 Mar 2024 10:50:00.000,172.534,24.991,1138.340978
10 Mar 2024 16:40:00.000,131.781,7.689,1999.999987
16 Mar 2024 06:15:00.000,96.632,8.823,1920.521773
12 Mar 2024 09:43:00.000,247.829,22.004,1237.338156
08 Mar 2024 16:42:00.000,58.795,61.056,631.544951
11 Mar 2024 14:48:00.000,312.046,13.291,1636.083094
09 Mar 2024 09:58:00.000,77.436,10.760,1789.453514
11 Mar 2024 14:56:00.000,95.139,7.758,1999.991758
25 Mar 2024 04:04:00.000,235.508,63.200,619.270058
26 Mar 2024 04:05:00.000,54.352,15.300,1525.039189
22 Mar 2024 09:20:00.000,63.815,13.553,1620.136901
07 Mar 2024 09:58:00.000,170.182,11.129,1757.795026
19 Mar 2024 06:07:00.000,68.338,7.979,1986.834169
27 Mar 2024 05:39:00.000,333.605,21.736,1249.352766
18 Mar 2024 11:07:00.000,327.518,18.592,1374.142594
03 Mar 2024 11:52:00.000,149.852,18.687,1363.363614
06 Mar 2024 16:44:00.000,313.533,13.114,1645.663613
07 Mar 2024 16:44:00.000,357.719,44.975,762.592130
07 Mar 2024 18:22:00.000,279.669,13.037,1646.713779
13 Mar 2024 08:02:00.000,143.907,27.999,1055.673094
21 Mar 2024 12:44:00.000,165.222,14.279,1572.533818
26 Mar 2024 10:47:00.000,196.762,21.547,1251.346897
05 Mar 2024 20:13:00.000,204.426,10.719,1781.484061
23 Mar 2024 10:59:00.000,125.507,9.117,1896.492901
30 Mar 2024 00:31:00.000,98.331,11.602,1729.061451
09 Mar 2024 16:43:00.000,120.646,9.192,1889.736578
15 Mar 2024 07:54:00.000,213.799,34.568,912.536379
20 Mar 2024 12:40:00.000,289.297,7.813,1999.979004
29 Mar 2024 08:57:00.000,165.865,29.985,1006.720145
10 Mar 2024 18:16:00.000,223.348,9.653,1855.743858
13 Mar 2024 14:49:00.000,113.446,15.566,1508.012637
06 Mar 2024 18:29:00.000,190.247,48.019,727.703850
03 Mar 2024 11:50:00.000,180.028,11.746,1718.920026
18 Mar 2024 12:50:00.000,302.588,62.970,622.186823
13 Mar 2024 11:27:00.000,51.966,7.840,1999.999060
10 Mar 2024 14:53:00.000,340.649,27.266,1079.027353
17 Mar 2024 11:13:00.000,31.337,23.142,1202.416087
19 Mar 2024 05:59:00.000,218.436,13.361,1622.651331
06 Mar 2024 18:24:00.000,291.901,7.797,1999.982727
24 Mar 2024 05:44:00.000,273.337,7.756,1999.983494
05 Mar 2024 11:46:00.000,161.389,40.793,813.635282
17 Mar 2024 11:09:00.000,316.584,12.473,1684.584525
01 Mar 2024 18:44:00.000,61.252,24.536,1154.484973
24 Mar 2024 07:33:00.000,51.455,11.296,1756.250666
05 Mar 2024 13:24:00.000,269.836,13.215,1637.233497
16 Mar 2024 09:29:00.000,282.228,7.797,1999.999677
15 Mar 2024 12:57:00.000,322.462,20.002,1316.108786
23 Mar 2024 04:10:00.000,159.842,39.397,831.808151
14 Mar 2024 08:00:00.000,95.133,28.961,1033.452765
14 Mar 2024 11:24:00.000,47.608,11.492,1744.765235
29 Mar 2024 08:51:00.000,289.674,7.796,1999.976038
13 Mar 2024 11:23:00.000,352.838,24.279,1166.188320
01 Mar 2024 20:25:00.000,149.191,37.581,859.081559
10 Mar 2024 16:40:00.000,132.103,8.638,1928.612734
29 Mar 2024 07:15:00.000,3.457,39.459,834.220540
30 Mar 2024 03:46:00.000,292.909,12.572,1673.429422
03 Mar 2024 11:56:00.000,87.117,7.786,1999.999996
01 Mar 2024 18:45:00.000,74.631,17.034,1438.555502
23 Mar 2024 09:15:00.000,36.188,28.518,1046.350343
06 Mar 2024 15:05:00.000,342.121,21.195,1270.530538
01 Mar 2024 22:04:00.000,222.337,9.427,1869.692265
29 Mar 2024 05:34:00.000,4.755,22.829,1211.572745
05 Mar 2024 16:50:00.000,8.201,30.751,993.006678
29 Mar 2024 02:09:00.000,229.264,21.842,1238.833842
17 Mar 2024 12:58:00.000,109.258,8.902,1913.531692
08 Mar 2024 18:21:00.000,239.498,21.522,1252.443186
30 Mar 2024 00:30:00.000,111.597,15.301,1518.586117
21 Mar 2024 05:56:00.000,264.767,61.147,630.673201
19 Mar 2024 07:40:00.000,274.556,13.159,1639.773162
06 Mar 2024 16:47:00.000,5.074,36.598,879.267839
13 Mar 2024 11:20:00.000,301.376,12.368,1689.906804
02 Mar 2024 17:02:00.000,54.243,11.413,1747.189570
27 Mar 2024 04:00:00.000,30.368,33.109,942.189614
26 Mar 2024 02:17:00.000,195.171,7.632,1999.993546
24 Mar 2024 09:08:00.000,313.840,13.122,1645.446229
26 Mar 2024 02:24:00.000,88.581,10.660,1791.675546
06 Mar 2024 15:07:00.000,24.335,20.441,1298.618144
16 Mar 2024 11:16:00.000,27.855,21.246,1269.001954
31 Mar 2024 00:24:00.000,165.889,23.815,1171.286441
21 Mar 2024 07:39:00.000,9.947,24.883,1146.859196
11 Mar 2024 13:12:00.000,26.040,20.748,1287.466299
22 Mar 2024 05:51:00.000,262.475,21.433,1257.000547
04 Mar 2024 11:52:00.000,99.461,20.332,1299.757037
04 Mar 2024 11:50:00.000,144.513,28.429,1045.112804
21 Mar 2024 09:16:00.000,307.903,7.831,2000.000066
20 Mar 2024 04:17:00.000,169.530,7.650,1999.986431
20 Mar 2024 12:41:00.000,284.943,13.287,1634.397824
14 Mar 2024 09:37:00.000,277.234,20.630,1289.275564
29 Mar 2024 09:00:00.000,142.268,7.696,1999.983666
08 Mar 2024 18:20:00.000,256.961,17.225,1428.560048
22 Mar 2024 12:38:00.000,233.811,18.913,1354.828305
09 Mar 2024 11:30:00.000,260.089,7.769,1999.990520
23 Mar 2024 04:06:00.000,215.531,7.659,1999.997612
21 Mar 2024 07:42:00.000,50.768,7.835,1999.990364
19 Mar 2024 09:23:00.000,322.289,17.024,1443.503590
04 Mar 2024 13:26:00.000,255.339,7.760,1999.986340
12 Mar 2024 08:02:00.000,179.404,11.669,1723.045672
26 Mar 2024 10:48:00.000,180.184,16.684,1451.439136
25 Mar 2024 09:13:00.000,99.110,7.856,1992.872215
18 Mar 2024 14:34:00.000,178.868,7.671,1999.998097
09 Mar 2024 18:16:00.000,266.597,7.756,1999.987746
25 Mar 2024 05:41:00.000,281.783,7.769,1999.987977
17 Mar 2024 07:51:00.000,40.340,39.417,835.146068
10 Mar 2024 14:55:00.000,38.086,31.792,970.422118
31 Mar 2024 00:27:00.000,99.507,18.962,1350.964664
31 Mar 2024 03:48:00.000,14.425,22.319,1228.282711
17 Mar 2024 09:32:00.000,12.618,23.298,1197.516956
31 Mar 2024 08:47:00.000,264.699,11.954,1710.151297
29 Mar 2024 07:14:00.000,335.162,30.052,1008.701338
01 Mar 2024 17:02:00.000,22.112,20.452,1297.446088
13 Mar 2024 13:04:00.000,345.307,23.722,1183.711280
13 Mar 2024 14:48:00.000,111.009,25.084,1136.970032
14 Mar 2024 16:25:00.000,204.849,11.051,1761.855879
15 Mar 2024 06:14:00.000,157.220,7.674,1999.999418
27 Mar 2024 07:20:00.000,344.562,24.520,1157.423666
11 Mar 2024 16:37:00.000,143.590,7.676,1999.992408
12 Mar 2024 14:49:00.000,50.457,52.267,691.637464
22 Mar 2024 05:49:00.000,254.429,7.725,1999.999914
09 Mar 2024 13:13:00.000,304.813,12.310,1693.689266
04 Mar 2024 16:56:00.000,64.387,13.659,1612.382034
19 Mar 2024 11:08:00.000,60.679,24.206,1166.939929
18 Mar 2024 14:34:00.000,182.886,9.143,1890.961726
29 Mar 2024 08:54:00.000,264.366,31.150,982.286493
04 Mar 2024 11:51:00.000,118.639,26.242,1103.883123
19 Mar 2024 06:00:00.000,212.518,21.210,1262.823436
12 Mar 2024 08:03:00.000,166.325,15.630,1502.507333
08 Mar 2024 14:57:00.000,316.673,12.511,1682.000410
27 Mar 2024 04:03:00.000,53.929,8.084,1978.880694
04 Mar 2024 18:36:00.000,111.675,25.204,1131.928077
25 Mar 2024 07:27:00.000,6.430,23.339,1195.415085
17 Mar 2024 14:30:00.000,277.810,7.794,1999.999947
26 Mar 2024 03:57:00.000,249.052,7.702,1999.976851
20 Mar 2024 10:59:00.000,307.359,7.836,1999.999283
08 Mar 2024 18:19:00.000,269.147,12.292,1689.711630
21 Mar 2024 07:36:00.000,304.644,18.159,1390.804734
14 Mar 2024 13:06:00.000,81.521,7.791,1999.976695
05 Mar 2024 13:25:00.000,277.656,20.495,1294.594602
27 Mar 2024 03:59:00.000,0.092,46.507,744.915695
28 Mar 2024 08:56:00.000,290.133,21.872,1243.624147
04 Mar 2024 18:38:00.000,115.269,9.171,1890.784745
29 Mar 2024 02:14:00.000,67.545,24.941,1141.381363
08 Mar 2024 18:23:00.000,196.683,20.538,1286.906741
01 Mar 2024 20:24:00.000,181.955,57.782,649.176079
20 Mar 2024 07:45:00.000,50.823,7.836,1999.989864
18 Mar 2024 07:48:00.000,29.746,32.957,946.689644
07 Mar 2024 15:00:00.000,315.268,12.307,1694.140827
02 Mar 2024 13:34:00.000,228.063,35.867,889.928794
02 Mar 2024 18:40:00.000,42.770,40.136,823.407780
12 Mar 2024 16:27:00.000,263.963,18.636,1367.744960
31 Mar 2024 05:31:00.000,63.532,13.387,1627.889250
13 Mar 2024 14:46:00.000,77.176,69.231,595.059435
25 Mar 2024 04:09:00.000,60.882,9.297,1889.089606
04 Mar 2024 13:35:00.000,54.741,8.556,1944.893590
12 Mar 2024 09:46:00.000,20.500,69.905,593.240302
03 Mar 2024 13:33:00.000,18.990,69.149,595.764270
25 Mar 2024 07:26:00.000,344.663,21.621,1254.515751
21 Mar 2024 04:15:00.000,165.293,15.455,1509.342196
24 Mar 2024 04:12:00.000,65.949,8.657,1935.032618
17 Mar 2024 14:33:00.000,240.238,21.806,1243.674317
24 Mar 2024 04:07:00.000,186.203,53.903,676.462583
09 Mar 2024 18:17:00.000,256.055,11.146,1759.616199
06 Mar 2024 13:27:00.000,39.447,16.993,1444.861591
14 Mar 2024 09:41:00.000,27.449,29.612,1020.163900
25 Mar 2024 04:00:00.000,238.501,7.686,1999.991909
27 Mar 2024 02:18:00.000,119.845,30.669,990.380250
30 Mar 2024 07:10:00.000,314.059,21.345,1263.137036
24 Mar 2024 05:52:00.000,51.282,7.825,1999.989798
26 Mar 2024 09:05:00.000,56.859,59.208,642.595456
20 Mar 2024 11:07:00.000,90.401,12.646,1670.184062
11 Mar 2024 14:51:00.000,2.527,40.330,822.191955
10 Mar 2024 13:15:00.000,38.405,16.011,1492.070919
15 Mar 2024 14:41:00.000,189.531,48.823,720.860740
16 Mar 2024 14:41:00.000,149.551,7.683,1999.997152
03 Mar 2024 18:40:00.000,101.556,14.499,1562.335076
03 Mar 2024 18:39:00.000,95.887,23.003,1201.833071
14 Mar 2024 12:58:00.000,309.216,7.842,1999.991678
25 Mar 2024 05:45:00.000,341.384,28.798,1038.603649
04 Mar 2024 18:31:00.000,304.464,22.066,1236.709142
16 Mar 2024 07:52:00.000,238.757,62.909,621.767465
31 Mar 2024 03:51:00.000,51.780,7.805,1999.998854
07 Mar 2024 13:18:00.000,282.578,7.805,1999.986542
18 Mar 2024 12:47:00.000,299.889,13.674,1613.772950
22 Mar 2024 12:42:00.000,172.066,8.626,1928.777496
15 Mar 2024 12:59:00.000,5.236,36.327,884.742511
10 Mar 2024 11:35:00.000,39.838,18.444,1380.274379
17 Mar 2024 12:55:00.000,92.527,38.872,842.288536
02 Mar 2024 20:18:00.000,276.427,20.549,1290.051663
20 Mar 2024 06:01:00.000,72.711,41.241,808.311724
23 Mar 2024 09:18:00.000,78.257,10.030,1837.941086
02 Mar 2024 11:54:00.000,159.851,10.389,1806.422292
12 Mar 2024 16:34:00.000,156.418,7.666,1999.983161
02 Mar 2024 13:37:00.000,70.748,41.569,804.453643
05 Mar 2024 20:11:00.000,233.632,11.935,1706.819221
12 Mar 2024 09:50:00.000,58.567,7.834,1999.973732
26 Mar 2024 10:49:00.000,168.908,11.583,1728.688658
24 Mar 2024 05:52:00.000,47.535,11.171,1764.003109
19 Mar 2024 09:27:00.000,38.076,16.071,1489.271911
22 Mar 2024 09:16:00.000,345.400,23.628,1186.398801
11 Mar 2024 08:09:00.000,115.851,10.960,1772.053353
03 Mar 2024 18:32:00.000,304.704,7.812,1999.992193
05 Mar 2024 11:43:00.000,212.127,13.263,1629.887832
28 Mar 2024 03:59:00.000,47.853,12.052,1707.485567
06 Mar 2024 15:06:00.000,3.522,22.679,1217.814692
24 Mar 2024 10:54:00.000,145.927,22.197,1228.926478
02 Mar 2024 13:31:00.000,234.282,7.727,1999.978723
18 Mar 2024 09:28:00.000,355.731,23.513,1190.462972
14 Mar 2024 08:02:00.000,74.927,12.446,1683.612575
06 Mar 2024 11:40:00.000,226.371,13.545,1614.860027
11 Mar 2024 11:31:00.000,26.582,22.473,1225.302430
03 Mar 2024 15:16:00.000,29.084,19.250,1345.765696
08 Mar 2024 13:23:00.000,51.252,7.834,1999.990562
22 Mar 2024 12:37:00.000,250.995,15.952,1489.976619
08 Mar 2024 18:22:00.000,217.710,23.002,1200.122168
23 Mar 2024 10:52:00.000,295.298,22.192,1233.245026
12 Mar 2024 11:28:00.000,28.826,19.420,1339.831879
17 Mar 2024 07:54:00.000,56.436,9.069,1907.713763
07 Mar 2024 15:06:00.000,56.386,11.779,1724.938717
16 Mar 2024 11:14:00.000,344.621,21.661,1254.129942
28 Mar 2024 05:35:00.000,321.960,16.984,1443.560049
19 Mar 2024 09:25:00.000,0.979,22.699,1217.586051
04 Mar 2024 15:07:00.000,293.547,7.816,1999.994055
05 Mar 2024 18:31:00.000,164.037,68.889,595.081286
18 Mar 2024 06:09:00.000,85.338,16.607,1459.584406
04 Mar 2024 18:35:00.000,106.340,41.574,802.317874
29 Mar 2024 07:12:00.000,312.448,13.274,1635.576344
05 Mar 2024 11:50:00.000,74.615,12.499,1680.477404
12 Mar 2024 13:09:00.000,29.780,22.072,1238.963746
19 Mar 2024 07:44:00.000,1.676,35.653,896.074267
02 Mar 2024 18:36:00.000,311.907,13.271,1635.644393
16 Mar 2024 12:54:00.000,316.981,21.086,1274.364987
02 Mar 2024 20:19:00.000,261.952,30.293,999.946887
16 Mar 2024 12:56:00.000,358.637,44.688,766.638760
05 Mar 2024 15:06:00.000,307.786,12.249,1697.113899
17 Mar 2024 09:27:00.000,289.758,7.809,1999.984717
10 Mar 2024 18:15:00.000,236.789,9.241,1886.161166
30 Mar 2024 02:05:00.000,244.468,13.547,1611.923176
18 Mar 2024 06:06:00.000,151.242,33.359,934.916910
23 Mar 2024 05:55:00.000,52.885,7.824,1999.990310
22 Mar 2024 05:53:00.000,300.075,50.782,703.621697
25 Mar 2024 09:06:00.000,317.344,21.028,1275.871913
29 Mar 2024 08:56:00.000,193.017,41.213,807.290398
19 Mar 2024 06:01:00.000,200.629,32.705,947.588196
18 Mar 2024 09:27:00.000,333.903,21.704,1252.110498
18 Mar 2024 09:30:00.000,34.003,16.766,1456.024623
15 Mar 2024 11:18:00.000,3.149,22.687,1218.234662
22 Mar 2024 12:41:00.000,182.181,12.805,1654.859810
26 Mar 2024 09:03:00.000,318.170,34.643,913.797688
15 Mar 2024 07:56:00.000,115.916,58.494,646.476380
27 Mar 2024 02:21:00.000,77.892,10.327,1815.004603
03 Mar 2024 20:17:00.000,222.126,27.751,1060.148647
10 Mar 2024 11:30:00.000,283.817,20.062,1311.896283
30 Mar 2024 02:07:00.000,249.374,35.945,886.606850
29 Mar 2024 03:51:00.000,310.715,26.161,1106.657034
13 Mar 2024 16:24:00.000,263.302,11.817,1719.024196
21 Mar 2024 09:23:00.000,66.264,7.819,1999.985452
02 Mar 2024 17:01:00.000,42.753,16.231,1479.519138
17 Mar 2024 07:49:00.000,286.274,56.005,663.103152
03 Mar 2024 13:36:00.000,56.638,15.700,1506.154904
27 Mar 2024 02:15:00.000,193.078,19.424,1329.121506
14 Mar 2024 14:42:00.000,275.716,61.285,630.564145
06 Mar 2024 13:28:00.000,47.587,10.977,1777.297916
22 Mar 2024 11:00:00.000,110.066,25.221,1133.530178
04 Mar 2024 16:57:00.000,73.867,7.779,1999.994062
27 Mar 2024 10:44:00.000,195.056,12.998,1643.785470
30 Mar 2024 03:45:00.000,285.445,7.759,1999.990014
11 Mar 2024 11:28:00.000,312.034,25.968,1114.772306
16 Mar 2024 06:10:00.000,169.415,11.023,1763.142739
26 Mar 2024 02:18:00.000,186.752,12.065,1695.445122
21 Mar 2024 05:53:00.000,245.229,13.554,1613.679415
04 Mar 2024 15:11:00.000,353.026,24.189,1168.283892
15 Mar 2024 11:17:00.000,341.777,21.170,1272.054875
26 Mar 2024 04:01:00.000,284.877,56.848,656.248726
09 Mar 2024 14:57:00.000,8.826,28.515,1046.632059
19 Mar 2024 09:21:00.000,301.454,7.824,1999.996127
21 Mar 2024 11:05:00.000,104.365,7.757,1999.977635
08 Mar 2024 16:44:00.000,102.989,24.376,1158.148485
04 Mar 2024 16:52:00.000,345.381,23.801,1180.041597
31 Mar 2024 05:32:00.000,71.707,8.480,1947.638188
31 Mar 2024 03:43:00.000,292.543,7.769,1999.993892
25 Mar 2024 07:23:00.000,306.718,7.816,1999.992043
04 Mar 2024 11:49:00.000,169.068,24.785,1144.915493
02 Mar 2024 16:56:00.000,314.139,12.285,1694.576945
18 Mar 2024 07:47:00.000,359.495,45.950,752.149855
03 Mar 2024 15:12:00.000,305.567,18.149,1391.757008
30 Mar 2024 08:52:00.000,248.324,25.455,1125.815241
29 Mar 2024 02:08:00.000,231.463,13.456,1615.994676
15 Mar 2024 11:16:00.000,324.488,17.017,1444.327041
15 Mar 2024 07:58:00.000,72.437,23.886,1176.340692
18 Mar 2024 07:44:00.000,270.023,21.011,1273.832765
03 Mar 2024 13:38:00.000,58.423,7.822,1999.972659
02 Mar 2024 13:32:00.000,233.394,13.559,1614.378734
15 Mar 2024 11:20:00.000,40.239,16.067,1489.499635
11 Mar 2024 16:29:00.000,284.436,13.344,1630.370245
13 Mar 2024 16:30:00.000,172.278,8.308,1950.857848
04 Mar 2024 18:32:00.000,308.479,35.875,890.618151
27 Mar 2024 04:02:00.000,49.947,13.830,1603.640378
11 Mar 2024 08:06:00.000,159.069,10.303,1811.751892
10 Mar 2024 13:16:00.000,49.811,11.252,1759.502798
18 Mar 2024 06:05:00.000,177.963,27.388,1070.192909
11 Mar 2024 09:53:00.000,62.781,7.828,1999.996589
27 Mar 2024 08:57:00.000,299.863,7.813,1999.990784
12 Mar 2024 08:04:00.000,149.257,18.435,1373.693634
17 Mar 2024 11:16:00.000,69.771,7.815,1999.990996
13 Mar 2024 13:07:00.000,51.725,19.321,1342.617295
24 Mar 2024 04:10:00.000,72.985,23.583,1184.505340
06 Mar 2024 13:20:00.000,274.186,7.792,1999.970197
29 Mar 2024 03:52:00.000,336.309,31.142,983.106029
08 Mar 2024 15:04:00.000,69.624,8.103,1976.714257
22 Mar 2024 10:59:00.000,103.826,41.439,805.640211
24 Mar 2024 02:28:00.000,129.953,9.232,1884.812831
28 Mar 2024 07:17:00.000,341.158,26.951,1086.779557
