aer_data/rounded_times/rounded_MS_AER.csv

Time (UTCG),Azimuth (deg),Elevation (deg),Range (km)
08 Mar 2024 11:42:00.000,65.363,7.881,1999.97176
25 Mar 2024 05:45:00.000,5.028,41.092,813.517738
28 Mar 2024 09:01:00.000,131.511,15.023,1538.504869
28 Mar 2024 05:32:00.000,289.606,7.835,1999.990374
15 Mar 2024 11:15:00.000,309.923,19.002,1360.053596
07 Mar 2024 18:24:00.000,225.749,34.489,916.108514
10 Mar 2024 14:50:00.000,306.885,13.282,1640.663374
24 Mar 2024 09:08:00.000,328.075,30.819,994.938442
16 Mar 2024 07:48:00.000,225.647,7.752,1999.96899
15 Mar 2024 13:01:00.000,79.529,20.494,1298.325988
20 Mar 2024 12:43:00.000,232.694,41.55,806.258765
14 Mar 2024 11:19:00.000,320.539,26.246,1110.506601
06 Mar 2024 20:07:00.000,225.742,8.294,1957.216083
18 Mar 2024 07:47:00.000,54.616,42.156,799.568518
26 Mar 2024 07:26:00.000,61.588,16.094,1490.089069
05 Mar 2024 15:12:00.000,60.794,7.872,1999.989846
06 Mar 2024 13:19:00.000,261.302,7.827,1999.971173
19 Mar 2024 14:29:00.000,194.269,7.73,1999.986607
31 Mar 2024 00:24:00.000,144.595,16.536,1459.23744
13 Mar 2024 16:23:00.000,263.793,12.031,1710.219494
13 Mar 2024 11:19:00.000,287.011,13.112,1648.992284
31 Mar 2024 00:21:00.000,184.744,7.67,1999.982406
18 Mar 2024 07:43:00.000,249.136,22.094,1236.971292
13 Mar 2024 11:26:00.000,55.209,11.176,1768.85994
26 Mar 2024 09:02:00.000,310.231,35.413,902.514846
10 Mar 2024 18:15:00.000,213.129,10.36,1810.927141
27 Mar 2024 04:02:00.000,62.229,9.366,1888.306737
17 Mar 2024 09:31:00.000,8.807,34.512,920.03864
09 Mar 2024 14:59:00.000,68.16,17.463,1425.0948
02 Mar 2024 16:56:00.000,329.171,25.551,1129.669773
05 Mar 2024 18:27:00.000,290.546,22.101,1238.612236
01 Mar 2024 18:42:00.000,36.1,38.093,856.886542
23 Mar 2024 10:58:00.000,124.133,9.116,1900.79107
29 Mar 2024 03:49:00.000,275.022,21,1276.076425
24 Mar 2024 10:50:00.000,241.496,48.642,725.571838
20 Mar 2024 10:58:00.000,301.371,7.888,1999.983995
25 Mar 2024 07:28:00.000,43.595,22.034,1242.866372
03 Mar 2024 20:21:00.000,154.142,7.697,1999.991351
19 Mar 2024 14:24:00.000,253.888,7.809,1999.985431
27 Mar 2024 09:05:00.000,118.437,9.356,1884.076614
03 Mar 2024 16:54:00.000,332.082,25.948,1118.245439
04 Mar 2024 18:36:00.000,113.654,15.744,1501.338456
08 Mar 2024 18:23:00.000,178.641,16.837,1446.115148
10 Mar 2024 09:50:00.000,174.442,26.109,1109.312884
30 Mar 2024 03:51:00.000,46.214,19.287,1345.960682
04 Mar 2024 13:29:00.000,243.006,63.125,623.009911
10 Mar 2024 16:33:00.000,277.328,34.744,913.630431
27 Mar 2024 02:18:00.000,133.819,20.331,1298.332753
10 Mar 2024 11:34:00.000,51.303,23.794,1184.066322
20 Mar 2024 12:44:00.000,191.288,40.643,818.024415
03 Mar 2024 15:11:00.000,287.687,20.33,1304.896591
29 Mar 2024 02:08:00.000,214.547,13.216,1632.294031
21 Mar 2024 10:57:00.000,306.893,21.793,1251.674485
11 Mar 2024 13:12:00.000,54.87,15.391,1526.328822
23 Mar 2024 10:55:00.000,133.373,41.1,812.135887
06 Mar 2024 18:32:00.000,135.831,7.726,1999.999879
26 Mar 2024 03:57:00.000,234.787,13.625,1611.49725
21 Mar 2024 12:39:00.000,247.214,25.645,1124.269221
12 Mar 2024 11:22:00.000,278.889,13.294,1637.792117
04 Mar 2024 18:29:00.000,298.1,13.769,1611.025719
15 Mar 2024 14:40:00.000,187.387,48.561,725.742722
24 Mar 2024 04:07:00.000,155.87,35.333,899.975703
29 Mar 2024 02:15:00.000,76.508,12.634,1673.384519
29 Mar 2024 07:13:00.000,325.053,31.844,971.794238
03 Mar 2024 11:53:00.000,128.509,11.539,1738.096664
12 Mar 2024 13:10:00.000,59.38,15.791,1505.863997
18 Mar 2024 06:07:00.000,115.188,18.365,1381.53539
03 Mar 2024 16:59:00.000,67.821,10.185,1831.061146
21 Mar 2024 05:52:00.000,230.865,7.743,1999.991313
21 Mar 2024 07:33:00.000,273.242,7.825,1999.98261
24 Mar 2024 04:04:00.000,207.916,12.996,1645.598587
11 Mar 2024 09:46:00.000,195.321,31.374,979.231967
01 Mar 2024 18:39:00.000,315.119,20.498,1298.601891
05 Mar 2024 16:53:00.000,79.652,11.859,1721.294533
12 Mar 2024 13:11:00.000,70.544,7.868,1999.996979
28 Mar 2024 02:11:00.000,199.961,12.757,1658.161022
03 Mar 2024 13:34:00.000,82.42,38.992,843.377641
06 Mar 2024 16:47:00.000,38.173,41.707,805.214055
11 Mar 2024 09:44:00.000,216.017,13.346,1628.893318
27 Mar 2024 09:02:00.000,119.128,42.663,791.621099
30 Mar 2024 07:16:00.000,103.617,7.801,1999.982942
20 Mar 2024 06:02:00.000,83.106,20.17,1309.817276
19 Mar 2024 14:28:00.000,200.828,9.058,1901.776982
22 Mar 2024 05:50:00.000,241.317,13.631,1612.795756
08 Mar 2024 10:00:00.000,96.659,7.831,1999.981425
03 Mar 2024 20:19:00.000,163.499,14.236,1575.740248
04 Mar 2024 20:17:00.000,168.041,7.69,1999.986807
24 Mar 2024 07:24:00.000,292.286,7.855,1999.993934
14 Mar 2024 14:46:00.000,124.701,9.067,1903.423224
27 Mar 2024 09:04:00.000,118.454,15.894,1495.581
30 Mar 2024 00:26:00.000,165.223,7.675,1999.985321
17 Mar 2024 06:08:00.000,152.918,13.237,1633.481115
25 Mar 2024 10:43:00.000,284.67,7.857,1999.975187
05 Mar 2024 18:33:00.000,126.594,15.447,1515.229749
03 Mar 2024 11:50:00.000,168.642,7.738,1999.986295
12 Mar 2024 16:33:00.000,153.647,7.722,1999.989968
14 Mar 2024 09:34:00.000,251.71,7.802,1999.988918
06 Mar 2024 11:43:00.000,157.275,36.553,880.719143
25 Mar 2024 07:29:00.000,56.606,15.517,1519.258437
31 Mar 2024 05:25:00.000,316.592,19.388,1341.986632
23 Mar 2024 12:37:00.000,183.154,7.73,1999.998725
19 Mar 2024 11:09:00.000,82.747,12.454,1686.62475
05 Mar 2024 11:47:00.000,118.567,23.478,1190.745715
10 Mar 2024 16:36:00.000,147.419,37.715,860.894103
17 Mar 2024 07:49:00.000,102.138,69.227,596.938847
19 Mar 2024 14:26:00.000,228.16,11.03,1769.813925
25 Mar 2024 07:25:00.000,330.471,25.607,1128.03789
03 Mar 2024 16:58:00.000,59.565,15.798,1503.977401
27 Mar 2024 07:23:00.000,67.482,17.302,1432.340577
10 Mar 2024 16:30:00.000,292.013,7.869,1999.97548
11 Mar 2024 14:55:00.000,95.679,7.815,1999.983391
18 Mar 2024 09:27:00.000,342.83,32.41,961.227519
24 Mar 2024 09:07:00.000,313.992,20.784,1288.688058
12 Mar 2024 16:27:00.000,246.61,25.325,1132.986173
23 Mar 2024 04:12:00.000,100.999,17.495,1419.946927
31 Mar 2024 08:46:00.000,265.132,12.111,1704.603143
19 Mar 2024 12:46:00.000,252.524,54.994,672.38277
13 Mar 2024 09:45:00.000,63.599,15.905,1500.239635
24 Mar 2024 04:09:00.000,99.348,25.545,1126.126602
28 Mar 2024 07:15:00.000,315.39,20.351,1304.484154
06 Mar 2024 18:26:00.000,268.665,32.867,948.840568
17 Mar 2024 11:10:00.000,332.806,26.385,1106.846655
17 Mar 2024 11:13:00.000,48.696,23.06,1208.215553
25 Mar 2024 02:23:00.000,150.818,7.7,1999.993312
21 Mar 2024 09:15:00.000,304.907,12.949,1659.294338
23 Mar 2024 09:09:00.000,307.274,13.206,1644.435183
17 Mar 2024 07:52:00.000,66.832,15.665,1511.568339
17 Mar 2024 14:33:00.000,217.416,24.63,1153.015548
28 Mar 2024 10:39:00.000,214.893,11.076,1765.545579
18 Mar 2024 14:33:00.000,174.879,7.725,1999.998648
31 Mar 2024 08:50:00.000,195.198,18.554,1371.03106
30 Mar 2024 02:12:00.000,68.2,8.77,1929.5765
23 Mar 2024 07:27:00.000,286.976,7.847,1999.990745
11 Mar 2024 11:33:00.000,58.551,7.892,1999.982272
31 Mar 2024 02:04:00.000,235.006,62.757,622.924423
03 Mar 2024 11:51:00.000,156.952,10.131,1827.858234
14 Mar 2024 12:58:00.000,307.284,13.248,1642.894366
12 Mar 2024 11:30:00.000,58.19,7.892,1999.99108
30 Mar 2024 08:53:00.000,194.577,28.17,1053.461786
18 Mar 2024 07:41:00.000,246.627,7.782,1999.977661
01 Mar 2024 20:26:00.000,133.311,14.649,1555.145613
24 Mar 2024 05:50:00.000,49.194,22.816,1215.155553
21 Mar 2024 07:36:00.000,301.807,29.618,1021.613637
26 Mar 2024 03:59:00.000,228.289,35.926,889.781506
21 Mar 2024 06:01:00.000,67.621,7.865,1999.99013
18 Mar 2024 09:29:00.000,34.738,23.808,1184.041902
20 Mar 2024 06:04:00.000,72.418,7.858,1999.981216
13 Mar 2024 14:50:00.000,114.247,7.784,1999.979415
31 Mar 2024 07:09:00.000,80.705,71.124,590.115162
14 Mar 2024 08:02:00.000,81.969,7.853,1999.995207
10 Mar 2024 18:14:00.000,227.179,10.794,1783.55078
18 Mar 2024 09:25:00.000,300.326,19.449,1340.714842
30 Mar 2024 07:11:00.000,343.205,53.243,685.774053
09 Mar 2024 09:53:00.000,155.925,20.284,1302.326024
13 Mar 2024 11:25:00.000,47.109,17.282,1435.576383
27 Mar 2024 08:58:00.000,296.161,22.191,1236.314719
31 Mar 2024 02:06:00.000,66.087,42.536,792.556751
07 Mar 2024 16:39:00.000,300.677,7.881,1999.980259
09 Mar 2024 11:39:00.000,62.162,7.886,1999.993893
17 Mar 2024 14:32:00.000,240.063,22.647,1217.957974
08 Mar 2024 18:24:00.000,167.34,11.692,1723.649946
06 Mar 2024 15:03:00.000,310.039,18.944,1362.096938
08 Mar 2024 11:40:00.000,68.514,25.256,1138.068121
28 Mar 2024 07:22:00.000,86.595,7.833,1999.980383
18 Mar 2024 14:29:00.000,227.715,16.767,1452.823066
14 Mar 2024 16:21:00.000,236.497,12.98,1650.739308
02 Mar 2024 15:15:00.000,289.901,31.773,973.108137
21 Mar 2024 09:21:00.000,59.234,15.698,1510.58434
22 Mar 2024 04:16:00.000,98.838,10.631,1797.719648
29 Mar 2024 07:16:00.000,70.192,32.481,957.771124
26 Mar 2024 04:05:00.000,65.951,9.163,1902.489093
16 Mar 2024 13:00:00.000,99.87,7.817,1999.994597
14 Mar 2024 09:43:00.000,60.56,9.185,1903.848607
17 Mar 2024 12:53:00.000,62.548,65.372,612.892922
06 Mar 2024 13:27:00.000,55.052,14.355,1580.581827
16 Mar 2024 09:32:00.000,324.498,41.093,814.290812
15 Mar 2024 07:59:00.000,78.544,11.415,1751.064794
26 Mar 2024 05:42:00.000,8.241,34.819,913.153967
10 Mar 2024 13:16:00.000,59.31,10.092,1839.954438
15 Mar 2024 09:36:00.000,4.708,50.123,713.171806
02 Mar 2024 16:58:00.000,21.488,28.049,1060.960667
15 Mar 2024 07:51:00.000,214.012,7.739,1999.980967
25 Mar 2024 09:05:00.000,320.914,33.193,944.63466
29 Mar 2024 08:53:00.000,262.738,31.22,983.63894
12 Mar 2024 14:50:00.000,96.695,23.929,1176.708614
22 Mar 2024 07:37:00.000,46.944,17.403,1429.349641
23 Mar 2024 07:36:00.000,60.569,7.88,1999.989832
12 Mar 2024 11:21:00.000,273.631,7.847,2000.00002
12 Mar 2024 14:43:00.000,299.857,7.888,1999.975452
31 Mar 2024 02:10:00.000,64.082,7.838,1999.975027
29 Mar 2024 03:52:00.000,4.061,45.739,755.614555
04 Mar 2024 18:37:00.000,114.467,9.251,1889.530082
05 Mar 2024 16:46:00.000,307.226,13.202,1644.562017
13 Mar 2024 14:44:00.000,312.286,62.241,627.925804
02 Mar 2024 13:35:00.000,167.287,43.093,785.899454
19 Mar 2024 09:23:00.000,323.705,25.873,1120.906697
15 Mar 2024 14:36:00.000,286.535,13.574,1622.359728
31 Mar 2024 03:49:00.000,46.824,17.483,1423.755522
12 Mar 2024 09:45:00.000,115.817,60.181,638.791296
20 Mar 2024 11:02:00.000,353.28,44.972,765.912687
27 Mar 2024 05:37:00.000,316.315,26.945,1089.163959
01 Mar 2024 18:43:00.000,62.169,28.518,1047.208788
29 Mar 2024 05:36:00.000,54.311,15.432,1522.783976
06 Mar 2024 11:46:00.000,85.775,18.019,1399.790168
08 Mar 2024 15:04:00.000,73.505,7.853,1999.989827
15 Mar 2024 13:00:00.000,65.899,30.537,1000.695943
22 Mar 2024 04:10:00.000,185.746,7.695,1999.980588
04 Mar 2024 18:33:00.000,90.631,72.917,584.358538
03 Mar 2024 15:13:00.000,330.73,37.867,861.672301
13 Mar 2024 16:22:00.000,272.825,7.837,1999.995506
14 Mar 2024 09:43:00.000,60.961,7.889,1999.990275
29 Mar 2024 02:07:00.000,218.962,7.7,1999.981837
04 Mar 2024 11:52:00.000,99.161,11.242,1759.916023
13 Mar 2024 13:03:00.000,333.141,27.053,1088.432235
05 Mar 2024 11:43:00.000,194.14,12.549,1674.400494
01 Mar 2024 20:27:00.000,130.455,7.723,1999.980867
04 Mar 2024 16:56:00.000,76.743,7.835,1999.982073
26 Mar 2024 04:02:00.000,75.403,40.995,813.417094
06 Mar 2024 11:44:00.000,122.683,34.996,908.540514
14 Mar 2024 11:24:00.000,60.691,7.889,1999.98985
30 Mar 2024 07:09:00.000,307.317,21.826,1249.049624
05 Mar 2024 18:34:00.000,125.155,9.052,1902.58573
10 Mar 2024 09:55:00.000,80.389,9.736,1862.735828
12 Mar 2024 13:09:00.000,46.3,22.464,1228.416948
05 Mar 2024 13:31:00.000,60.45,9.184,1903.210539
07 Mar 2024 10:00:00.000,142.182,8.95,1911.357982
16 Mar 2024 07:50:00.000,217.18,21.402,1260.169853
25 Mar 2024 10:44:00.000,279.286,13.16,1644.915978
20 Mar 2024 09:23:00.000,41.74,21.865,1249.596108
11 Mar 2024 09:49:00.000,95.563,30.557,999.308968
28 Mar 2024 05:33:00.000,296.362,12.911,1658.849778
11 Mar 2024 13:07:00.000,312.291,18.988,1360.782359
03 Mar 2024 20:14:00.000,263.041,18.794,1363.262659
23 Mar 2024 10:57:00.000,125.355,15.537,1513.155468
29 Mar 2024 02:16:00.000,72.736,7.827,1999.999752
01 Mar 2024 20:25:00.000,137.897,23.414,1189.12793
26 Mar 2024 09:06:00.000,102.558,24.851,1147.988641
11 Mar 2024 16:36:00.000,141.362,7.734,1999.975489
16 Mar 2024 14:40:00.000,147.075,7.74,1999.981752
28 Mar 2024 03:59:00.000,59.661,8.876,1923.720653
18 Mar 2024 12:46:00.000,295.924,13.753,1613.301815
23 Mar 2024 04:07:00.000,192.675,12.43,1678.360051
29 Mar 2024 05:34:00.000,20.784,28.052,1060.481804
14 Mar 2024 09:36:00.000,256.724,21.99,1241.75945
10 Mar 2024 14:49:00.000,301.82,7.891,1999.975468
17 Mar 2024 11:15:00.000,70.099,10.439,1815.708767
07 Mar 2024 18:26:00.000,171.15,24.656,1150.078472
08 Mar 2024 18:22:00.000,195.297,21.746,1246.089008
14 Mar 2024 13:02:00.000,33.593,34.944,911.822778
07 Mar 2024 15:02:00.000,356.036,30.122,1011.212315
11 Mar 2024 14:55:00.000,95.52,8.062,1981.152471
30 Mar 2024 08:55:00.000,162.072,15.029,1536.389619
06 Mar 2024 13:20:00.000,264.767,13.504,1624.473527
04 Mar 2024 16:54:00.000,51.906,23.976,1176.795383
04 Mar 2024 11:48:00.000,163.924,15.21,1527.966287
07 Mar 2024 10:02:00.000,116.366,7.939,1989.111754
28 Mar 2024 03:50:00.000,255.626,7.765,1999.991122
08 Mar 2024 16:43:00.000,104.117,24.86,1146.749388
14 Mar 2024 16:19:00.000,261.549,7.817,1999.998316
18 Mar 2024 14:31:00.000,194.089,13.865,1598.592462
01 Mar 2024 20:22:00.000,250.01,53.95,678.628026
08 Mar 2024 14:59:00.000,358.67,31.504,980.279143
15 Mar 2024 14:44:00.000,135.488,8.006,1980.63037
10 Mar 2024 11:36:00.000,59.458,8.857,1927.552626
20 Mar 2024 11:07:00.000,95.104,8.065,1982.022578
05 Mar 2024 16:48:00.000,331.615,28.765,1043.049936
17 Mar 2024 14:30:00.000,269.403,12.554,1679.742915
19 Mar 2024 07:42:00.000,272.305,34.404,919.783162
10 Mar 2024 16:39:00.000,130.379,8.634,1933.368105
28 Mar 2024 05:35:00.000,323.593,25.951,1117.095844
23 Mar 2024 09:10:00.000,316.265,20.074,1316.267164
28 Mar 2024 03:51:00.000,258.181,13.565,1616.856403
24 Mar 2024 12:29:00.000,242.078,7.789,1999.99158
25 Mar 2024 07:26:00.000,355.484,30.031,1012.860225
28 Mar 2024 05:39:00.000,50.748,15.691,1510.020447
19 Mar 2024 12:45:00.000,278.104,34.94,910.68504
31 Mar 2024 07:07:00.000,303.961,36.224,887.470917
26 Mar 2024 07:23:00.000,358.359,31.281,984.603348
22 Mar 2024 04:12:00.000,162.206,14.872,1542.837176
12 Mar 2024 11:25:00.000,330.481,38.105,858.414619
26 Mar 2024 08:59:00.000,298.963,7.871,1999.99225
16 Mar 2024 11:14:00.000,355.914,30.105,1012.056787
20 Mar 2024 11:04:00.000,70.891,32.792,952.284503
16 Mar 2024 07:54:00.000,90.776,34.795,912.822735
01 Mar 2024 18:38:00.000,306.905,13.322,1636.785856
01 Mar 2024 20:27:00.000,130.753,8.528,1939.278866
26 Mar 2024 09:08:00.000,108.21,9.135,1901.129378
30 Mar 2024 05:27:00.000,304.725,12.903,1659.89177
07 Mar 2024 18:28:00.000,147.606,7.714,1999.981776
13 Mar 2024 16:29:00.000,167.452,7.715,1999.988688
17 Mar 2024 09:32:00.000,32.87,26.313,1108.658028
30 Mar 2024 02:06:00.000,215.848,34.563,913.171868
13 Mar 2024 09:41:00.000,240.894,63.353,621.901085
17 Mar 2024 12:55:00.000,103.401,24.925,1145.967144
06 Mar 2024 15:02:00.000,299.526,12.855,1664.763655
07 Mar 2024 11:44:00.000,72.928,14.288,1583.138698
14 Mar 2024 16:22:00.000,220.891,13.647,1611.463337
26 Mar 2024 10:43:00.000,241.077,22.915,1208.8412
17 Mar 2024 07:54:00.000,65.528,7.878,1999.978832
21 Mar 2024 05:59:00.000,74.374,23.989,1175.642369
04 Mar 2024 13:33:00.000,63.363,15.948,1497.567835
26 Mar 2024 10:47:00.000,166.678,12.296,1688.930468
11 Mar 2024 13:13:00.000,63.108,9.91,1852.094198
18 Mar 2024 09:30:00.000,48.024,16.65,1464.959641
07 Mar 2024 13:22:00.000,5.521,40.328,825.224291
10 Mar 2024 14:52:00.000,329.923,29.765,1019.41038
27 Mar 2024 07:19:00.000,332.874,27.654,1071.20332
02 Mar 2024 15:21:00.000,58.522,7.873,1999.978101
11 Mar 2024 13:06:00.000,301.71,12.904,1662.432276
06 Mar 2024 16:49:00.000,79.92,20.568,1294.147324
06 Mar 2024 11:42:00.000,185.053,28.944,1035.042737
08 Mar 2024 09:56:00.000,153.832,13.419,1624.50811
16 Mar 2024 12:51:00.000,300.742,7.891,1999.979936
05 Mar 2024 11:49:00.000,89.414,12.734,1669.36382
27 Mar 2024 09:00:00.000,294.024,62.927,624.066933
22 Mar 2024 07:32:00.000,296.04,19.684,1330.189205
23 Mar 2024 10:52:00.000,287.076,36.071,890.742815
01 Mar 2024 22:01:00.000,240.243,9.714,1855.80557
17 Mar 2024 09:30:00.000,334.987,35.833,895.97602
10 Mar 2024 16:35:00.000,180.512,57.616,653.363334
29 Mar 2024 08:51:00.000,283.527,13.372,1632.325064
31 Mar 2024 05:24:00.000,306.672,12.972,1655.885302
16 Mar 2024 12:55:00.000,348.254,49.253,721.252676
05 Mar 2024 15:12:00.000,57.711,10.371,1820.402882
23 Mar 2024 07:31:00.000,345.819,31.313,983.998163
09 Mar 2024 09:55:00.000,115.724,18.821,1363.258699
14 Mar 2024 14:45:00.000,126.041,15.468,1515.951856
09 Mar 2024 16:39:00.000,121.958,42.517,792.980766
11 Mar 2024 11:29:00.000,4.114,44.781,768.260352
06 Mar 2024 16:48:00.000,66.305,30.704,995.907126
19 Mar 2024 07:47:00.000,56.611,15.052,1543.535056
27 Mar 2024 02:19:00.000,114.97,17.891,1400.158911
30 Mar 2024 00:29:00.000,125.459,10.539,1798.504676
03 Mar 2024 18:40:00.000,104.562,8.894,1916.300953
09 Mar 2024 11:33:00.000,253.37,35.986,891.504688
22 Mar 2024 12:36:00.000,234.435,19.836,1321.002186
26 Mar 2024 02:18:00.000,176.509,7.681,1999.993401
06 Mar 2024 18:23:00.000,289.61,7.854,1999.977847
12 Mar 2024 14:44:00.000,302.407,13.718,1615.624838
15 Mar 2024 11:19:00.000,39.812,21.98,1245.816776
18 Mar 2024 06:09:00.000,86.362,7.836,1999.980928
01 Mar 2024 18:37:00.000,301.817,7.869,1999.981528
22 Mar 2024 10:52:00.000,297.607,7.881,1999.981547
05 Mar 2024 13:22:00.000,252.101,7.811,1999.993345
24 Mar 2024 09:09:00.000,356.63,41.312,811.284079
30 Mar 2024 02:09:00.000,84.978,38.024,856.081806
05 Mar 2024 13:25:00.000,264.043,35.223,905.149617
08 Mar 2024 09:54:00.000,178.348,7.734,1999.984524
19 Mar 2024 11:10:00.000,87.049,7.845,1999.973458
02 Mar 2024 13:31:00.000,220.642,7.762,1999.979665
11 Mar 2024 11:31:00.000,47.233,21.497,1262.899876
21 Mar 2024 05:54:00.000,225.102,21.831,1244.180037
11 Mar 2024 14:53:00.000,84.723,21.669,1253.843785
30 Mar 2024 05:33:00.000,58.926,15.639,1511.900239
31 Mar 2024 05:28:00.000,28.895,30.653,997.554037
17 Mar 2024 09:26:00.000,277.224,7.845,1999.989841
13 Mar 2024 14:43:00.000,302.263,36.219,888.570227
11 Mar 2024 16:31:00.000,232.093,40.883,814.66503
11 Mar 2024 09:50:00.000,82.675,20.338,1304.410138
07 Mar 2024 16:43:00.000,347.932,49.677,716.625408
21 Mar 2024 07:37:00.000,329.807,38.32,854.349466
29 Mar 2024 03:47:00.000,264.55,7.78,1999.992553
08 Mar 2024 13:19:00.000,9.023,34.29,924.226607
24 Mar 2024 10:49:00.000,270.199,33.322,940.876806
06 Mar 2024 15:09:00.000,63.843,7.868,1999.982432
16 Mar 2024 09:30:00.000,281.797,20.733,1289.217819
04 Mar 2024 18:34:00.000,109.098,42.115,797.819169
15 Mar 2024 14:38:00.000,269.268,33.147,944.336002
21 Mar 2024 05:55:00.000,217.182,34.898,908.540473
23 Mar 2024 04:09:00.000,163.463,22.759,1210.644529
12 Mar 2024 09:49:00.000,67.709,8.856,1926.844762
12 Mar 2024 14:48:00.000,52.477,58.003,652.27215
02 Mar 2024 18:42:00.000,91.8,13.84,1603.159931
05 Mar 2024 18:29:00.000,267.037,59.734,640.563391
15 Mar 2024 09:32:00.000,264.35,13.531,1622.465224
11 Mar 2024 16:27:00.000,287.111,7.862,1999.990679
31 Mar 2024 02:09:00.000,64.104,9.383,1885.783012
04 Mar 2024 20:14:00.000,213.235,19.731,1321.657527
30 Mar 2024 07:10:00.000,316.561,34.478,919.073796
16 Mar 2024 12:59:00.000,95.959,14.52,1568.266959
09 Mar 2024 14:57:00.000,31.568,32.798,952.801712
24 Mar 2024 07:30:00.000,39.575,22.001,1244.266033
13 Mar 2024 16:27:00.000,195,17.59,1412.8935
19 Mar 2024 07:43:00.000,298.586,53.344,685.05327
17 Mar 2024 14:34:00.000,195.142,22.161,1232.839789
10 Mar 2024 09:54:00.000,88.109,15.299,1528.729974
14 Mar 2024 13:04:00.000,71.476,18.293,1388.658073
21 Mar 2024 09:22:00.000,67.452,10.115,1837.736495
05 Mar 2024 11:46:00.000,141.917,25.849,1117.4113
06 Mar 2024 11:40:00.000,209.241,13.135,1640.903516
02 Mar 2024 20:20:00.000,192.117,39.337,834.854466
26 Mar 2024 07:19:00.000,299.382,7.863,1999.982498
31 Mar 2024 05:30:00.000,64.182,16.586,1465.102144
23 Mar 2024 12:36:00.000,192.616,10.428,1807.086902
23 Mar 2024 09:08:00.000,301.639,7.879,1999.97581
07 Mar 2024 11:41:00.000,121.833,51.113,703.154349
13 Mar 2024 14:42:00.000,299.593,22.232,1235.761055
05 Mar 2024 13:26:00.000,286.21,57.284,656.943649
19 Mar 2024 11:03:00.000,315.213,20.387,1304.522944
10 Mar 2024 14:56:00.000,75.401,19.406,1341.06629
22 Mar 2024 05:58:00.000,63.878,7.87,1999.974566
10 Mar 2024 13:10:00.000,307.399,19.109,1355.499276
06 Mar 2024 13:22:00.000,281.993,33.06,946.707522
15 Mar 2024 16:19:00.000,227.446,8.499,1944.037908
21 Mar 2024 04:18:00.000,113.381,9.397,1880.238261
27 Mar 2024 10:42:00.000,210.447,16.813,1449.61731
26 Mar 2024 10:41:00.000,270.113,12.521,1681.38246
16 Mar 2024 09:31:00.000,295.957,30.726,996.447269
11 Mar 2024 14:47:00.000,305.284,13.512,1627.474706
19 Mar 2024 07:44:00.000,6.736,56.885,659.734581
06 Mar 2024 13:21:00.000,270.558,21.39,1264.370121
04 Mar 2024 16:51:00.000,333.227,27.118,1085.709488
09 Mar 2024 11:39:00.000,61.897,9.401,1888.159938
10 Mar 2024 14:54:00.000,35.591,37.968,860.010029
24 Mar 2024 05:48:00.000,4.477,50.792,706.242902
15 Mar 2024 07:56:00.000,122.664,34.435,918.481209
12 Mar 2024 09:43:00.000,218.264,35.195,904.36872
04 Mar 2024 18:31:00.000,301.693,36.333,885.537752
29 Mar 2024 02:09:00.000,207.117,20.641,1285.24974
18 Mar 2024 12:53:00.000,119.196,15.845,1498.200948
01 Mar 2024 18:45:00.000,83.45,12.453,1683.830177
18 Mar 2024 11:05:00.000,307.146,13.073,1652.808384
09 Mar 2024 13:14:00.000,317.265,26.891,1092.424154
10 Mar 2024 18:13:00.000,240.903,9.829,1849.793721
22 Mar 2024 04:17:00.000,91.567,7.812,1999.991661
08 Mar 2024 11:35:00.000,234.407,22.162,1234.794874
27 Mar 2024 03:59:00.000,55.678,42.152,798.336101
18 Mar 2024 11:09:00.000,31.042,32.697,955.305527
27 Mar 2024 09:03:00.000,118.592,25.666,1123.008164
22 Mar 2024 07:38:00.000,55.064,11.261,1762.758264
11 Mar 2024 13:14:00.000,65.731,7.876,1999.98231
26 Mar 2024 10:46:00.000,178.209,17.648,1410.920039
15 Mar 2024 11:21:00.000,61.008,9.97,1848.577634
06 Mar 2024 20:06:00.000,238.158,7.75,1999.994477
11 Mar 2024 14:52:00.000,71.582,32.938,948.891824
23 Mar 2024 07:35:00.000,57.431,10.439,1816.346642
26 Mar 2024 04:01:00.000,104.341,68.171,599.834362
22 Mar 2024 04:14:00.000,127.503,16.655,1456.636006
30 Mar 2024 03:50:00.000,32.566,28.314,1053.016737
18 Mar 2024 12:47:00.000,295.667,22.267,1234.507724
22 Mar 2024 04:11:00.000,175.684,11.451,1738.324902
21 Mar 2024 12:38:00.000,264.168,19.005,1356.755302
25 Mar 2024 09:02:00.000,300.819,7.876,1999.979615
17 Mar 2024 06:10:00.000,121.351,13.223,1636.814264
17 Mar 2024 07:44:00.000,236.469,7.766,1999.991039
23 Mar 2024 07:28:00.000,293.479,12.907,1659.980159
01 Mar 2024 20:21:00.000,276.617,34.713,912.940213
22 Mar 2024 09:15:00.000,359.359,32.519,958.915592
23 Mar 2024 05:48:00.000,255.962,21.911,1242.872228
30 Mar 2024 00:30:00.000,112.42,8.929,1911.578261
21 Mar 2024 09:17:00.000,332.144,25.975,1118.106442
26 Mar 2024 02:22:00.000,120.507,12.785,1660.035218
04 Mar 2024 16:56:00.000,73.323,10.783,1790.536583
09 Mar 2024 14:58:00.000,54.702,25.173,1140.507609
18 Mar 2024 12:54:00.000,119.049,9.32,1886.710856
14 Mar 2024 16:24:00.000,192.317,10.02,1833.518221
02 Mar 2024 15:14:00.000,276.814,21.032,1277.535189
03 Mar 2024 15:15:00.000,32.547,27.799,1067.749172
17 Mar 2024 07:46:00.000,233.689,22.129,1234.970993
28 Mar 2024 02:14:00.000,147.187,29.493,1019.429551
07 Mar 2024 13:21:00.000,324.953,40.808,818.290559
12 Mar 2024 13:04:00.000,304.957,12.909,1662.399198
28 Mar 2024 08:53:00.000,292.468,7.859,1999.999498
18 Mar 2024 07:48:00.000,59.02,25.558,1129.156146
28 Mar 2024 05:36:00.000,348.937,30.556,1000.053688
05 Mar 2024 15:10:00.000,36.309,22.878,1214.050339
16 Mar 2024 07:57:00.000,69.957,8.288,1968.377783
07 Mar 2024 10:01:00.000,128.993,9.03,1906.873824
16 Mar 2024 11:10:00.000,296.629,7.883,1999.999631
25 Mar 2024 02:25:00.000,125.324,8.35,1953.489433
08 Mar 2024 13:23:00.000,58.414,7.886,1999.977877
08 Mar 2024 16:45:00.000,109.572,7.779,1999.97386
14 Mar 2024 11:24:00.000,57.557,10.436,1817.253554
13 Mar 2024 14:46:00.000,108.034,42.237,797.333977
25 Mar 2024 09:11:00.000,99.022,8.469,1950.873545
17 Mar 2024 12:56:00.000,106.813,15.541,1514.352436
28 Mar 2024 07:16:00.000,330.403,29.541,1023.845261
04 Mar 2024 13:34:00.000,63.586,7.876,1999.978458
25 Mar 2024 04:04:00.000,122.372,49.261,718.347775
01 Mar 2024 16:58:00.000,307.435,18.992,1359.238579
05 Mar 2024 15:09:00.000,15.037,29.415,1027.719749
24 Mar 2024 10:46:00.000,290.077,7.867,1999.978234
27 Mar 2024 07:22:00.000,54.052,24.901,1148.385996
27 Mar 2024 02:16:00.000,171.297,16.261,1472.051163
20 Mar 2024 10:59:00.000,305.362,13.461,1630.308795
13 Mar 2024 13:08:00.000,73.055,10.799,1791.20365
09 Mar 2024 13:18:00.000,48.191,16.552,1469.407704
19 Mar 2024 07:45:00.000,40.704,37.807,862.47593
09 Mar 2024 18:16:00.000,257.32,11.441,1745.305124
03 Mar 2024 11:54:00.000,114.778,10.065,1835.791944
04 Mar 2024 16:55:00.000,65.185,16.719,1458.930668
27 Mar 2024 02:21:00.000,90.019,9.418,1880.524753
14 Mar 2024 13:06:00.000,83.431,7.847,1999.981639
22 Mar 2024 12:39:00.000,180.516,13.881,1597.786094
12 Mar 2024 14:45:00.000,306.653,21.932,1246.686122
24 Mar 2024 04:11:00.000,75.444,7.839,1999.981686
18 Mar 2024 09:31:00.000,56.209,10.765,1795.425038
28 Mar 2024 03:57:00.000,51.947,23.925,1177.675616
07 Mar 2024 13:19:00.000,282.255,20.693,1291.099095
18 Mar 2024 12:52:00.000,119.57,25.587,1125.571034
27 Mar 2024 02:17:00.000,154.013,19.635,1324.634735
10 Mar 2024 11:29:00.000,263.869,21.731,1251.704565
15 Mar 2024 12:56:00.000,313.744,20.773,1289.801184
07 Mar 2024 15:06:00.000,65.377,9.983,1846.051233
13 Mar 2024 11:27:00.000,58.879,7.891,1999.982225
23 Mar 2024 07:32:00.000,14.617,29.603,1023.055499
04 Mar 2024 20:16:00.000,180.653,13.164,1635.100268
12 Mar 2024 16:24:00.000,280.893,7.851,2000.000072
23 Mar 2024 07:33:00.000,36.003,23.018,1209.368313
12 Mar 2024 08:02:00.000,167.778,7.73,1999.987288
08 Mar 2024 14:55:00.000,299.618,7.887,1999.983017
17 Mar 2024 12:49:00.000,300.576,13.716,1615.798434
31 Mar 2024 02:02:00.000,240.204,22.054,1235.189439
28 Mar 2024 03:53:00.000,271.289,34.541,915.685901
02 Mar 2024 13:39:00.000,75.744,13.096,1649.023432
20 Mar 2024 09:17:00.000,294.628,7.872,1999.999904
02 Mar 2024 16:59:00.000,41.992,21.889,1247.466419
06 Mar 2024 16:44:00.000,313.593,20.778,1288.697179
06 Mar 2024 20:08:00.000,212.847,7.712,1999.99477
08 Mar 2024 15:03:00.000,70.379,10.425,1815.553041
03 Mar 2024 13:37:00.000,67.251,7.869,1999.999849
13 Mar 2024 08:02:00.000,128.388,17.088,1438.194025
26 Mar 2024 09:07:00.000,106.154,15.508,1515.906793
20 Mar 2024 05:55:00.000,219.651,7.73,1999.998664
28 Mar 2024 10:38:00.000,229.303,11.288,1753.081174
29 Mar 2024 07:14:00.000,353.651,44.474,770.81927
06 Mar 2024 18:24:00.000,286.257,13.504,1624.943154
24 Mar 2024 07:33:00.000,63.497,7.875,1999.982429
12 Mar 2024 16:25:00.000,274.193,12.817,1664.164027
21 Mar 2024 10:59:00.000,341.679,53.652,683.372766
13 Mar 2024 09:46:00.000,63.682,9.394,1888.610543
19 Mar 2024 09:25:00.000,16.862,28.722,1045.010807
05 Mar 2024 15:11:00.000,49.467,16.061,1492.46397
13 Mar 2024 13:02:00.000,316.724,19.532,1338.602624
10 Mar 2024 13:12:00.000,349.495,30.467,1003.650221
16 Mar 2024 14:34:00.000,269.753,19.962,1318.297432
02 Mar 2024 18:40:00.000,71.997,33.109,944.200588
24 Mar 2024 07:26:00.000,309.622,18.969,1360.137063
22 Mar 2024 07:39:00.000,58.818,7.884,1999.982246
17 Mar 2024 11:07:00.000,299.517,7.887,1999.985254
23 Mar 2024 10:51:00.000,291.41,22.226,1235.434243
02 Mar 2024 20:17:00.000,274.807,20.621,1291.01621
10 Mar 2024 13:08:00.000,290.174,7.876,1999.987835
28 Mar 2024 10:37:00.000,243.102,10.057,1835.438913
20 Mar 2024 05:56:00.000,215.4,13.237,1633.25909
08 Mar 2024 13:14:00.000,277.554,7.856,1999.982187
18 Mar 2024 06:06:00.000,134.366,20.828,1281.387058
18 Mar 2024 12:50:00.000,128.783,74.517,580.837416
29 Mar 2024 05:35:00.000,41.32,21.907,1246.606932
05 Mar 2024 20:09:00.000,235.977,12.784,1660.342229
26 Mar 2024 04:05:00.000,65.736,7.852,1999.991775
16 Mar 2024 12:56:00.000,44.95,51.309,702.400639
09 Mar 2024 16:42:00.000,119.499,7.763,1999.978012
04 Mar 2024 18:30:00.000,299.286,22.276,1232.897188
11 Mar 2024 13:08:00.000,329.179,25.62,1128.698612
13 Mar 2024 14:47:00.000,111.606,25.513,1127.681096
12 Mar 2024 13:07:00.000,357.313,30.62,1000.211182
25 Mar 2024 05:47:00.000,46.476,20.429,1301.533181
23 Mar 2024 05:55:00.000,61.083,7.872,1999.990421
09 Mar 2024 16:40:00.000,120.364,25.589,1124.401798
18 Mar 2024 06:03:00.000,184.926,12.036,1703.197592
23 Mar 2024 04:06:00.000,200.531,7.698,1999.995772
25 Mar 2024 07:30:00.000,64.878,10.003,1845.025579
21 Mar 2024 04:19:00.000,105.389,7.787,1999.997097
18 Mar 2024 12:54:00.000,119.028,7.785,1999.985416
25 Mar 2024 10:50:00.000,157.357,17.561,1415.239066
07 Mar 2024 15:01:00.000,330.94,25.709,1125.771701
13 Mar 2024 16:29:00.000,170.286,9.155,1893.366513
14 Mar 2024 13:05:00.000,79.4,11.802,1726.526492
05 Mar 2024 15:06:00.000,304.285,19.178,1352.043898
09 Mar 2024 11:36:00.000,53.791,42.066,801.17663
15 Mar 2024 09:31:00.000,260.926,7.818,1999.983891
27 Mar 2024 10:38:00.000,268.644,7.828,1999.986537
24 Mar 2024 09:13:00.000,86.488,13.026,1652.261605
16 Mar 2024 11:18:00.000,67.88,7.877,1999.990687
29 Mar 2024 05:31:00.000,311.686,18.866,1363.522865
04 Mar 2024 20:10:00.000,272.457,7.813,1999.984202
31 Mar 2024 03:46:00.000,338.147,34.128,925.054123
17 Mar 2024 07:45:00.000,235.488,13.652,1612.249494
16 Mar 2024 09:36:00.000,53.899,13.029,1655.444137
13 Mar 2024 14:45:00.000,87.346,72.766,585.600731
10 Mar 2024 14:53:00.000,357.905,38.751,848.205062
02 Mar 2024 16:53:00.000,294.978,7.87,1999.983212
12 Mar 2024 11:28:00.000,46.228,19.08,1357.060451
26 Mar 2024 05:37:00.000,276.809,7.815,1999.98522
22 Mar 2024 07:33:00.000,312.124,27.636,1071.406255
13 Mar 2024 08:05:00.000,91.031,7.838,1999.992984
06 Mar 2024 11:45:00.000,98.793,26.359,1104.773282
13 Mar 2024 13:08:00.000,76.48,7.858,1999.997311
30 Mar 2024 02:13:00.000,67.879,7.834,1999.990249
19 Mar 2024 09:29:00.000,61.964,7.886,1999.989927
07 Mar 2024 16:42:00.000,320.059,33.456,939.213786
27 Mar 2024 03:55:00.000,248.296,22.098,1234.912099
20 Mar 2024 11:05:00.000,84.156,21.626,1256.063397
29 Mar 2024 07:19:00.000,94.748,7.818,1999.993266
11 Mar 2024 09:43:00.000,220.21,7.757,1999.970843
06 Mar 2024 13:28:00.000,59.077,7.883,1999.996844
09 Mar 2024 18:20:00.000,193.969,13.495,1617.540376
17 Mar 2024 11:08:00.000,306.035,12.967,1658.971332
12 Mar 2024 13:11:00.000,67.632,10.185,1832.774942
28 Mar 2024 07:21:00.000,82.341,12.336,1692.811731
24 Mar 2024 10:48:00.000,281.431,21.512,1260.218164
31 Mar 2024 07:10:00.000,105.235,41.775,802.8661
31 Mar 2024 02:05:00.000,75.895,74.526,579.343418
21 Mar 2024 04:17:00.000,126.7,10.953,1773.397918
28 Mar 2024 02:18:00.000,78.895,7.818,1999.989903
06 Mar 2024 11:47:00.000,78.338,11.539,1743.350389
21 Mar 2024 06:01:00.000,67.931,8.829,1927.621759
31 Mar 2024 07:13:00.000,112.889,9.239,1892.283294
09 Mar 2024 09:54:00.000,135.246,21.245,1267.042779
17 Mar 2024 09:29:00.000,307.66,28.568,1047.999411
14 Mar 2024 07:57:00.000,164.562,23.071,1201.930035
23 Mar 2024 04:13:00.000,89.568,12.207,1698.868484
13 Mar 2024 14:41:00.000,298.283,13.747,1613.684771
21 Mar 2024 04:16:00.000,141.048,11.156,1758.954843
30 Mar 2024 02:07:00.000,190.351,54.401,674.265696
04 Mar 2024 15:10:00.000,339.715,33.696,935.150083
19 Mar 2024 07:48:00.000,59.542,8.886,1925.082891
07 Mar 2024 16:46:00.000,90.519,22.956,1208.085822
31 Mar 2024 02:07:00.000,64.73,25.628,1124.42586
01 Mar 2024 18:40:00.000,329.964,29.908,1014.784835
01 Mar 2024 22:03:00.000,212.631,10.106,1826.22177
04 Mar 2024 15:08:00.000,296.903,19.705,1330.123586
07 Mar 2024 16:41:00.000,309.306,21.509,1261.418009
26 Mar 2024 04:03:00.000,69.549,25.008,1143.453099
07 Mar 2024 11:42:00.000,90.223,35.163,906.489686
19 Mar 2024 09:20:00.000,289.922,7.865,1999.990561
28 Mar 2024 08:59:00.000,145.097,38.581,847.848436
06 Mar 2024 18:25:00.000,280.431,21.356,1264.755058
08 Mar 2024 11:34:00.000,236.047,13.674,1612.286366
17 Mar 2024 14:36:00.000,166.954,11.919,1711.427838
20 Mar 2024 09:19:00.000,312.088,18.976,1360.77837
14 Mar 2024 07:56:00.000,181.954,17.892,1399.880114
28 Mar 2024 05:40:00.000,61.797,7.865,1999.989896
23 Mar 2024 10:58:00.000,123.914,7.78,1999.980892
10 Mar 2024 11:27:00.000,256.603,7.818,1999.990827
06 Mar 2024 16:42:00.000,301.686,7.882,1999.972027
09 Mar 2024 09:57:00.000,90.063,10.027,1841.533317
20 Mar 2024 07:40:00.000,317.641,44.773,767.455403
09 Mar 2024 09:52:00.000,173.253,16.6,1459.410949
25 Mar 2024 09:03:00.000,304.18,13.527,1625.749751
13 Mar 2024 14:40:00.000,297.462,7.885,1999.982765
03 Mar 2024 11:52:00.000,143.133,11.565,1735.338834
23 Mar 2024 05:47:00.000,252.978,13.57,1617.245186
15 Mar 2024 11:17:00.000,351.847,30.051,1013.321055
29 Mar 2024 05:37:00.000,65.285,7.859,1999.982372
09 Mar 2024 14:52:00.000,301.278,7.89,1999.972889
31 Mar 2024 03:47:00.000,10.111,32.721,952.908883
18 Mar 2024 14:27:00.000,257.923,11.519,1741.837207
31 Mar 2024 05:23:00.000,300.351,7.848,1999.999347
09 Mar 2024 13:12:00.000,290.775,13.046,1653.197237
10 Mar 2024 09:55:00.000,78.18,7.863,1999.982931
18 Mar 2024 09:26:00.000,316.772,26.903,1091.835862
25 Mar 2024 07:30:00.000,67.621,7.868,1999.990614
09 Mar 2024 16:33:00.000,295.846,7.875,1999.981157
14 Mar 2024 09:35:00.000,253.579,13.639,1615.352417
04 Mar 2024 18:32:00.000,310.805,62.623,625.127431
18 Mar 2024 06:05:00.000,154.841,20.026,1311.104382
09 Mar 2024 13:15:00.000,343.328,32.31,963.460518
10 Mar 2024 09:48:00.000,201.565,12.869,1655.644742
19 Mar 2024 12:47:00.000,179.396,58.533,648.155934
27 Mar 2024 05:36:00.000,299.891,19.444,1339.071455
09 Mar 2024 11:31:00.000,248.108,13.642,1615.137511
27 Mar 2024 05:42:00.000,56.082,10.785,1792.55743
24 Mar 2024 09:11:00.000,65.535,30.206,1008.065479
07 Mar 2024 11:40:00.000,178.93,49.631,715.980386
15 Mar 2024 09:37:00.000,36.562,34.965,911.432295
01 Mar 2024 20:23:00.000,180.765,56.746,658.132497
31 Mar 2024 00:26:00.000,111.143,13.735,1605.761205
04 Mar 2024 13:28:00.000,242.732,36.312,885.475266
20 Mar 2024 12:48:00.000,140.794,7.754,1999.975871
20 Mar 2024 11:03:00.000,40.845,45.56,759.00903
24 Mar 2024 10:54:00.000,138.258,13.984,1593.645262
12 Mar 2024 08:07:00.000,104.512,7.814,1999.9978
14 Mar 2024 14:43:00.000,134.727,40.83,815.562755
31 Mar 2024 05:29:00.000,50.883,23.73,1184.286853
15 Mar 2024 07:55:00.000,156.643,36.022,889.317542
03 Mar 2024 11:55:00.000,103.84,7.815,1999.987121
21 Mar 2024 09:23:00.000,70.276,7.872,1999.997394
13 Mar 2024 08:04:00.000,99.17,11.034,1773.206487
10 Mar 2024 18:17:00.000,195.414,7.708,1999.998264
24 Mar 2024 09:14:00.000,90.827,7.835,1999.972981
16 Mar 2024 12:52:00.000,304.017,13.537,1626.182925
12 Mar 2024 16:32:00.000,155.447,9.162,1893.356053
22 Mar 2024 07:36:00.000,33.464,25.022,1145.735715
31 Mar 2024 05:31:00.000,72.373,10.709,1795.626564
29 Mar 2024 03:51:00.000,316.174,45.037,763.111818
09 Mar 2024 15:01:00.000,79.989,7.842,1999.989613
02 Mar 2024 13:37:00.000,95.346,30.943,990.334645
04 Mar 2024 15:11:00.000,11.042,32.13,966.762415
07 Mar 2024 11:37:00.000,223.132,13.472,1622.568001
23 Mar 2024 09:11:00.000,331.922,28.62,1047.097565
17 Mar 2024 07:50:00.000,74.344,41.336,810.072399
26 Mar 2024 05:39:00.000,291.274,19.961,1317.88782
09 Mar 2024 14:53:00.000,307.25,13.147,1648.410294
27 Mar 2024 04:02:00.000,62.449,7.856,1999.975003
23 Mar 2024 09:14:00.000,57.483,26.431,1104.3216
05 Mar 2024 11:50:00.000,81.738,7.914,1995.319205
19 Mar 2024 06:02:00.000,148.037,30.144,1005.868881
01 Mar 2024 18:41:00.000,358.148,38.969,843.785426
30 Mar 2024 08:54:00.000,174.458,21.647,1250.511486
07 Mar 2024 15:03:00.000,23.568,28.268,1056.019473
22 Mar 2024 12:34:00.000,264.455,12.058,1709.155638
04 Mar 2024 15:06:00.000,281.215,7.857,1999.982905
19 Mar 2024 11:07:00.000,61.277,28.356,1053.197774
21 Mar 2024 11:00:00.000,50.985,57.48,655.865677
05 Mar 2024 18:28:00.000,285.537,35.779,894.697311
01 Mar 2024 16:59:00.000,324.163,25.789,1122.563568
12 Mar 2024 16:30:00.000,175.543,20.855,1279.085194
31 Mar 2024 02:00:00.000,240.724,7.729,1999.982064
26 Mar 2024 05:45:00.000,54.256,11.846,1724.956862
21 Mar 2024 11:01:00.000,85.211,38.047,857.949969
12 Mar 2024 14:46:00.000,315.365,34.775,914.540043
19 Mar 2024 11:04:00.000,330.093,29.656,1022.207228
03 Mar 2024 13:29:00.000,229.921,13.613,1615.062318
23 Mar 2024 05:55:00.000,60.684,9.223,1899.739527
04 Mar 2024 11:50:00.000,128.661,17.377,1425.306461
02 Mar 2024 15:19:00.000,47.236,21.295,1269.303143
14 Mar 2024 14:42:00.000,164.298,67.592,602.830567
13 Mar 2024 16:24:00.000,250.944,16.305,1476.039012
18 Mar 2024 11:07:00.000,332.58,27.69,1071.378904
21 Mar 2024 07:42:00.000,58.185,7.886,1999.983982
30 Mar 2024 02:03:00.000,230.209,7.714,1999.991421
14 Mar 2024 14:38:00.000,293.006,13.767,1612.148459
09 Mar 2024 11:38:00.000,60.682,15.891,1501.063447
04 Mar 2024 13:27:00.000,242.561,22.192,1234.050125
25 Mar 2024 10:51:00.000,149.812,11.209,1757.017947
11 Mar 2024 16:30:00.000,260.925,30.771,993.625296
06 Mar 2024 18:31:00.000,139.456,13.74,1604.701982
26 Mar 2024 03:56:00.000,235.885,7.734,1999.990903
30 Mar 2024 07:12:00.000,50.705,56.43,662.143744
22 Mar 2024 11:00:00.000,112.513,15.803,1500.947221
02 Mar 2024 20:24:00.000,141.799,7.709,1999.99049
13 Mar 2024 08:03:00.000,112.01,14.637,1560.668589
16 Mar 2024 11:13:00.000,330.827,25.707,1126.204744
09 Mar 2024 16:38:00.000,133.144,74.404,580.579929
19 Mar 2024 12:48:00.000,146.325,38.048,856.44611
22 Mar 2024 04:13:00.000,145.452,16.938,1442.174752
06 Mar 2024 16:51:00.000,91.622,7.81,1999.982841
18 Mar 2024 11:04:00.000,301.226,7.889,2000.000136
27 Mar 2024 05:41:00.000,47.908,16.688,1461.632733
12 Mar 2024 08:06:00.000,114.18,9.784,1855.025658
05 Mar 2024 15:05:00.000,294.068,12.92,1660.465067
23 Mar 2024 12:33:00.000,237.429,13.177,1640.160728
12 Mar 2024 11:24:00.000,302.481,29.578,1023.461971
09 Mar 2024 11:35:00.000,27.77,71.264,590.738682
22 Mar 2024 09:20:00.000,76.15,7.861,1999.997283
02 Mar 2024 15:20:00.000,54.212,13.626,1620.073815
08 Mar 2024 13:17:00.000,308.154,28.501,1049.92274
02 Mar 2024 15:12:00.000,265.798,7.829,1999.979311
28 Mar 2024 02:16:00.000,100.694,21.046,1273.385412
28 Mar 2024 02:12:00.000,189.386,18.868,1355.258053
12 Mar 2024 14:49:00.000,86.286,38.094,856.837871
10 Mar 2024 09:49:00.000,191.299,19.146,1347.238865
25 Mar 2024 10:52:00.000,146.405,7.749,1999.981758
17 Mar 2024 09:28:00.000,291.936,20.053,1316.064815
20 Mar 2024 09:25:00.000,62.903,9.913,1852.107161
16 Mar 2024 12:53:00.000,309.504,21.459,1264.100508
11 Mar 2024 09:47:00.000,166.277,42.65,791.592782
28 Mar 2024 07:20:00.000,74.582,19.148,1351.457492
18 Mar 2024 07:50:00.000,62.042,9.404,1887.621652
29 Mar 2024 02:10:00.000,193.047,30.731,990.514866
26 Mar 2024 10:44:00.000,218.198,25.151,1137.33872
27 Mar 2024 08:56:00.000,296.187,7.866,1999.97957
15 Mar 2024 09:34:00.000,281.377,33.219,943.383315
19 Mar 2024 06:03:00.000,120.605,27.959,1059.863144
03 Mar 2024 20:18:00.000,175.689,20.461,1292.386741
19 Mar 2024 11:06:00.000,35.336,37.687,864.851219
02 Mar 2024 17:00:00.000,54.96,15.409,1523.857988
19 Mar 2024 09:21:00.000,296.597,12.873,1663.161657
07 Mar 2024 18:20:00.000,284.064,7.846,1999.976205
10 Mar 2024 13:09:00.000,296.95,12.941,1659.86046
12 Mar 2024 08:03:00.000,156.035,10.05,1832.804445
16 Mar 2024 11:11:00.000,303.456,12.905,1662.392499
07 Mar 2024 14:58:00.000,296.78,7.882,1999.999671
15 Mar 2024 13:02:00.000,86.886,13.148,1645.211753
29 Mar 2024 08:55:00.000,191.189,41.629,804.194404
21 Mar 2024 11:04:00.000,104.181,7.813,1999.98101
02 Mar 2024 20:19:00.000,231.894,40.309,821.502462
24 Mar 2024 05:52:00.000,58.849,8.526,1950.675809
04 Mar 2024 15:13:00.000,47.179,17.204,1438.159196
15 Mar 2024 07:54:00.000,184.233,28.678,1040.968464
02 Mar 2024 20:18:00.000,260.507,30.46,999.260831
19 Mar 2024 12:43:00.000,290.088,13.691,1616.258699
06 Mar 2024 15:09:00.000,61.127,9.979,1846.743939
04 Mar 2024 16:49:00.000,306.933,13.081,1651.479357
30 Mar 2024 08:50:00.000,264.75,19.196,1347.812789
22 Mar 2024 05:56:00.000,64.098,25.65,1125.582759
27 Mar 2024 02:15:00.000,184.075,11.904,1708.991588
16 Mar 2024 14:38:00.000,170.909,25.16,1136.307968
05 Mar 2024 18:32:00.000,129.295,24.872,1144.490292
20 Mar 2024 11:00:00.000,311.977,21.119,1276.575923
25 Mar 2024 05:41:00.000,273.584,13.275,1635.82058
16 Mar 2024 09:33:00.000,5.477,40.642,820.807947
04 Mar 2024 15:14:00.000,55.287,11.119,1771.255854
24 Mar 2024 07:25:00.000,299.101,12.865,1662.886232
26 Mar 2024 07:27:00.000,72.908,7.858,1999.997088
11 Mar 2024 16:34:00.000,152.163,19.587,1328.445887
26 Mar 2024 09:09:00.000,108.602,7.802,1999.979794
03 Mar 2024 15:16:00.000,46.193,19.01,1358.953929
26 Mar 2024 04:00:00.000,211.209,60.56,634.97289
10 Mar 2024 09:52:00.000,120.886,28.534,1046.353094
27 Mar 2024 10:40:00.000,245.265,15.013,1540.357046
29 Mar 2024 07:11:00.000,305.481,13.413,1631.320925
02 Mar 2024 13:32:00.000,216.563,13.326,1630.247836
21 Mar 2024 07:40:00.000,46.19,19.204,1351.266421
26 Mar 2024 02:23:00.000,107.067,10.344,1814.618622
22 Mar 2024 10:53:00.000,298.523,13.754,1613.171101
03 Mar 2024 15:10:00.000,279.197,13.254,1639.673782
23 Mar 2024 10:49:00.000,294.336,7.875,1999.978342
18 Mar 2024 07:46:00.000,30.19,71.834,588.564382
09 Mar 2024 11:32:00.000,249.814,22.102,1237.717274
19 Mar 2024 12:49:00.000,136.57,23.795,1179.431362
22 Mar 2024 10:57:00.000,84.031,72.132,587.65291
23 Mar 2024 10:56:00.000,127.671,25.023,1141.876432
08 Mar 2024 11:33:00.000,236.937,7.786,1999.991058
05 Mar 2024 18:35:00.000,124.899,7.742,1999.98132
29 Mar 2024 08:50:00.000,287.702,7.85,1999.99038
31 Mar 2024 05:26:00.000,333.024,26.81,1093.042127
03 Mar 2024 18:32:00.000,302.224,13.603,1620.599677
19 Mar 2024 06:06:00.000,80.522,9.533,1875.850371
21 Mar 2024 09:19:00.000,25.418,28.712,1045.065545
07 Mar 2024 18:22:00.000,269.113,19.94,1317.838266
30 Mar 2024 05:32:00.000,45.922,22.26,1233.930624
16 Mar 2024 12:54:00.000,320.39,33.311,942.820448
12 Mar 2024 09:42:00.000,225.886,21.976,1240.639249
19 Mar 2024 07:41:00.000,263.236,21.732,1250.604474
11 Mar 2024 11:26:00.000,276.293,20.984,1279.800188
11 Mar 2024 11:30:00.000,33.834,32.441,960.599474
23 Mar 2024 09:12:00.000,359.254,35.974,893.453872
11 Mar 2024 11:33:00.000,58.431,8.069,1986.463557
31 Mar 2024 08:51:00.000,180.262,14.287,1575.021833
26 Mar 2024 10:41:00.000,277.779,7.845,1999.995106
28 Mar 2024 02:10:00.000,206.742,7.689,1999.986957
02 Mar 2024 13:34:00.000,196.253,31.477,976.930158
18 Mar 2024 06:04:00.000,172.205,16.502,1462.621567
07 Mar 2024 13:17:00.000,269.82,7.842,1999.979134
28 Mar 2024 09:00:00.000,135.643,24.039,1171.367023
03 Mar 2024 18:35:00.000,339.93,54.386,676.709339
10 Mar 2024 16:37:00.000,137.359,23.647,1183.074667
17 Mar 2024 12:52:00.000,330.082,58.548,649.251952
22 Mar 2024 12:40:00.000,170.078,9.476,1871.976863
13 Mar 2024 14:49:00.000,114.049,9.31,1887.302259
22 Mar 2024 09:14:00.000,333.214,26.997,1089.526143
07 Mar 2024 11:38:00.000,217.911,21.472,1258.52778
20 Mar 2024 05:58:00.000,194.449,30.996,986.254381
19 Mar 2024 11:08:00.000,75.003,19.328,1344.992422
07 Mar 2024 13:24:00.000,46.419,20.171,1312.687397
28 Mar 2024 10:36:00.000,254.983,7.804,1999.98662
25 Mar 2024 02:24:00.000,138.248,8.595,1933.88991
07 Mar 2024 11:43:00.000,78.486,22.609,1221.979919
05 Mar 2024 11:48:00.000,101.027,18.224,1389.684798
04 Mar 2024 11:46:00.000,187.188,7.738,1999.986533
25 Mar 2024 09:10:00.000,95.426,14.43,1573.022093
31 Mar 2024 02:08:00.000,64.276,15.897,1497.211293
07 Mar 2024 10:02:00.000,115.339,7.799,1999.99839
21 Mar 2024 09:18:00.000,357.466,30.565,1001.1877
14 Mar 2024 11:17:00.000,293.781,12.905,1661.642031
03 Mar 2024 20:15:00.000,245.918,25.116,1137.683028
31 Mar 2024 08:48:00.000,235.155,20.188,1306.245125
28 Mar 2024 05:34:00.000,306.781,19.096,1353.708221
03 Mar 2024 16:57:00.000,46.47,22.485,1226.409641
05 Mar 2024 18:25:00.000,293.98,7.861,1999.968532
24 Mar 2024 10:52:00.000,156.015,34.35,919.443441
05 Mar 2024 16:49:00.000,359.035,36.358,886.312711
16 Mar 2024 14:37:00.000,193.869,33.219,940.847912
07 Mar 2024 15:07:00.000,68.093,7.861,1999.990772
27 Mar 2024 08:57:00.000,296.223,13.697,1615.305366
10 Mar 2024 18:12:00.000,252.982,7.79,1999.999938
04 Mar 2024 15:12:00.000,33.784,24.728,1154.598313
30 Mar 2024 05:29:00.000,331.975,25.885,1119.092177
24 Mar 2024 05:49:00.000,36.786,35.312,904.075643
26 Mar 2024 09:05:00.000,94.35,40.341,823.251291
25 Mar 2024 04:05:00.000,91.426,34.282,920.927962
07 Mar 2024 13:23:00.000,32.797,29.905,1016.201733
21 Mar 2024 04:15:00.000,154.822,9.929,1839.043941
15 Mar 2024 11:16:00.000,326.781,25.678,1126.966692
08 Mar 2024 18:20:00.000,239.656,22.326,1227.691626
28 Mar 2024 07:18:00.000,35.224,37.265,870.832871
19 Mar 2024 11:05:00.000,358.001,38.498,852.367599
06 Mar 2024 16:46:00.000,355.86,41.862,803.52409
10 Mar 2024 13:17:00.000,62.107,7.881,1999.997181
30 Mar 2024 08:51:00.000,247.799,26.048,1111.893068
04 Mar 2024 16:53:00.000,29.765,31.066,988.892298
01 Mar 2024 20:18:00.000,291.856,7.844,1999.999919
24 Mar 2024 05:43:00.000,260.448,7.788,1999.980696
29 Mar 2024 05:29:00.000,294.374,7.842,1999.972184
24 Mar 2024 07:32:00.000,60.795,9.98,1847.11605
27 Mar 2024 05:39:00.000,12.53,30.879,992.920877
04 Mar 2024 11:49:00.000,147.031,17.508,1418.409038
05 Mar 2024 16:50:00.000,33.582,35.162,906.939213
29 Mar 2024 07:17:00.000,83.534,21.468,1260.808858
27 Mar 2024 10:39:00.000,258.706,11.572,1738.152949
26 Mar 2024 02:19:00.000,165.524,10.699,1785.75233
29 Mar 2024 05:37:00.000,62.588,9.945,1848.297059
06 Mar 2024 18:29:00.000,157.783,33.515,933.905017
31 Mar 2024 00:25:00.000,126.925,16.181,1477.39584
06 Mar 2024 11:39:00.000,214.521,7.756,1999.979695
25 Mar 2024 04:00:00.000,221.827,13.386,1624.022011
11 Mar 2024 11:27:00.000,289.186,31.762,973.841889
23 Mar 2024 04:11:00.000,118.053,22.541,1220.026276
28 Mar 2024 02:15:00.000,120.352,27.275,1076.06358
11 Mar 2024 14:49:00.000,324.429,32.245,964.301615
15 Mar 2024 07:53:00.000,199.86,20.021,1311.706715
20 Mar 2024 09:20:00.000,328.975,25.608,1128.684222
22 Mar 2024 12:35:00.000,251.725,16.436,1470.427512
31 Mar 2024 00:22:00.000,174.714,11.299,1745.995113
05 Mar 2024 13:31:00.000,60.868,7.88,1999.990226
03 Mar 2024 18:41:00.000,105.006,7.773,1999.990598
13 Mar 2024 09:46:00.000,63.713,7.886,1999.974334
25 Mar 2024 10:45:00.000,270.41,20.044,1314.895877
15 Mar 2024 09:38:00.000,49.025,22.652,1221.994441
15 Mar 2024 14:35:00.000,289.816,7.873,1999.969266
16 Mar 2024 14:35:00.000,253.85,28.279,1053.045052
20 Mar 2024 12:42:00.000,261.649,31.045,988.18634
26 Mar 2024 07:25:00.000,48.434,22.947,1211.124775
12 Mar 2024 14:52:00.000,104.23,8.823,1923.500705
16 Mar 2024 09:37:00.000,58.253,7.893,1999.990254
23 Mar 2024 12:34:00.000,221.702,13.975,1594.166044
05 Mar 2024 11:50:00.000,81.652,7.854,1999.989141
27 Mar 2024 02:21:00.000,86.872,7.804,1999.999175
13 Mar 2024 16:25:00.000,233.661,19.539,1332.107155
09 Mar 2024 18:17:00.000,243.758,14.662,1557.527577
22 Mar 2024 05:55:00.000,64.819,42.555,793.682465
31 Mar 2024 07:08:00.000,316.947,61.861,629.275562
10 Mar 2024 11:28:00.000,259.312,13.588,1619.234437
24 Mar 2024 05:52:00.000,59.208,7.874,1999.995345
16 Mar 2024 11:17:00.000,56.939,15.498,1521.057691
30 Mar 2024 03:46:00.000,286.169,20.38,1300.241824
07 Mar 2024 13:18:00.000,274.541,13.342,1634.633893
06 Mar 2024 18:27:00.000,239.788,47.254,738.419617
03 Mar 2024 15:09:00.000,273.93,7.844,1999.992464
03 Mar 2024 18:36:00.000,52.252,58.761,646.657318
24 Mar 2024 12:31:00.000,216.527,8.488,1944.538329
07 Mar 2024 15:00:00.000,314.104,19.008,1359.651432
20 Mar 2024 07:45:00.000,58.595,7.886,1999.982641
07 Mar 2024 16:47:00.000,96.417,14.518,1566.824355
08 Mar 2024 15:00:00.000,27.612,29.739,1019.874673
08 Mar 2024 16:37:00.000,300.409,13.765,1612.244753
11 Mar 2024 11:25:00.000,269.539,13.372,1632.401987
06 Mar 2024 13:24:00.000,4.443,49.681,717.198083
23 Mar 2024 07:29:00.000,303.647,19.191,1350.657108
17 Mar 2024 11:14:00.000,61.874,16.171,1487.177137
14 Mar 2024 11:21:00.000,14.743,29.536,1025.440411
12 Mar 2024 14:53:00.000,104.645,7.8,1999.980926
25 Mar 2024 10:46:00.000,254.688,28.556,1046.018902
02 Mar 2024 20:21:00.000,165.81,28.975,1031.855943
25 Mar 2024 09:07:00.000,44.55,50.614,708.213746
26 Mar 2024 03:58:00.000,232.787,22.089,1234.461702
07 Mar 2024 18:25:00.000,193.67,32.55,953.084113
14 Mar 2024 09:42:00.000,58.422,15.535,1519.086828
24 Mar 2024 10:55:00.000,134.751,7.763,1999.980535
14 Mar 2024 14:37:00.000,294.137,7.88,1999.982367
03 Mar 2024 16:52:00.000,305.041,12.887,1662.623747
01 Mar 2024 20:19:00.000,289.533,13.667,1615.119546
05 Mar 2024 18:31:00.000,135.864,40.736,815.764902
14 Mar 2024 14:40:00.000,286.179,36.013,891.70648
08 Mar 2024 11:41:00.000,66.549,15.71,1509.650997
31 Mar 2024 00:23:00.000,161.218,14.603,1555.135508
05 Mar 2024 16:45:00.000,301.692,7.881,1999.976614
08 Mar 2024 14:56:00.000,306.159,12.999,1656.901099
27 Mar 2024 02:20:00.000,100.393,13.773,1605.645613
27 Mar 2024 10:45:00.000,173.942,7.729,1999.988259
17 Mar 2024 07:47:00.000,229.62,36.015,889.716704
11 Mar 2024 13:09:00.000,354.2,29.926,1016.16627
05 Mar 2024 13:28:00.000,45.674,40.092,828.100488
08 Mar 2024 13:16:00.000,292.369,20.043,1316.862486
26 Mar 2024 10:48:00.000,159.214,7.737,1999.99906
20 Mar 2024 07:45:00.000,58.497,8.032,1988.840132
09 Mar 2024 14:54:00.000,316.688,19.82,1326.680841
20 Mar 2024 09:26:00.000,65.527,7.88,1999.991441
18 Mar 2024 09:23:00.000,284.087,7.856,1999.990922
16 Mar 2024 09:34:00.000,32.893,30.077,1012.281105
17 Mar 2024 09:27:00.000,282.897,13.189,1643.655286
20 Mar 2024 09:18:00.000,301.508,12.892,1662.447144
16 Mar 2024 06:13:00.000,127.467,8.746,1926.375021
22 Mar 2024 09:12:00.000,306.823,13.065,1652.634092
12 Mar 2024 11:26:00.000,7.166,37.072,875.251246
17 Mar 2024 11:12:00.000,27.292,29.683,1021.714192
29 Mar 2024 02:11:00.000,164.237,41.127,809.217173
22 Mar 2024 10:54:00.000,299.997,22.238,1235.540092
19 Mar 2024 09:24:00.000,348.923,30.499,1002.725873
04 Mar 2024 16:50:00.000,316.792,19.564,1336.280627
27 Mar 2024 02:14:00.000,193.028,7.681,1999.989147
08 Mar 2024 09:55:00.000,167.606,10.886,1777.360196
02 Mar 2024 16:57:00.000,354.147,29.891,1015.962758
12 Mar 2024 09:41:00.000,229.407,13.646,1612.902771
07 Mar 2024 13:25:00.000,53.877,12.974,1658.215046
22 Mar 2024 12:41:00.000,166.698,7.733,1999.989189
02 Mar 2024 20:22:00.000,152.714,19.437,1332.889972
28 Mar 2024 02:13:00.000,172.33,25.455,1125.097128
16 Mar 2024 11:16:00.000,43.975,22.022,1244.142182
02 Mar 2024 13:40:00.000,71.96,7.861,1999.990971
31 Mar 2024 07:13:00.000,113.126,7.784,1999.980406
05 Mar 2024 11:44:00.000,182.604,18.045,1393.920409
14 Mar 2024 09:37:00.000,263.289,35.391,902.035673
12 Mar 2024 16:31:00.000,163.24,14.521,1562.307669
12 Mar 2024 08:05:00.000,127.731,11.294,1753.414954
13 Mar 2024 13:00:00.000,300.557,7.892,1999.999454
29 Mar 2024 05:33:00.000,353.434,29.862,1016.02807
16 Mar 2024 07:55:00.000,78.877,22.439,1227.488288
22 Mar 2024 04:15:00.000,111.436,14.185,1583.095535
09 Mar 2024 16:36:00.000,294.171,36.242,887.528036
27 Mar 2024 07:18:00.000,316.725,19.73,1329.134126
31 Mar 2024 02:01:00.000,240.568,13.563,1614.510104
13 Mar 2024 13:05:00.000,29.476,31,991.385368
22 Mar 2024 05:51:00.000,241.161,22.149,1233.701688
11 Mar 2024 16:32:00.000,191.633,39.883,828.074577
06 Mar 2024 15:05:00.000,351.856,30.004,1013.928885
07 Mar 2024 11:45:00.000,69.548,7.874,1999.982443
02 Mar 2024 20:23:00.000,145.615,12.373,1682.17932
02 Mar 2024 15:16:00.000,318.668,44.083,775.69107
15 Mar 2024 14:41:00.000,156.942,33.847,928.694362
17 Mar 2024 14:31:00.000,257.557,17.807,1407.617572
30 Mar 2024 03:53:00.000,58.185,7.858,1999.984442
06 Mar 2024 15:04:00.000,326.847,25.612,1128.467636
23 Mar 2024 12:31:00.000,262.267,7.824,1999.981874
10 Mar 2024 11:32:00.000,6.41,56.241,664.565608
19 Mar 2024 11:02:00.000,306.925,13.268,1641.499609
18 Mar 2024 07:49:00.000,60.924,15.899,1500.297566
31 Mar 2024 07:12:00.000,111.754,15.708,1504.638254
09 Mar 2024 09:56:00.000,100.671,14.55,1566.677579
29 Mar 2024 07:12:00.000,312.207,21.031,1278.405529
14 Mar 2024 09:39:00.000,12.744,63.963,619.658257
13 Mar 2024 16:26:00.000,213.62,20.093,1309.081675
03 Mar 2024 13:28:00.000,231.816,7.777,1999.991137
21 Mar 2024 11:04:00.000,103.742,8.862,1921.666297
11 Mar 2024 16:33:00.000,165.173,29.263,1026.27342
17 Mar 2024 12:51:00.000,309.533,35.565,900.357246
14 Mar 2024 12:57:00.000,301.672,7.893,1999.976992
24 Mar 2024 04:03:00.000,213.369,7.708,1999.982178
17 Mar 2024 14:35:00.000,178.308,17.152,1433.121838
28 Mar 2024 05:37:00.000,16.92,28.706,1044.047118
09 Mar 2024 16:41:00.000,119.796,15.84,1497.009182
10 Mar 2024 09:47:00.000,208.076,7.745,1999.985258
28 Mar 2024 02:17:00.000,88.426,14.668,1558.30141
28 Mar 2024 08:58:00.000,178.563,59.811,640.151475
31 Mar 2024 07:05:00.000,298.816,13.764,1610.813984
21 Mar 2024 09:20:00.000,46.227,22.342,1232.556421
02 Mar 2024 18:43:00.000,96.005,7.789,1999.974238
20 Mar 2024 12:39:00.000,287.377,7.869,1999.990379
31 Mar 2024 07:06:00.000,300.492,22.255,1233.487992
03 Mar 2024 18:38:00.000,97.131,24.123,1169.061269
07 Mar 2024 18:23:00.000,252.979,28.105,1056.266931
14 Mar 2024 09:40:00.000,46.312,40.175,827.066727
18 Mar 2024 14:30:00.000,209.949,16.373,1470.425706
19 Mar 2024 12:44:00.000,286.29,21.95,1245.134316
13 Mar 2024 11:18:00.000,280.943,7.86,1999.991113
29 Mar 2024 03:54:00.000,47.534,21.694,1253.402191
15 Mar 2024 07:57:00.000,99.046,26.01,1114.286877
08 Mar 2024 13:18:00.000,335.438,35.652,899.26719
23 Mar 2024 05:50:00.000,283.114,58.065,650.978427
30 Mar 2024 05:26:00.000,297.959,7.846,1999.98107
22 Mar 2024 07:35:00.000,10.444,32.51,958.761336
27 Mar 2024 04:00:00.000,59.55,25.512,1128.86887
05 Mar 2024 16:54:00.000,83.741,7.823,1999.978242
07 Mar 2024 13:25:00.000,58.238,7.885,1999.990303
26 Mar 2024 02:20:00.000,151.695,13.009,1644.371946
19 Mar 2024 09:28:00.000,59.077,10.171,1834.9212
01 Mar 2024 17:03:00.000,51.084,15.687,1510.08306
30 Mar 2024 07:07:00.000,300.064,7.859,1999.979265
04 Mar 2024 20:12:00.000,250.358,16.174,1480.646493
16 Mar 2024 14:39:00.000,157.955,17.259,1428.506474
15 Mar 2024 12:59:00.000,37.959,41.393,810.237162
10 Mar 2024 09:53:00.000,100.559,21.976,1242.724566
10 Mar 2024 11:31:00.000,299.732,52.925,688.921703
14 Mar 2024 14:39:00.000,290.913,22.222,1235.657367
18 Mar 2024 11:12:00.000,75.861,11.306,1758.411393
01 Mar 2024 18:46:00.000,87.712,7.804,1999.983862
07 Mar 2024 13:20:00.000,296.488,30.607,999.316893
21 Mar 2024 09:16:00.000,315.333,19.13,1354.453688
24 Mar 2024 07:29:00.000,19.01,28.209,1057.342703
11 Mar 2024 13:05:00.000,294.83,7.884,1999.981395
12 Mar 2024 13:06:00.000,332.039,25.954,1119.077627
09 Mar 2024 13:17:00.000,34.957,23.674,1188.333664
21 Mar 2024 12:42:00.000,175.123,21.252,1265.38395
13 Mar 2024 09:38:00.000,241.932,13.708,1610.481906
14 Mar 2024 13:00:00.000,331.855,28.764,1043.979241
06 Mar 2024 13:25:00.000,36.227,34.796,914.39819
08 Mar 2024 15:01:00.000,49.022,23.074,1207.062758
25 Mar 2024 09:12:00.000,99.379,7.819,1999.998052
10 Mar 2024 13:14:00.000,38.09,22.274,1235.343487
20 Mar 2024 07:38:00.000,275.853,21.128,1273.311583
27 Mar 2024 07:17:00.000,307.195,13.102,1649.495958
23 Mar 2024 07:30:00.000,320.242,26.297,1108.048788
13 Mar 2024 13:01:00.000,306.857,13.066,1653.409575
11 Mar 2024 14:51:00.000,41.465,45.964,754.242389
07 Mar 2024 18:21:00.000,278.362,13.172,1643.129355
27 Mar 2024 07:21:00.000,31.135,32.388,960.770017
31 Mar 2024 03:50:00.000,54.941,11.308,1757.645444
23 Mar 2024 05:51:00.000,13.377,64.875,614.588567
06 Mar 2024 15:01:00.000,292.74,7.876,1999.983015
13 Mar 2024 09:40:00.000,241.824,36.431,883.394892
03 Mar 2024 13:31:00.000,219.252,35.185,904.560133
08 Mar 2024 13:21:00.000,46.482,18.065,1400.124352
29 Mar 2024 02:14:00.000,83.461,19.797,1322.537264
17 Mar 2024 12:57:00.000,109.139,7.801,1999.978825
21 Mar 2024 12:37:00.000,274.627,12.877,1661.245914
24 Mar 2024 04:08:00.000,122.634,33.711,930.780629
26 Mar 2024 05:38:00.000,282.353,13.095,1646.980362
15 Mar 2024 14:43:00.000,138.913,13.835,1601.22876
08 Mar 2024 16:44:00.000,107.362,15.483,1515.843172
02 Mar 2024 15:17:00.000,4.569,44.323,773.043822
16 Mar 2024 11:18:00.000,65.18,9.984,1847.11173
03 Mar 2024 13:32:00.000,195.282,56.499,661.308374
04 Mar 2024 20:13:00.000,233.09,19.283,1340.830346
01 Mar 2024 20:20:00.000,285.42,21.885,1245.162465
12 Mar 2024 09:47:00.000,73.841,24.078,1173.945432
13 Mar 2024 09:39:00.000,241.947,22.255,1231.646731
17 Mar 2024 07:48:00.000,213.922,60.996,633.639717
09 Mar 2024 11:30:00.000,247.08,7.802,1999.97009
05 Mar 2024 13:30:00.000,58.232,15.533,1518.741999
10 Mar 2024 16:39:00.000,130.062,7.747,1999.983948
08 Mar 2024 13:15:00.000,283.274,13.199,1643.686189
20 Mar 2024 06:03:00.000,76.228,12.876,1661.380077
08 Mar 2024 14:57:00.000,316.327,19.31,1347.305321
22 Mar 2024 05:53:00.000,238.224,63.058,622.504338
06 Mar 2024 11:48:00.000,74.871,7.865,1999.984955
28 Mar 2024 03:55:00.000,7.444,57.604,653.88868
22 Mar 2024 12:38:00.000,195.186,18.057,1393.212955
10 Mar 2024 16:38:00.000,132.871,14.796,1549.159396
21 Mar 2024 12:44:00.000,153.007,7.741,1999.990393
10 Mar 2024 14:55:00.000,61.684,28.515,1048.672951
30 Mar 2024 02:04:00.000,228.019,13.462,1619.200517
18 Mar 2024 11:11:00.000,67.736,17.486,1424.864335
30 Mar 2024 08:48:00.000,281.664,7.839,1999.990306
07 Mar 2024 16:48:00.000,100.263,7.794,1999.99018
20 Mar 2024 07:37:00.000,269.136,13.454,1626.355758
21 Mar 2024 11:03:00.000,100.888,15.059,1539.635437
23 Mar 2024 10:53:00.000,270.464,60.783,635.501703
14 Mar 2024 08:01:00.000,89.549,12.547,1680.303703
23 Mar 2024 04:10:00.000,140.645,24.933,1142.252732
07 Mar 2024 11:36:00.000,226.132,7.77,1999.983696
21 Mar 2024 05:58:00.000,83.901,38.386,851.909216
06 Mar 2024 13:28:00.000,58.755,8.445,1957.540899
13 Mar 2024 09:37:00.000,241.87,7.787,1999.987392
18 Mar 2024 06:09:00.000,89.946,9.71,1862.361119
03 Mar 2024 18:34:00.000,314.747,34.592,916.79021
28 Mar 2024 03:54:00.000,297.317,53.922,679.397173
03 Mar 2024 13:35:00.000,73.488,24.243,1168.338336
09 Mar 2024 16:37:00.000,289.294,62.787,624.598666
26 Mar 2024 07:21:00.000,316.131,19.22,1349.927314
01 Mar 2024 22:04:00.000,199.903,8.398,1946.373219
29 Mar 2024 08:52:00.000,276.409,20.877,1282.629803
11 Mar 2024 13:11:00.000,41.947,21.866,1249.586596
03 Mar 2024 15:17:00.000,53.981,12.265,1699.611424
05 Mar 2024 15:08:00.000,346.424,31.149,987.910016
23 Mar 2024 09:17:00.000,83.043,7.849,1999.999162
02 Mar 2024 20:15:00.000,286.907,7.837,1999.993166
18 Mar 2024 14:32:00.000,181.632,10.323,1813.530499
09 Mar 2024 09:51:00.000,185.832,12.044,1704.391679
01 Mar 2024 17:01:00.000,17.177,28.597,1047.083214
26 Mar 2024 07:22:00.000,332.766,26.308,1107.90076
26 Mar 2024 07:20:00.000,305.932,12.941,1658.825178
04 Mar 2024 18:38:00.000,114.643,7.757,1999.981422
30 Mar 2024 08:49:00.000,275.096,12.962,1655.036534
24 Mar 2024 05:46:00.000,280.388,33.211,942.221265
02 Mar 2024 17:02:00.000,65.895,7.852,1999.977881
26 Mar 2024 09:01:00.000,303.863,22.015,1242.985534
05 Mar 2024 20:07:00.000,260.98,7.791,1999.989883
05 Mar 2024 20:12:00.000,192.245,9.728,1851.60504
29 Mar 2024 08:56:00.000,163.763,30.305,1002.322797
27 Mar 2024 09:01:00.000,123.539,74.965,579.429337
29 Mar 2024 03:55:00.000,54.357,13.859,1605.724287
15 Mar 2024 16:18:00.000,240.018,7.778,1999.993695
20 Mar 2024 06:01:00.000,96.129,30.208,1006.244665
08 Mar 2024 10:00:00.000,96.997,7.947,1991.035171
28 Mar 2024 03:58:00.000,56.825,15.053,1541.531207
13 Mar 2024 07:58:00.000,186.555,7.725,1999.985925
12 Mar 2024 11:23:00.000,287.346,20.402,1302.601584
27 Mar 2024 10:41:00.000,228.486,17.099,1437.285253
29 Mar 2024 07:18:00.000,90.445,13.708,1612.307636
30 Mar 2024 08:56:00.000,154.341,9.507,1869.929292
07 Mar 2024 16:45:00.000,78.31,35.717,895.924523
25 Mar 2024 04:03:00.000,176.362,48.224,727.765304
15 Mar 2024 12:57:00.000,327.637,30.876,994.144253
24 Mar 2024 12:30:00.000,229.504,8.712,1929.299009
25 Mar 2024 05:44:00.000,323.498,41.339,809.814575
