aer_data/rounded_times/rounded_CR_AER.csv

Time (UTCG),Azimuth (deg),Elevation (deg),Range (km)
24 Mar 2024 10:48:00.000,266.298,12.551,1680.860547
27 Mar 2024 09:01:00.000,226.201,39.024,842.246049
10 Mar 2024 13:11:00.000,292.938,21.266,1271.681577
02 Mar 2024 15:14:00.000,265.111,13.691,1614.839356
07 Mar 2024 15:06:00.000,75.371,22.574,1223.760054
31 Mar 2024 00:23:00.000,188.570,7.686,1999.978318
20 Mar 2024 07:39:00.000,268.013,21.970,1243.792034
11 Mar 2024 16:29:00.000,261.108,12.019,1711.944658
18 Mar 2024 06:11:00.000,88.805,7.855,1999.985157
08 Mar 2024 18:19:00.000,253.460,7.807,1999.997053
07 Mar 2024 15:00:00.000,291.106,13.590,1623.341354
28 Mar 2024 03:59:00.000,66.389,25.539,1129.168270
01 Mar 2024 20:26:00.000,161.252,13.694,1606.446819
09 Mar 2024 13:17:00.000,19.384,47.890,735.375929
22 Mar 2024 11:00:00.000,144.501,20.784,1284.598626
19 Mar 2024 12:47:00.000,217.418,28.580,1045.287571
26 Mar 2024 05:42:00.000,320.124,49.611,717.582013
06 Mar 2024 18:28:00.000,213.879,23.730,1180.634295
08 Mar 2024 11:40:00.000,87.388,39.120,842.544094
04 Mar 2024 13:35:00.000,72.687,15.653,1512.917667
08 Mar 2024 13:24:00.000,71.367,8.559,1949.243746
28 Mar 2024 04:00:00.000,68.323,15.883,1500.307826
14 Mar 2024 09:43:00.000,68.604,25.760,1124.571685
09 Mar 2024 13:13:00.000,281.918,13.479,1629.091346
25 Mar 2024 05:45:00.000,307.466,53.855,681.513333
09 Mar 2024 14:55:00.000,295.794,22.035,1243.768968
16 Mar 2024 07:55:00.000,98.144,32.288,962.556577
11 Mar 2024 09:47:00.000,209.234,20.642,1289.861069
18 Mar 2024 07:51:00.000,71.062,15.837,1504.225508
08 Mar 2024 09:57:00.000,158.483,13.876,1599.979919
06 Mar 2024 15:06:00.000,335.237,46.313,751.496605
28 Mar 2024 05:34:00.000,286.178,13.520,1624.679583
12 Mar 2024 13:05:00.000,297.280,21.588,1260.203498
23 Mar 2024 09:09:00.000,290.434,7.887,1999.971819
27 Mar 2024 04:03:00.000,71.273,15.906,1499.036916
16 Mar 2024 11:12:00.000,291.008,13.576,1624.461279
14 Mar 2024 11:20:00.000,302.853,32.467,960.634015
26 Mar 2024 10:42:00.000,255.009,7.825,1999.985267
07 Mar 2024 13:24:00.000,50.832,37.794,863.736888
10 Mar 2024 11:36:00.000,68.098,15.864,1503.353028
18 Mar 2024 07:52:00.000,70.703,9.348,1892.531151
21 Mar 2024 05:54:00.000,228.744,13.510,1620.067040
18 Mar 2024 11:12:00.000,91.722,24.599,1157.874730
25 Mar 2024 02:26:00.000,134.081,9.634,1861.524628
31 Mar 2024 05:28:00.000,332.023,53.734,682.389740
17 Mar 2024 09:32:00.000,16.561,51.318,703.429582
05 Mar 2024 18:35:00.000,146.232,7.728,1999.977896
17 Mar 2024 14:35:00.000,200.312,9.963,1839.506494
19 Mar 2024 12:44:00.000,270.134,12.880,1662.201364
10 Mar 2024 13:18:00.000,77.819,8.224,1973.472782
26 Mar 2024 09:09:00.000,129.018,8.266,1963.556719
19 Mar 2024 07:45:00.000,35.316,71.257,591.134873
15 Mar 2024 12:59:00.000,292.486,63.487,622.416874
02 Mar 2024 17:03:00.000,82.939,7.842,1999.983483
27 Mar 2024 05:39:00.000,299.392,32.582,956.598958
18 Mar 2024 06:08:00.000,137.513,21.141,1270.897616
02 Mar 2024 18:37:00.000,287.405,22.273,1233.549386
13 Mar 2024 13:09:00.000,94.584,8.942,1918.144738
23 Mar 2024 05:48:00.000,250.457,13.704,1611.068766
05 Mar 2024 11:46:00.000,185.316,17.948,1399.193366
16 Mar 2024 13:01:00.000,119.663,7.800,1999.976949
15 Mar 2024 09:41:00.000,67.262,15.734,1509.992668
31 Mar 2024 03:52:00.000,72.577,7.861,1999.974008
23 Mar 2024 09:13:00.000,318.789,59.244,645.525425
19 Mar 2024 06:02:00.000,192.444,18.863,1358.728488
30 Mar 2024 07:16:00.000,123.893,8.818,1922.714693
04 Mar 2024 11:51:00.000,132.166,17.988,1398.950181
22 Mar 2024 07:40:00.000,72.731,7.887,1999.986715
11 Mar 2024 16:32:00.000,211.009,20.063,1311.088194
06 Mar 2024 18:26:00.000,253.488,17.508,1420.468394
10 Mar 2024 14:50:00.000,290.241,7.896,1999.975481
02 Mar 2024 16:59:00.000,27.890,48.379,729.587178
29 Mar 2024 05:34:00.000,336.654,46.972,743.674357
08 Mar 2024 18:20:00.000,241.756,10.077,1834.107265
04 Mar 2024 18:30:00.000,279.743,13.437,1629.452958
01 Mar 2024 18:45:00.000,104.245,25.459,1129.177093
11 Mar 2024 14:56:00.000,115.298,7.797,1999.995312
30 Mar 2024 00:27:00.000,171.114,7.689,1999.982650
28 Mar 2024 04:01:00.000,69.460,9.391,1887.639741
12 Mar 2024 11:31:00.000,70.343,8.773,1934.195401
28 Mar 2024 07:22:00.000,105.560,9.343,1887.570155
02 Mar 2024 20:22:00.000,178.155,13.208,1633.534014
24 Mar 2024 07:34:00.000,79.909,7.873,1999.976950
22 Mar 2024 11:02:00.000,134.222,7.781,1999.981977
18 Mar 2024 09:30:00.000,50.591,34.004,930.170590
02 Mar 2024 11:57:00.000,143.929,7.770,1999.999271
18 Mar 2024 06:06:00.000,175.539,16.624,1458.075643
19 Mar 2024 07:49:00.000,69.681,7.895,1999.977913
09 Mar 2024 15:02:00.000,98.816,7.826,1999.990684
06 Mar 2024 13:22:00.000,260.705,13.741,1612.144264
10 Mar 2024 13:16:00.000,67.170,21.984,1245.414617
21 Mar 2024 11:00:00.000,248.394,55.344,670.559089
27 Mar 2024 05:38:00.000,287.480,21.227,1270.806032
19 Mar 2024 09:26:00.000,23.323,46.910,745.444597
22 Mar 2024 10:57:00.000,231.368,44.269,773.012051
11 Mar 2024 13:15:00.000,82.452,8.347,1963.642487
19 Mar 2024 09:22:00.000,286.391,13.515,1627.017215
24 Mar 2024 07:30:00.000,25.528,47.146,742.530266
11 Mar 2024 11:34:00.000,69.719,7.897,1999.990078
09 Mar 2024 14:53:00.000,290.368,7.896,1999.970572
17 Mar 2024 09:35:00.000,67.682,14.608,1568.027742
26 Mar 2024 09:04:00.000,238.935,50.343,710.286850
30 Mar 2024 03:48:00.000,276.579,21.558,1257.135084
13 Mar 2024 14:41:00.000,283.931,7.885,1999.971094
19 Mar 2024 12:43:00.000,277.111,7.874,1999.987913
10 Mar 2024 11:28:00.000,254.870,7.835,1999.979343
29 Mar 2024 05:39:00.000,82.185,7.855,1999.976128
24 Mar 2024 07:34:00.000,79.691,8.222,1973.438723
08 Mar 2024 14:59:00.000,307.117,34.231,925.497096
15 Mar 2024 09:38:00.000,23.152,66.237,610.129958
02 Mar 2024 17:00:00.000,59.354,34.251,924.006661
17 Mar 2024 07:50:00.000,199.759,56.284,663.336020
23 Mar 2024 04:11:00.000,166.283,22.681,1214.463577
29 Mar 2024 07:11:00.000,288.965,13.754,1612.456118
10 Mar 2024 14:52:00.000,292.554,22.184,1238.365665
26 Mar 2024 07:27:00.000,87.443,14.827,1553.801260
09 Mar 2024 11:35:00.000,238.501,62.727,625.818476
21 Mar 2024 05:53:00.000,231.591,7.764,1999.991770
06 Mar 2024 11:43:00.000,185.658,28.224,1053.861252
04 Mar 2024 16:51:00.000,305.262,34.771,914.814702
26 Mar 2024 07:26:00.000,81.926,23.479,1193.238207
12 Mar 2024 11:22:00.000,269.479,7.861,1999.995544
24 Mar 2024 10:55:00.000,157.249,7.754,1999.984982
26 Mar 2024 04:00:00.000,230.610,21.875,1243.169206
04 Mar 2024 15:16:00.000,68.903,14.252,1585.757583
18 Mar 2024 11:09:00.000,326.350,56.949,660.395769
25 Mar 2024 09:05:00.000,285.047,22.210,1236.601961
25 Mar 2024 07:31:00.000,84.720,8.392,1959.914054
09 Mar 2024 13:20:00.000,70.161,14.190,1589.835745
19 Mar 2024 12:49:00.000,172.583,20.243,1304.392121
30 Mar 2024 07:14:00.000,130.142,24.102,1170.236615
19 Mar 2024 09:27:00.000,53.910,33.482,940.164008
22 Mar 2024 04:12:00.000,179.756,11.526,1734.919434
06 Mar 2024 15:09:00.000,69.507,22.133,1239.405002
09 Mar 2024 09:56:00.000,138.071,21.508,1258.487536
31 Mar 2024 02:04:00.000,237.184,21.965,1239.449547
15 Mar 2024 14:40:00.000,214.218,24.103,1170.172191
28 Mar 2024 07:20:00.000,102.435,25.507,1129.222571
05 Mar 2024 15:08:00.000,303.220,32.561,958.199720
05 Mar 2024 16:48:00.000,294.364,22.238,1235.922446
28 Mar 2024 07:13:00.000,290.300,7.871,1999.990859
03 Mar 2024 15:12:00.000,277.810,21.555,1259.643710
24 Mar 2024 07:31:00.000,56.152,33.558,938.132796
06 Mar 2024 11:40:00.000,216.375,7.773,1999.983746
30 Mar 2024 00:30:00.000,130.998,11.665,1727.072461
24 Mar 2024 05:50:00.000,56.832,40.958,816.010034
06 Mar 2024 18:25:00.000,265.517,12.433,1686.487937
10 Mar 2024 16:33:00.000,258.955,18.657,1371.521344
15 Mar 2024 07:58:00.000,103.236,24.818,1150.406211
08 Mar 2024 15:02:00.000,71.441,36.922,877.024139
01 Mar 2024 20:27:00.000,152.380,7.711,1999.990774
29 Mar 2024 05:39:00.000,81.946,8.249,1970.077128
14 Mar 2024 14:46:00.000,148.654,10.421,1808.885896
21 Mar 2024 07:39:00.000,16.415,54.004,681.237876
25 Mar 2024 05:51:00.000,70.044,7.882,1999.985245
18 Mar 2024 11:14:00.000,98.471,7.844,1999.977908
15 Mar 2024 11:20:00.000,56.240,33.739,935.198663
12 Mar 2024 14:44:00.000,287.053,7.891,1999.973253
12 Mar 2024 11:26:00.000,314.808,51.024,705.870032
11 Mar 2024 13:14:00.000,78.585,14.211,1587.927676
10 Mar 2024 09:55:00.000,91.795,14.932,1548.793784
03 Mar 2024 20:18:00.000,203.965,12.846,1655.159647
12 Mar 2024 14:49:00.000,174.181,58.250,650.389552
23 Mar 2024 07:32:00.000,331.059,46.213,752.396018
06 Mar 2024 11:48:00.000,82.655,11.058,1775.101106
07 Mar 2024 11:39:00.000,217.287,21.253,1267.569681
11 Mar 2024 14:51:00.000,275.056,62.599,626.472050
25 Mar 2024 05:42:00.000,268.188,13.621,1617.365711
10 Mar 2024 11:29:00.000,255.979,13.709,1613.512318
22 Mar 2024 09:17:00.000,41.636,57.941,653.675796
30 Mar 2024 00:28:00.000,159.532,10.121,1824.904879
29 Mar 2024 03:56:00.000,62.770,24.578,1158.136377
10 Mar 2024 13:14:00.000,23.484,46.925,745.281600
20 Mar 2024 12:46:00.000,177.904,13.796,1603.574953
21 Mar 2024 09:23:00.000,84.277,14.520,1570.968513
21 Mar 2024 05:55:00.000,223.774,21.574,1254.577802
26 Mar 2024 07:23:00.000,334.418,51.451,701.626143
13 Mar 2024 09:41:00.000,238.722,22.063,1239.398363
30 Mar 2024 05:30:00.000,308.164,33.433,939.628710
08 Mar 2024 15:05:00.000,91.352,8.707,1934.884496
10 Mar 2024 11:35:00.000,65.899,25.482,1132.790724
10 Mar 2024 13:12:00.000,305.255,32.459,960.771747
22 Mar 2024 07:37:00.000,49.736,34.615,918.285772
28 Mar 2024 02:12:00.000,209.086,7.708,1999.978079
14 Mar 2024 08:03:00.000,92.535,12.408,1689.836436
03 Mar 2024 11:53:00.000,148.690,12.252,1693.896372
23 Mar 2024 07:36:00.000,71.572,14.086,1595.317823
22 Mar 2024 12:36:00.000,245.131,7.812,1999.999865
21 Mar 2024 07:40:00.000,49.771,36.718,881.189929
28 Mar 2024 09:03:00.000,150.662,7.755,1999.999295
15 Mar 2024 09:39:00.000,56.324,40.975,816.689360
14 Mar 2024 14:47:00.000,145.761,7.754,1999.975418
22 Mar 2024 04:11:00.000,189.493,7.713,1999.976728
03 Mar 2024 15:11:00.000,272.741,13.537,1624.310664
26 Mar 2024 07:25:00.000,70.268,36.828,878.569885
19 Mar 2024 12:51:00.000,152.773,8.854,1918.069202
14 Mar 2024 08:00:00.000,144.036,25.296,1134.138166
23 Mar 2024 07:35:00.000,64.937,22.084,1241.784935
04 Mar 2024 18:33:00.000,230.365,43.168,785.057160
05 Mar 2024 13:26:00.000,252.118,22.165,1236.693569
05 Mar 2024 11:50:00.000,104.205,18.109,1395.656374
29 Mar 2024 08:56:00.000,211.598,20.871,1280.498272
17 Mar 2024 09:36:00.000,71.641,7.895,1999.990390
21 Mar 2024 10:58:00.000,281.461,21.962,1245.622969
27 Mar 2024 03:58:00.000,242.374,36.100,888.173918
07 Mar 2024 11:38:00.000,223.548,13.463,1624.349765
22 Mar 2024 04:15:00.000,131.223,17.337,1426.223030
31 Mar 2024 03:47:00.000,323.773,47.961,732.894214
22 Mar 2024 09:21:00.000,94.228,8.923,1919.984889
25 Mar 2024 07:28:00.000,62.127,34.639,917.345912
29 Mar 2024 08:57:00.000,192.399,18.372,1380.056047
31 Mar 2024 03:51:00.000,68.499,14.365,1578.546777
28 Mar 2024 08:54:00.000,277.445,7.858,1999.990216
21 Mar 2024 11:05:00.000,124.480,8.766,1927.367463
29 Mar 2024 02:09:00.000,215.671,13.175,1636.024568
01 Mar 2024 17:04:00.000,67.399,21.876,1247.804683
31 Mar 2024 08:50:00.000,207.732,8.921,1912.557044
27 Mar 2024 02:19:00.000,136.930,20.682,1286.101283
30 Mar 2024 03:54:00.000,66.951,14.865,1552.161577
03 Mar 2024 16:58:00.000,78.987,23.019,1207.701693
17 Mar 2024 12:53:00.000,238.081,49.693,716.523320
08 Mar 2024 16:37:00.000,285.562,7.879,1999.986527
06 Mar 2024 13:23:00.000,263.580,22.151,1237.936531
18 Mar 2024 12:54:00.000,143.517,11.906,1714.911027
18 Mar 2024 11:08:00.000,303.122,35.327,905.531771
10 Mar 2024 14:56:00.000,99.819,42.348,796.883524
21 Mar 2024 04:18:00.000,132.115,12.038,1706.161931
23 Mar 2024 07:34:00.000,51.847,33.669,936.141774
08 Mar 2024 13:17:00.000,281.598,21.495,1262.573843
12 Mar 2024 14:50:00.000,141.404,37.891,859.512656
11 Mar 2024 11:33:00.000,66.781,15.444,1524.592566
24 Mar 2024 04:06:00.000,200.172,19.669,1325.005634
25 Mar 2024 09:10:00.000,123.377,24.923,1145.959014
17 Mar 2024 09:34:00.000,61.644,23.014,1210.516402
21 Mar 2024 04:20:00.000,105.966,8.217,1968.936637
12 Mar 2024 08:09:00.000,106.441,8.556,1945.305468
31 Mar 2024 05:32:00.000,90.942,15.030,1541.913157
08 Mar 2024 15:01:00.000,38.132,54.764,675.348405
21 Mar 2024 12:41:00.000,220.514,14.450,1569.630253
06 Mar 2024 18:29:00.000,192.344,21.260,1264.418863
03 Mar 2024 13:37:00.000,81.969,23.064,1207.158785
13 Mar 2024 11:29:00.000,72.862,7.892,1999.998024
25 Mar 2024 09:12:00.000,119.152,7.803,1999.976910
02 Mar 2024 11:58:00.000,131.397,7.949,1987.515968
27 Mar 2024 03:56:00.000,245.083,13.600,1615.260348
06 Mar 2024 16:45:00.000,290.208,22.359,1231.489027
15 Mar 2024 11:17:00.000,306.740,32.482,960.430178
16 Mar 2024 11:17:00.000,62.440,34.806,914.872201
06 Mar 2024 13:30:00.000,69.568,7.888,1999.997497
26 Mar 2024 02:24:00.000,110.398,11.293,1753.859624
15 Mar 2024 14:41:00.000,192.388,21.652,1251.710535
19 Mar 2024 11:02:00.000,290.269,7.896,1999.999647
30 Mar 2024 02:14:00.000,74.430,8.363,1960.986379
31 Mar 2024 05:27:00.000,305.876,34.561,917.946693
04 Mar 2024 13:36:00.000,71.565,9.226,1900.481517
23 Mar 2024 05:56:00.000,69.966,9.408,1887.533598
26 Mar 2024 02:25:00.000,98.432,7.807,1999.980211
08 Mar 2024 11:34:00.000,237.177,7.803,1999.991057
15 Mar 2024 11:23:00.000,80.157,7.879,1999.975751
25 Mar 2024 09:11:00.000,120.771,15.496,1516.665032
07 Mar 2024 16:46:00.000,131.838,40.406,821.741249
03 Mar 2024 15:13:00.000,287.981,33.734,934.294960
01 Mar 2024 18:41:00.000,295.182,36.269,887.356214
13 Mar 2024 09:48:00.000,71.663,9.289,1896.895316
29 Mar 2024 08:52:00.000,270.935,7.844,1999.998851
16 Mar 2024 06:15:00.000,122.175,9.158,1898.795625
21 Mar 2024 07:42:00.000,67.024,14.828,1556.023260
01 Mar 2024 20:24:00.000,191.918,25.438,1127.071686
28 Mar 2024 02:16:00.000,149.565,28.834,1036.378934
05 Mar 2024 18:26:00.000,279.434,7.857,1999.982858
20 Mar 2024 11:00:00.000,288.785,13.780,1612.656077
24 Mar 2024 04:07:00.000,184.017,27.672,1066.000195
08 Mar 2024 16:42:00.000,181.443,50.060,711.959497
03 Mar 2024 16:55:00.000,335.947,49.992,714.403529
22 Mar 2024 09:20:00.000,91.404,15.135,1537.967843
06 Mar 2024 16:52:00.000,111.068,7.791,1999.989088
21 Mar 2024 04:17:00.000,146.988,11.886,1714.169544
04 Mar 2024 18:36:00.000,145.652,20.407,1296.676939
02 Mar 2024 15:20:00.000,62.469,24.386,1165.091177
31 Mar 2024 05:30:00.000,75.294,37.931,859.812977
07 Mar 2024 15:01:00.000,296.909,21.485,1263.504849
25 Mar 2024 10:48:00.000,226.388,17.296,1429.445726
07 Mar 2024 15:08:00.000,85.583,7.851,1999.982585
08 Mar 2024 13:21:00.000,49.355,35.458,903.200745
04 Mar 2024 15:17:00.000,72.969,7.872,1999.982072
21 Mar 2024 10:59:00.000,273.517,35.003,910.362565
06 Mar 2024 11:46:00.000,103.078,25.114,1141.644140
14 Mar 2024 13:06:00.000,102.129,9.259,1894.369897
16 Mar 2024 09:38:00.000,66.745,15.106,1541.986054
14 Mar 2024 11:24:00.000,65.130,22.068,1242.898220
17 Mar 2024 07:46:00.000,236.749,7.786,1999.991252
13 Mar 2024 16:27:00.000,205.527,8.109,1972.078486
29 Mar 2024 03:52:00.000,274.698,35.134,906.082135
20 Mar 2024 09:23:00.000,28.186,48.036,733.828229
01 Mar 2024 17:06:00.000,77.999,8.159,1976.512002
09 Mar 2024 11:32:00.000,246.148,13.668,1614.850509
25 Mar 2024 10:45:00.000,266.512,7.847,1999.987779
02 Mar 2024 18:42:00.000,117.851,25.314,1132.735533
22 Mar 2024 09:13:00.000,292.549,13.656,1619.474830
01 Mar 2024 20:22:00.000,241.340,24.524,1156.336113
13 Mar 2024 16:27:00.000,202.898,7.739,1999.997711
23 Mar 2024 05:54:00.000,68.914,25.643,1126.917882
20 Mar 2024 09:26:00.000,78.383,14.121,1593.199553
20 Mar 2024 09:27:00.000,82.489,7.874,1999.977129
25 Mar 2024 09:06:00.000,280.155,35.969,893.059961
10 Mar 2024 13:18:00.000,78.039,7.875,1999.986124
14 Mar 2024 14:42:00.000,221.263,33.006,946.471915
15 Mar 2024 07:52:00.000,215.899,7.759,1999.983982
15 Mar 2024 13:02:00.000,110.051,25.558,1127.953332
19 Mar 2024 09:24:00.000,305.083,32.462,960.525546
28 Mar 2024 09:02:00.000,152.370,9.115,1899.080018
07 Mar 2024 13:26:00.000,66.767,15.052,1544.258940
04 Mar 2024 13:29:00.000,239.230,22.202,1234.577596
11 Mar 2024 16:28:00.000,270.092,7.851,1999.997993
26 Mar 2024 05:48:00.000,71.529,7.878,1999.990680
27 Mar 2024 04:04:00.000,70.728,7.869,1999.990636
10 Mar 2024 14:55:00.000,77.192,72.604,586.757679
04 Mar 2024 11:50:00.000,150.899,17.971,1398.743689
27 Mar 2024 07:16:00.000,290.323,7.873,1999.990572
10 Mar 2024 13:17:00.000,73.821,14.021,1598.783279
17 Mar 2024 11:13:00.000,37.300,54.608,676.924048
11 Mar 2024 14:47:00.000,289.138,7.894,1999.979167
17 Mar 2024 14:32:00.000,242.432,10.190,1828.060415
30 Mar 2024 03:46:00.000,268.757,7.810,1999.975923
13 Mar 2024 13:10:00.000,95.031,7.844,1999.984914
05 Mar 2024 16:52:00.000,91.369,41.019,814.164239
15 Mar 2024 14:39:00.000,236.535,22.281,1231.428069
16 Mar 2024 14:34:00.000,256.006,11.578,1739.274844
25 Mar 2024 05:50:00.000,69.609,8.909,1923.257797
22 Mar 2024 05:53:00.000,233.345,35.888,892.368775
03 Mar 2024 16:51:00.000,288.717,7.882,1999.999868
04 Mar 2024 11:53:00.000,101.931,11.762,1728.136610
25 Mar 2024 04:01:00.000,226.193,7.740,1999.992175
28 Mar 2024 03:56:00.000,272.143,61.609,630.500167
15 Mar 2024 07:54:00.000,200.985,19.819,1320.930385
13 Mar 2024 08:01:00.000,180.609,11.605,1732.009945
12 Mar 2024 09:45:00.000,214.573,33.863,929.943223
17 Mar 2024 09:29:00.000,281.219,21.440,1264.317250
20 Mar 2024 09:25:00.000,71.936,22.184,1238.275250
29 Mar 2024 08:59:00.000,163.460,7.743,1999.990468
21 Mar 2024 11:03:00.000,130.999,23.950,1175.905317
31 Mar 2024 00:28:00.000,114.066,14.391,1571.166848
24 Mar 2024 07:33:00.000,75.731,14.021,1598.397952
16 Mar 2024 12:59:00.000,124.187,24.895,1146.892955
13 Mar 2024 08:06:00.000,101.907,11.567,1740.451247
07 Mar 2024 18:26:00.000,191.761,13.837,1599.393375
18 Mar 2024 11:05:00.000,290.350,7.897,1999.987939
23 Mar 2024 10:56:00.000,168.550,24.047,1171.645988
25 Mar 2024 04:02:00.000,222.356,13.373,1626.217253
25 Mar 2024 04:03:00.000,215.811,21.076,1271.449969
27 Mar 2024 07:20:00.000,326.699,56.429,663.256454
02 Mar 2024 13:37:00.000,166.837,40.332,823.099194
06 Mar 2024 18:31:00.000,164.811,11.402,1742.757692
16 Mar 2024 06:13:00.000,149.024,9.396,1879.017161
10 Mar 2024 11:33:00.000,34.111,70.717,593.218228
28 Mar 2024 08:58:00.000,218.228,29.081,1032.479485
20 Mar 2024 09:22:00.000,336.723,47.112,743.269958
28 Mar 2024 07:19:00.000,97.846,42.095,799.987414
13 Mar 2024 11:19:00.000,275.477,7.872,1999.990957
20 Mar 2024 12:42:00.000,248.865,16.418,1472.424128
30 Mar 2024 02:11:00.000,94.726,35.321,902.188645
19 Mar 2024 11:08:00.000,99.027,41.949,802.547942
06 Mar 2024 16:43:00.000,289.789,7.886,1999.988979
17 Mar 2024 11:09:00.000,292.363,13.635,1621.230907
28 Mar 2024 08:56:00.000,260.091,18.838,1363.884020
26 Mar 2024 10:43:00.000,243.269,10.301,1820.473463
04 Mar 2024 15:14:00.000,49.881,34.448,921.142332
07 Mar 2024 16:48:00.000,121.889,15.397,1520.057884
21 Mar 2024 06:03:00.000,74.010,7.880,1999.975359
28 Mar 2024 08:55:00.000,270.713,12.816,1664.892599
30 Mar 2024 03:50:00.000,313.526,51.454,700.442733
13 Mar 2024 08:03:00.000,150.427,17.741,1408.608202
21 Mar 2024 04:19:00.000,117.999,10.653,1795.572992
31 Mar 2024 02:05:00.000,232.192,35.632,895.336026
21 Mar 2024 05:57:00.000,185.398,50.647,706.722924
25 Mar 2024 09:07:00.000,261.866,60.118,639.749560
28 Mar 2024 05:41:00.000,73.420,13.955,1601.416842
14 Mar 2024 11:23:00.000,52.051,33.637,937.310382
27 Mar 2024 07:18:00.000,296.006,21.943,1246.064600
08 Mar 2024 09:55:00.000,182.717,7.749,1999.988355
24 Mar 2024 09:15:00.000,110.160,9.372,1885.565411
27 Mar 2024 04:02:00.000,72.264,25.615,1126.738127
14 Mar 2024 13:00:00.000,299.685,35.771,897.554661
01 Mar 2024 17:00:00.000,305.530,32.533,958.247363
14 Mar 2024 09:38:00.000,251.620,22.196,1235.516880
31 Mar 2024 03:43:00.000,274.842,7.820,1999.999846
07 Mar 2024 15:04:00.000,31.041,49.777,716.728470
29 Mar 2024 07:19:00.000,114.408,9.294,1889.827755
16 Mar 2024 14:33:00.000,266.001,7.851,1999.987686
02 Mar 2024 17:01:00.000,72.296,22.344,1231.075539
03 Mar 2024 18:35:00.000,272.255,34.910,910.696038
02 Mar 2024 20:16:00.000,269.803,7.826,1999.992163
30 Mar 2024 05:28:00.000,291.728,13.564,1622.559059
24 Mar 2024 05:52:00.000,67.351,15.693,1510.882920
03 Mar 2024 13:36:00.000,93.027,36.220,888.449886
12 Mar 2024 09:51:00.000,74.141,8.534,1951.503358
29 Mar 2024 05:35:00.000,27.914,47.857,734.617078
09 Mar 2024 16:39:00.000,188.729,36.370,883.551226
03 Mar 2024 13:33:00.000,215.174,34.141,924.512115
23 Mar 2024 05:51:00.000,255.513,63.193,622.776826
12 Mar 2024 09:42:00.000,232.085,7.790,1999.991563
27 Mar 2024 02:18:00.000,157.322,19.904,1315.138418
29 Mar 2024 07:15:00.000,134.498,73.369,583.982573
09 Mar 2024 09:55:00.000,158.915,20.520,1294.325800
18 Mar 2024 06:04:00.000,197.023,7.731,1999.986367
02 Mar 2024 13:33:00.000,222.097,7.778,1999.980865
15 Mar 2024 07:57:00.000,125.816,32.636,954.440470
06 Mar 2024 15:07:00.000,25.418,47.390,740.061030
08 Mar 2024 15:03:00.000,82.833,23.480,1193.039826
26 Mar 2024 05:47:00.000,71.177,8.532,1950.681765
16 Mar 2024 11:15:00.000,336.681,48.213,732.255604
07 Mar 2024 18:24:00.000,225.366,16.740,1453.526346
31 Mar 2024 00:29:00.000,101.360,10.805,1785.392910
11 Mar 2024 11:27:00.000,268.444,21.872,1248.236381
31 Mar 2024 07:08:00.000,232.370,44.898,764.849976
14 Mar 2024 09:42:00.000,66.918,42.695,793.736403
09 Mar 2024 16:43:00.000,140.372,7.747,1999.991352
29 Mar 2024 08:59:00.000,167.116,9.658,1860.014313
16 Mar 2024 11:13:00.000,296.833,21.460,1264.834385
11 Mar 2024 11:34:00.000,69.271,9.137,1907.891347
15 Mar 2024 09:33:00.000,258.652,7.835,1999.990760
25 Mar 2024 09:09:00.000,129.739,40.796,817.066747
14 Mar 2024 11:26:00.000,75.751,8.267,1971.108697
11 Mar 2024 11:31:00.000,52.854,39.478,838.116726
27 Mar 2024 07:23:00.000,91.092,24.599,1157.150989
05 Mar 2024 11:51:00.000,92.604,12.663,1674.614117
30 Mar 2024 02:09:00.000,184.316,49.797,713.134200
31 Mar 2024 03:52:00.000,72.237,8.451,1955.346721
25 Mar 2024 10:47:00.000,243.216,15.137,1535.248490
18 Mar 2024 06:05:00.000,188.190,12.087,1701.436493
23 Mar 2024 07:31:00.000,302.546,32.428,960.605154
08 Mar 2024 18:24:00.000,190.584,7.717,1999.985226
06 Mar 2024 15:10:00.000,76.128,14.107,1593.059463
04 Mar 2024 11:48:00.000,181.154,11.695,1726.992545
22 Mar 2024 05:55:00.000,111.341,67.867,602.285881
24 Mar 2024 10:51:00.000,214.371,24.541,1156.767210
02 Mar 2024 15:16:00.000,276.673,35.106,908.218858
22 Mar 2024 07:33:00.000,284.629,21.421,1264.500320
18 Mar 2024 12:50:00.000,225.662,38.417,851.874644
20 Mar 2024 12:44:00.000,211.373,20.445,1297.290583
03 Mar 2024 18:41:00.000,125.020,7.756,1999.980766
17 Mar 2024 11:15:00.000,82.398,23.538,1191.991333
18 Mar 2024 09:26:00.000,287.859,21.308,1269.539584
14 Mar 2024 11:18:00.000,284.310,13.499,1628.236749
12 Mar 2024 11:28:00.000,49.565,36.728,881.471678
26 Mar 2024 03:58:00.000,236.214,7.755,1999.991388
24 Mar 2024 07:29:00.000,335.498,46.352,750.892893
07 Mar 2024 16:49:00.000,120.334,9.026,1907.032028
05 Mar 2024 16:55:00.000,102.477,9.181,1898.143516
12 Mar 2024 16:29:00.000,220.088,14.163,1584.086567
13 Mar 2024 14:49:00.000,138.551,13.101,1643.603883
22 Mar 2024 05:59:00.000,71.767,9.203,1901.967995
30 Mar 2024 08:49:00.000,261.811,7.826,1999.993704
29 Mar 2024 05:32:00.000,295.809,21.370,1265.926928
13 Mar 2024 11:21:00.000,284.945,21.407,1266.086406
03 Mar 2024 16:54:00.000,308.005,33.608,936.886982
25 Mar 2024 02:24:00.000,159.864,7.709,1999.991288
17 Mar 2024 12:50:00.000,282.701,13.635,1620.346442
31 Mar 2024 02:11:00.000,71.912,9.177,1901.570556
05 Mar 2024 13:30:00.000,66.382,42.721,793.146858
05 Mar 2024 15:12:00.000,65.357,21.950,1246.090342
12 Mar 2024 08:07:00.000,132.992,12.341,1689.562364
22 Mar 2024 09:21:00.000,94.672,7.850,1999.969796
31 Mar 2024 03:46:00.000,295.572,32.901,949.244275
12 Mar 2024 13:11:00.000,84.575,14.587,1567.135236
05 Mar 2024 18:28:00.000,263.699,19.567,1333.458337
29 Mar 2024 08:53:00.000,262.118,12.130,1704.877476
13 Mar 2024 09:39:00.000,241.680,7.805,1999.991280
14 Mar 2024 14:41:00.000,247.792,27.332,1078.352133
05 Mar 2024 13:31:00.000,68.365,25.774,1123.721379
21 Mar 2024 04:16:00.000,160.829,10.252,1818.195246
08 Mar 2024 16:41:00.000,237.096,49.232,720.143845
11 Mar 2024 11:30:00.000,18.187,61.238,634.480521
13 Mar 2024 13:08:00.000,91.803,15.170,1535.939151
16 Mar 2024 14:36:00.000,225.785,17.002,1442.857054
17 Mar 2024 06:14:00.000,97.828,7.838,1999.980123
03 Mar 2024 17:01:00.000,88.668,7.832,1999.983701
02 Mar 2024 13:42:00.000,77.203,7.872,1999.990701
09 Mar 2024 13:12:00.000,278.228,7.878,1999.982331
27 Mar 2024 05:37:00.000,281.365,13.445,1628.551580
07 Mar 2024 18:27:00.000,179.315,10.295,1814.531369
12 Mar 2024 08:04:00.000,173.311,7.744,1999.990534
05 Mar 2024 13:32:00.000,69.270,16.008,1495.619030
03 Mar 2024 20:17:00.000,219.525,13.924,1595.303049
26 Mar 2024 04:07:00.000,73.025,8.845,1926.702318
02 Mar 2024 11:58:00.000,127.691,7.792,1999.996610
17 Mar 2024 06:12:00.000,110.830,11.678,1731.740823
29 Mar 2024 02:15:00.000,88.658,18.854,1362.255191
16 Mar 2024 11:16:00.000,30.655,49.667,718.211663
22 Mar 2024 11:01:00.000,137.970,13.193,1639.227956
13 Mar 2024 14:42:00.000,279.981,13.454,1630.048395
19 Mar 2024 11:05:00.000,295.953,36.370,887.060402
03 Mar 2024 20:16:00.000,235.246,13.140,1640.730108
30 Mar 2024 03:55:00.000,70.613,7.865,1999.982429
25 Mar 2024 05:41:00.000,265.598,7.819,1999.999988
20 Mar 2024 06:02:00.000,127.204,38.255,853.849336
10 Mar 2024 14:57:00.000,103.761,25.606,1126.352379
07 Mar 2024 15:03:00.000,336.782,48.352,730.467382
08 Mar 2024 09:56:00.000,172.192,11.080,1765.898615
20 Mar 2024 06:03:00.000,101.533,28.405,1050.621864
01 Mar 2024 18:38:00.000,290.218,7.874,1999.974017
02 Mar 2024 15:13:00.000,262.858,7.842,1999.991503
25 Mar 2024 09:04:00.000,287.211,13.761,1612.847526
30 Mar 2024 00:31:00.000,117.135,10.225,1821.947061
23 Mar 2024 10:54:00.000,221.508,33.542,936.110684
10 Mar 2024 11:31:00.000,261.604,36.080,891.114866
16 Mar 2024 13:01:00.000,119.921,9.091,1904.150274
19 Mar 2024 06:07:00.000,91.853,14.668,1561.734312
07 Mar 2024 11:41:00.000,175.693,45.816,755.156933
31 Mar 2024 00:24:00.000,178.608,11.467,1736.626637
22 Mar 2024 07:35:00.000,324.709,47.973,734.015817
22 Mar 2024 12:39:00.000,206.563,8.495,1944.418256
25 Mar 2024 04:10:00.000,75.739,7.863,1999.985556
13 Mar 2024 08:02:00.000,167.337,15.307,1523.602081
16 Mar 2024 07:52:00.000,204.003,32.284,960.707835
22 Mar 2024 09:12:00.000,289.994,7.887,1999.999912
31 Mar 2024 00:26:00.000,148.377,17.095,1434.219437
02 Mar 2024 16:57:00.000,307.816,32.655,955.852803
14 Mar 2024 14:45:00.000,156.334,16.364,1471.341863
10 Mar 2024 16:37:00.000,173.047,19.954,1314.492367
04 Mar 2024 16:55:00.000,87.417,24.075,1172.911903
22 Mar 2024 06:00:00.000,71.542,7.883,1999.977380
31 Mar 2024 02:08:00.000,82.562,40.882,815.179229
04 Mar 2024 16:50:00.000,296.729,21.905,1247.737426
09 Mar 2024 13:15:00.000,300.051,32.572,958.274923
03 Mar 2024 13:30:00.000,232.469,7.793,1999.991431
23 Mar 2024 07:29:00.000,284.054,13.464,1628.781631
26 Mar 2024 07:24:00.000,36.747,54.260,678.957390
13 Mar 2024 09:45:00.000,80.990,41.422,810.072630
27 Mar 2024 02:15:00.000,196.252,7.700,2000.000023
07 Mar 2024 16:44:00.000,259.108,59.307,644.116020
06 Mar 2024 15:11:00.000,80.358,7.860,1999.990562
05 Mar 2024 11:44:00.000,204.434,7.761,1999.987924
10 Mar 2024 14:54:00.000,306.258,61.877,630.495809
14 Mar 2024 13:02:00.000,58.895,67.549,604.493945
22 Mar 2024 12:37:00.000,232.892,9.197,1896.012185
18 Mar 2024 06:07:00.000,158.156,20.255,1303.378094
23 Mar 2024 09:11:00.000,294.610,22.067,1242.350229
24 Mar 2024 05:45:00.000,259.836,13.637,1615.688606
02 Mar 2024 18:40:00.000,142.820,71.964,587.526461
23 Mar 2024 09:18:00.000,102.068,7.835,1999.990395
05 Mar 2024 18:29:00.000,247.224,27.131,1082.435234
21 Mar 2024 05:56:00.000,213.457,33.808,929.867996
26 Mar 2024 02:25:00.000,99.267,8.098,1977.665295
11 Mar 2024 11:28:00.000,276.032,34.947,911.676701
16 Mar 2024 07:53:00.000,174.868,45.293,760.623445
26 Mar 2024 04:03:00.000,121.776,59.755,640.687909
24 Mar 2024 10:52:00.000,192.199,22.071,1237.180036
07 Mar 2024 13:25:00.000,61.714,23.887,1181.567147
18 Mar 2024 09:33:00.000,73.952,8.328,1966.772433
02 Mar 2024 20:19:00.000,230.633,19.283,1341.714885
30 Mar 2024 03:53:00.000,61.440,23.526,1191.486225
03 Mar 2024 11:56:00.000,106.739,8.786,1928.191369
24 Mar 2024 07:25:00.000,284.338,7.866,1999.990592
22 Mar 2024 07:38:00.000,62.393,22.503,1227.376903
09 Mar 2024 09:59:00.000,92.688,10.133,1835.498255
14 Mar 2024 09:37:00.000,250.968,13.683,1614.112709
17 Mar 2024 14:33:00.000,228.607,11.571,1736.622815
21 Mar 2024 11:02:00.000,140.580,38.352,852.749356
19 Mar 2024 06:08:00.000,82.354,7.866,1999.983090
28 Mar 2024 07:21:00.000,104.411,15.843,1500.235806
06 Mar 2024 13:24:00.000,269.590,35.737,897.175036
06 Mar 2024 18:31:00.000,158.483,7.718,1999.985112
04 Mar 2024 16:56:00.000,92.146,15.115,1537.139347
15 Mar 2024 13:04:00.000,110.640,9.320,1888.940056
04 Mar 2024 16:58:00.000,95.314,7.820,1999.978158
01 Mar 2024 16:57:00.000,282.881,7.870,1999.976226
09 Mar 2024 09:53:00.000,188.898,12.151,1699.110017
14 Mar 2024 13:01:00.000,317.999,59.642,643.348265
30 Mar 2024 07:12:00.000,172.808,60.216,638.240583
28 Mar 2024 09:01:00.000,160.146,14.448,1568.223789
08 Mar 2024 13:20:00.000,16.970,51.036,705.812607
20 Mar 2024 11:05:00.000,119.586,42.182,799.021778
09 Mar 2024 13:14:00.000,288.075,21.254,1271.819135
15 Mar 2024 09:36:00.000,268.827,35.495,901.413692
19 Mar 2024 07:48:00.000,68.193,15.901,1501.248511
24 Mar 2024 07:32:00.000,69.139,21.998,1244.505599
02 Mar 2024 15:17:00.000,301.091,55.973,666.404946
04 Mar 2024 13:36:00.000,71.368,7.884,1999.979881
15 Mar 2024 13:01:00.000,109.436,42.423,796.058037
18 Mar 2024 11:13:00.000,95.745,15.394,1524.418965
15 Mar 2024 11:16:00.000,294.575,21.248,1272.493782
13 Mar 2024 16:26:00.000,218.287,9.177,1894.922819
22 Mar 2024 07:39:00.000,68.680,14.310,1583.436237
12 Mar 2024 09:44:00.000,224.558,21.565,1256.397180
13 Mar 2024 16:24:00.000,243.842,7.800,1999.995406
26 Mar 2024 05:39:00.000,275.418,13.586,1620.046451
30 Mar 2024 08:55:00.000,179.829,8.173,1966.822307
10 Mar 2024 09:53:00.000,124.034,27.705,1068.441089
13 Mar 2024 11:24:00.000,18.141,49.185,722.868558
03 Mar 2024 13:32:00.000,225.053,21.703,1251.378475
04 Mar 2024 18:37:00.000,138.959,12.958,1650.054045
14 Mar 2024 07:59:00.000,167.013,23.019,1204.777722
11 Mar 2024 14:52:00.000,140.592,72.263,587.463509
06 Mar 2024 16:51:00.000,110.839,15.811,1500.263140
16 Mar 2024 11:11:00.000,287.504,7.893,1999.975765
05 Mar 2024 13:24:00.000,250.885,7.826,1999.984018
26 Mar 2024 05:38:00.000,272.111,7.831,1999.991576
02 Mar 2024 20:23:00.000,167.937,8.938,1907.987996
22 Mar 2024 04:16:00.000,114.665,14.880,1547.351470
24 Mar 2024 05:54:00.000,69.565,7.884,1999.990121
24 Mar 2024 09:08:00.000,290.677,22.283,1234.455813
08 Mar 2024 13:19:00.000,320.694,49.172,722.686273
05 Mar 2024 18:33:00.000,156.684,16.115,1481.638079
10 Mar 2024 09:52:00.000,151.157,29.853,1014.608513
04 Mar 2024 11:54:00.000,92.333,7.854,1999.986852
21 Mar 2024 09:18:00.000,308.197,33.618,937.373369
19 Mar 2024 11:07:00.000,76.123,71.693,589.813474
12 Mar 2024 16:31:00.000,190.699,10.659,1791.670750
12 Mar 2024 16:30:00.000,204.360,13.141,1639.948411
16 Mar 2024 12:58:00.000,130.954,40.682,818.795811
01 Mar 2024 20:27:00.000,153.507,8.568,1935.557588
24 Mar 2024 09:09:00.000,291.466,36.390,886.215830
04 Mar 2024 15:15:00.000,62.577,22.414,1229.941416
07 Mar 2024 10:03:00.000,123.214,9.460,1878.191970
29 Mar 2024 07:10:00.000,289.305,7.868,1999.987333
06 Mar 2024 13:26:00.000,23.801,65.430,613.521080
12 Mar 2024 11:25:00.000,287.589,33.792,933.728038
12 Mar 2024 16:27:00.000,249.692,10.897,1781.409303
18 Mar 2024 12:51:00.000,188.757,37.014,873.645664
03 Mar 2024 11:51:00.000,174.063,7.750,1999.992690
03 Mar 2024 11:52:00.000,162.564,10.447,1807.455197
10 Mar 2024 09:48:00.000,210.337,7.763,1999.988501
09 Mar 2024 16:36:00.000,268.485,20.481,1298.676431
18 Mar 2024 07:50:00.000,71.863,25.500,1131.673398
10 Mar 2024 16:32:00.000,269.852,12.785,1666.993032
23 Mar 2024 10:53:00.000,248.288,27.632,1070.585720
13 Mar 2024 09:44:00.000,110.459,68.829,599.348176
25 Mar 2024 04:08:00.000,85.886,20.988,1278.970357
04 Mar 2024 13:30:00.000,235.084,36.100,889.770315
17 Mar 2024 12:56:00.000,138.306,22.428,1225.703032
01 Mar 2024 20:23:00.000,217.067,27.774,1063.506658
19 Mar 2024 12:46:00.000,242.092,25.052,1142.649592
31 Mar 2024 07:05:00.000,280.604,13.462,1627.803268
29 Mar 2024 08:55:00.000,232.084,20.097,1310.991056
28 Mar 2024 07:16:00.000,296.395,36.067,891.324422
07 Mar 2024 16:45:00.000,163.185,65.833,610.296214
02 Mar 2024 18:38:00.000,284.769,36.305,886.459642
12 Mar 2024 13:07:00.000,335.978,49.860,716.408269
27 Mar 2024 03:57:00.000,244.287,22.086,1236.431944
08 Mar 2024 16:40:00.000,265.952,33.594,935.900504
18 Mar 2024 07:47:00.000,236.384,63.124,623.454724
19 Mar 2024 11:03:00.000,291.233,13.828,1610.224170
14 Mar 2024 08:02:00.000,104.008,17.771,1410.519671
27 Mar 2024 04:00:00.000,92.498,73.503,583.256076
31 Mar 2024 02:06:00.000,213.842,59.582,640.866821
19 Mar 2024 07:43:00.000,260.825,36.025,891.418419
08 Mar 2024 16:43:00.000,150.618,34.490,916.946073
11 Mar 2024 11:29:00.000,299.774,55.893,667.459048
07 Mar 2024 16:40:00.000,288.178,7.884,1999.989749
26 Mar 2024 10:45:00.000,214.645,11.809,1720.718811
07 Mar 2024 16:41:00.000,286.850,13.741,1613.920857
13 Mar 2024 08:00:00.000,190.241,7.742,1999.976000
04 Mar 2024 11:49:00.000,167.889,15.461,1516.187391
24 Mar 2024 09:12:00.000,108.311,42.605,793.631097
02 Mar 2024 18:39:00.000,273.888,62.326,627.000929
10 Mar 2024 11:30:00.000,257.806,22.184,1236.564175
31 Mar 2024 07:04:00.000,284.344,7.857,1999.981168
26 Mar 2024 07:20:00.000,292.312,13.592,1622.096869
13 Mar 2024 13:05:00.000,42.116,58.363,651.097100
11 Mar 2024 14:54:00.000,117.316,25.356,1133.004671
02 Mar 2024 20:20:00.000,210.787,19.758,1321.474678
19 Mar 2024 07:49:00.000,69.414,9.409,1888.272779
21 Mar 2024 12:42:00.000,204.589,13.471,1622.309757
30 Mar 2024 00:32:00.000,105.348,7.793,1998.896205
13 Mar 2024 09:43:00.000,218.026,60.393,638.107362
16 Mar 2024 06:14:00.000,135.522,9.925,1843.548417
04 Mar 2024 20:15:00.000,204.178,7.715,1999.997646
16 Mar 2024 11:14:00.000,308.305,33.114,947.628365
20 Mar 2024 09:20:00.000,295.948,21.416,1265.993248
30 Mar 2024 05:32:00.000,33.200,51.311,702.289460
02 Mar 2024 15:15:00.000,268.878,21.981,1243.776780
19 Mar 2024 11:04:00.000,292.777,22.344,1232.991383
18 Mar 2024 12:54:00.000,139.868,7.769,1999.990639
23 Mar 2024 10:55:00.000,190.542,31.574,975.687276
21 Mar 2024 09:17:00.000,297.305,21.627,1258.331006
06 Mar 2024 11:42:00.000,201.634,19.919,1317.634383
27 Mar 2024 07:21:00.000,47.418,61.914,630.051505
09 Mar 2024 11:33:00.000,245.618,22.175,1236.122871
24 Mar 2024 10:54:00.000,164.118,11.872,1715.956874
05 Mar 2024 18:27:00.000,273.412,13.044,1651.331788
09 Mar 2024 16:37:00.000,253.259,29.665,1019.627360
26 Mar 2024 05:46:00.000,67.664,14.501,1572.424017
10 Mar 2024 11:37:00.000,69.384,9.384,1890.245017
05 Mar 2024 13:27:00.000,253.578,36.209,888.466698
18 Mar 2024 09:24:00.000,277.994,7.869,1999.981717
15 Mar 2024 13:04:00.000,110.703,7.815,1999.991167
27 Mar 2024 09:03:00.000,163.171,27.984,1059.508520
02 Mar 2024 20:18:00.000,247.862,16.154,1482.513200
13 Mar 2024 14:44:00.000,260.004,31.745,973.816116
03 Mar 2024 15:18:00.000,67.085,14.812,1555.986539
12 Mar 2024 08:08:00.000,118.673,10.999,1774.708528
03 Mar 2024 18:33:00.000,284.725,13.715,1614.250481
21 Mar 2024 12:39:00.000,250.237,11.003,1775.361138
25 Mar 2024 10:46:00.000,256.627,11.634,1735.673938
21 Mar 2024 11:01:00.000,173.803,59.211,644.781852
16 Mar 2024 14:40:00.000,171.943,7.737,1999.998931
05 Mar 2024 16:47:00.000,291.913,13.794,1611.362878
03 Mar 2024 11:57:00.000,103.187,7.833,1999.988213
28 Mar 2024 05:38:00.000,23.362,46.807,745.536479
04 Mar 2024 18:31:00.000,272.840,21.020,1277.814816
07 Mar 2024 11:44:00.000,85.301,21.376,1266.427011
08 Mar 2024 16:46:00.000,129.813,7.761,1999.979337
14 Mar 2024 07:57:00.000,196.141,12.515,1676.830867
06 Mar 2024 13:21:00.000,258.979,7.841,1999.990894
15 Mar 2024 11:21:00.000,69.316,22.118,1240.865142
31 Mar 2024 03:50:00.000,62.210,22.599,1222.355283
29 Mar 2024 02:13:00.000,126.881,37.419,865.636746
13 Mar 2024 11:28:00.000,72.552,8.423,1959.778694
19 Mar 2024 06:01:00.000,203.024,12.772,1660.942546
16 Mar 2024 09:32:00.000,273.010,21.804,1250.652921
07 Mar 2024 15:07:00.000,81.577,14.331,1580.392310
13 Mar 2024 13:00:00.000,290.042,7.899,1999.999926
23 Mar 2024 05:52:00.000,60.027,74.461,581.350864
01 Mar 2024 17:06:00.000,78.194,7.850,1999.983808
09 Mar 2024 11:39:00.000,70.909,15.968,1497.954803
21 Mar 2024 04:20:00.000,104.419,7.812,1999.983972
30 Mar 2024 08:51:00.000,237.421,13.650,1613.694899
24 Mar 2024 04:11:00.000,90.574,16.848,1452.160690
23 Mar 2024 09:15:00.000,89.653,41.149,813.280059
12 Mar 2024 16:28:00.000,235.882,13.286,1634.252569
09 Mar 2024 14:59:00.000,83.297,39.826,831.703203
21 Mar 2024 05:58:00.000,125.872,52.356,692.666807
05 Mar 2024 13:29:00.000,54.276,74.542,581.713911
02 Mar 2024 18:43:00.000,116.460,15.686,1505.114279
25 Mar 2024 09:08:00.000,159.829,67.243,604.894937
18 Mar 2024 12:53:00.000,150.792,18.664,1368.616296
11 Mar 2024 09:49:00.000,165.997,39.966,828.575289
22 Mar 2024 07:32:00.000,278.738,13.545,1623.766673
12 Mar 2024 14:47:00.000,272.764,35.028,909.711956
07 Mar 2024 10:00:00.000,162.498,7.755,1999.998575
12 Mar 2024 14:53:00.000,124.645,7.782,1999.976566
07 Mar 2024 18:25:00.000,207.610,16.345,1471.120678
27 Mar 2024 04:01:00.000,74.944,42.414,795.643980
17 Mar 2024 12:58:00.000,129.565,8.210,1967.657759
06 Mar 2024 16:50:00.000,110.626,25.530,1127.499336
12 Mar 2024 13:13:00.000,88.428,7.857,1999.978426
22 Mar 2024 10:58:00.000,185.587,43.914,776.753235
15 Mar 2024 14:43:00.000,164.559,11.647,1729.276502
30 Mar 2024 00:32:00.000,105.293,7.779,1999.993210
09 Mar 2024 13:18:00.000,50.591,34.034,929.464345
24 Mar 2024 04:13:00.000,79.911,7.857,1999.979961
15 Mar 2024 13:03:00.000,110.390,15.836,1500.554036
29 Mar 2024 05:37:00.000,71.610,22.116,1239.312989
30 Mar 2024 02:06:00.000,228.059,13.408,1623.661304
02 Mar 2024 20:17:00.000,260.752,11.955,1714.013837
03 Mar 2024 15:15:00.000,16.069,53.566,684.497102
13 Mar 2024 08:04:00.000,131.865,17.720,1410.621430
23 Mar 2024 05:55:00.000,69.544,15.922,1499.342536
06 Mar 2024 16:52:00.000,111.020,9.297,1888.789278
17 Mar 2024 07:53:00.000,78.917,24.219,1170.216003
15 Mar 2024 14:38:00.000,253.980,17.620,1416.927162
11 Mar 2024 14:49:00.000,287.618,22.341,1232.610643
08 Mar 2024 10:00:00.000,111.284,12.004,1712.455375
18 Mar 2024 07:49:00.000,74.063,42.196,799.707355
30 Mar 2024 05:31:00.000,336.260,49.439,719.136934
30 Mar 2024 02:05:00.000,230.986,7.733,1999.992744
17 Mar 2024 07:54:00.000,75.008,15.167,1537.897262
06 Mar 2024 15:08:00.000,56.413,33.778,933.752959
13 Mar 2024 14:43:00.000,273.207,21.068,1277.441622
03 Mar 2024 13:31:00.000,229.771,13.578,1618.137620
10 Mar 2024 11:32:00.000,275.618,61.347,633.406491
21 Mar 2024 06:01:00.000,77.257,14.403,1577.240246
17 Mar 2024 09:33:00.000,49.231,35.653,899.920753
28 Mar 2024 09:00:00.000,172.400,20.738,1285.119617
18 Mar 2024 07:52:00.000,70.644,7.894,1999.982979
08 Mar 2024 11:39:00.000,120.381,61.392,632.789496
11 Mar 2024 08:10:00.000,131.095,7.787,1999.998315
24 Mar 2024 05:53:00.000,69.194,9.281,1896.527317
26 Mar 2024 09:03:00.000,267.333,33.859,931.079257
07 Mar 2024 10:02:00.000,136.726,10.143,1829.701858
12 Mar 2024 13:06:00.000,308.035,33.580,938.377283
08 Mar 2024 11:43:00.000,72.775,8.947,1921.098976
20 Mar 2024 07:44:00.000,62.638,24.532,1161.211313
11 Mar 2024 14:55:00.000,116.045,15.717,1505.347636
04 Mar 2024 18:35:00.000,158.497,30.812,990.748566
07 Mar 2024 13:20:00.000,273.421,21.821,1250.266570
10 Mar 2024 16:34:00.000,241.772,24.735,1151.376641
31 Mar 2024 05:33:00.000,94.240,7.830,1999.973271
28 Mar 2024 02:13:00.000,202.200,12.712,1662.197232
25 Mar 2024 05:47:00.000,51.167,38.031,859.210591
04 Mar 2024 15:10:00.000,285.238,21.426,1264.836065
04 Mar 2024 11:47:00.000,190.826,7.752,1999.978827
07 Mar 2024 16:42:00.000,284.411,22.156,1238.245598
16 Mar 2024 14:37:00.000,207.846,16.667,1457.380171
11 Mar 2024 14:48:00.000,288.631,13.813,1610.695097
16 Mar 2024 09:33:00.000,282.005,34.507,919.784845
28 Mar 2024 02:15:00.000,174.359,25.081,1137.259097
06 Mar 2024 11:47:00.000,90.193,17.275,1434.133099
26 Mar 2024 07:21:00.000,297.261,21.647,1256.793096
02 Mar 2024 18:44:00.000,115.633,7.771,1999.977756
27 Mar 2024 05:42:00.000,50.366,34.101,927.231251
31 Mar 2024 05:26:00.000,296.934,21.830,1249.223632
10 Mar 2024 09:56:00.000,84.053,9.488,1881.234302
25 Mar 2024 07:23:00.000,290.910,13.573,1623.140665
17 Mar 2024 12:51:00.000,277.458,21.649,1256.692343
29 Mar 2024 02:08:00.000,220.529,7.719,1999.992284
28 Mar 2024 07:14:00.000,291.322,13.713,1615.028223
22 Mar 2024 07:31:00.000,275.192,7.852,1999.986912
12 Mar 2024 08:09:00.000,103.724,7.835,1999.984918
19 Mar 2024 12:45:00.000,259.299,18.832,1364.957413
27 Mar 2024 05:43:00.000,63.343,22.286,1234.032136
23 Mar 2024 05:50:00.000,251.973,36.388,884.274016
06 Mar 2024 16:48:00.000,109.176,74.522,580.951926
29 Mar 2024 05:36:00.000,58.780,33.859,931.502948
14 Mar 2024 11:17:00.000,280.511,7.881,1999.992630
02 Mar 2024 16:55:00.000,289.950,13.475,1628.958465
07 Mar 2024 13:27:00.000,69.710,8.883,1925.635184
08 Mar 2024 13:22:00.000,61.742,22.900,1214.003715
29 Mar 2024 05:30:00.000,285.886,7.852,1999.988925
01 Mar 2024 17:01:00.000,334.376,46.163,752.593341
09 Mar 2024 11:40:00.000,70.624,9.440,1886.103496
05 Mar 2024 15:09:00.000,332.009,46.273,751.883546
30 Mar 2024 05:29:00.000,297.229,21.518,1260.556464
28 Mar 2024 05:35:00.000,292.565,21.282,1269.043107
14 Mar 2024 08:04:00.000,85.179,7.870,1999.999826
09 Mar 2024 11:38:00.000,71.575,25.712,1125.764053
06 Mar 2024 18:24:00.000,273.596,7.846,1999.998093
17 Mar 2024 11:11:00.000,307.117,34.068,928.947769
31 Mar 2024 07:12:00.000,137.313,13.343,1629.644339
09 Mar 2024 09:58:00.000,103.292,14.705,1559.548951
15 Mar 2024 13:00:00.000,106.268,74.480,581.706986
03 Mar 2024 18:34:00.000,280.770,21.970,1243.798892
07 Mar 2024 15:05:00.000,62.808,34.817,914.022319
31 Mar 2024 07:10:00.000,156.420,32.014,965.672929
08 Mar 2024 16:46:00.000,129.981,8.103,1973.928641
04 Mar 2024 16:53:00.000,42.985,58.541,649.231077
26 Mar 2024 09:02:00.000,277.890,21.695,1254.345705
29 Mar 2024 05:31:00.000,289.629,13.552,1623.154690
16 Mar 2024 13:00:00.000,121.401,15.485,1517.155203
31 Mar 2024 00:25:00.000,165.173,14.951,1538.074880
24 Mar 2024 10:47:00.000,274.232,7.863,1999.986631
14 Mar 2024 13:07:00.000,102.478,7.830,1999.990325
09 Mar 2024 09:52:00.000,197.641,7.754,1999.983545
09 Mar 2024 13:21:00.000,74.082,8.342,1965.114089
20 Mar 2024 07:43:00.000,53.283,39.401,838.849931
19 Mar 2024 07:40:00.000,254.486,7.816,1999.975663
30 Mar 2024 07:11:00.000,249.931,55.857,666.192244
18 Mar 2024 06:10:00.000,103.190,14.406,1574.579420
21 Mar 2024 09:19:00.000,336.388,49.772,717.079053
31 Mar 2024 07:13:00.000,133.569,7.768,1999.983263
22 Mar 2024 07:34:00.000,296.221,33.038,948.047502
13 Mar 2024 14:47:00.000,158.025,31.194,983.656959
15 Mar 2024 09:40:00.000,63.939,25.181,1141.826136
23 Mar 2024 09:17:00.000,99.923,15.707,1508.040276
17 Mar 2024 11:16:00.000,87.851,14.859,1552.800483
09 Mar 2024 11:40:00.000,70.578,7.895,1999.977011
27 Mar 2024 02:21:00.000,103.118,14.045,1592.003655
14 Mar 2024 09:41:00.000,56.734,74.611,581.673204
31 Mar 2024 02:07:00.000,113.589,67.130,604.125143
27 Mar 2024 08:59:00.000,269.496,20.574,1295.205696
21 Mar 2024 07:35:00.000,272.136,13.579,1621.229558
05 Mar 2024 13:33:00.000,69.980,7.887,1999.974788
13 Mar 2024 09:40:00.000,240.642,13.625,1616.399508
02 Mar 2024 16:56:00.000,296.005,21.264,1270.816747
05 Mar 2024 16:55:00.000,102.803,7.806,1999.990275
30 Mar 2024 05:36:00.000,87.752,7.844,1999.984949
16 Mar 2024 14:39:00.000,179.208,10.568,1798.241383
12 Mar 2024 14:48:00.000,246.879,55.004,672.796015
29 Mar 2024 02:11:00.000,192.701,29.828,1012.157498
06 Mar 2024 18:27:00.000,236.020,22.040,1238.422710
30 Mar 2024 02:07:00.000,222.936,21.404,1258.813969
22 Mar 2024 05:57:00.000,75.522,25.064,1143.765397
17 Mar 2024 07:55:00.000,72.584,7.891,1999.989892
20 Mar 2024 06:05:00.000,81.271,12.283,1697.918757
04 Mar 2024 16:57:00.000,94.882,8.895,1919.706537
21 Mar 2024 07:36:00.000,277.128,21.639,1256.169078
15 Mar 2024 11:22:00.000,75.936,14.104,1594.451453
10 Mar 2024 13:09:00.000,282.739,7.886,1999.983148
07 Mar 2024 18:28:00.000,172.607,7.712,1999.992308
09 Mar 2024 14:57:00.000,325.607,57.109,659.014523
24 Mar 2024 04:12:00.000,82.962,10.779,1791.573893
30 Mar 2024 07:08:00.000,285.401,13.649,1617.848714
09 Mar 2024 09:59:00.000,88.465,7.866,1999.988147
26 Mar 2024 02:21:00.000,156.542,13.507,1617.169536
29 Mar 2024 03:49:00.000,261.789,7.797,1999.999925
10 Mar 2024 11:37:00.000,69.660,7.897,1999.972011
26 Mar 2024 02:20:00.000,170.315,10.909,1773.235701
19 Mar 2024 07:46:00.000,61.291,42.073,801.548314
16 Mar 2024 12:54:00.000,284.705,22.163,1238.901638
21 Mar 2024 07:43:00.000,70.701,7.892,1999.978195
25 Mar 2024 10:51:00.000,179.106,10.903,1776.795400
10 Mar 2024 16:35:00.000,217.357,28.128,1055.817117
09 Mar 2024 09:54:00.000,176.322,16.767,1452.689605
02 Mar 2024 18:35:00.000,289.078,7.872,1999.970957
18 Mar 2024 11:07:00.000,295.917,22.065,1243.013578
21 Mar 2024 09:22:00.000,78.371,22.922,1212.503620
04 Mar 2024 16:48:00.000,290.075,7.885,1999.978987
08 Mar 2024 10:02:00.000,97.349,7.849,1999.979226
31 Mar 2024 08:47:00.000,246.608,7.798,1999.992077
01 Mar 2024 20:25:00.000,173.253,19.662,1324.453384
04 Mar 2024 13:33:00.000,80.304,41.276,811.734723
22 Mar 2024 09:16:00.000,331.304,53.982,681.492383
22 Mar 2024 07:36:00.000,18.154,49.300,721.289340
03 Mar 2024 16:59:00.000,84.841,14.566,1566.566077
13 Mar 2024 11:26:00.000,62.460,22.509,1227.666958
02 Mar 2024 17:03:00.000,82.636,8.347,1961.753480
05 Mar 2024 15:13:00.000,71.963,13.990,1599.867174
11 Mar 2024 13:10:00.000,336.260,47.059,743.925297
23 Mar 2024 09:16:00.000,96.817,25.199,1139.229025
20 Mar 2024 11:03:00.000,276.800,62.600,626.708682
03 Mar 2024 18:36:00.000,246.012,54.577,675.009426
31 Mar 2024 05:25:00.000,292.555,13.652,1617.600628
07 Mar 2024 13:21:00.000,282.546,34.498,920.010737
28 Mar 2024 07:18:00.000,72.677,71.582,589.607879
20 Mar 2024 07:46:00.000,69.694,7.894,1999.990240
02 Mar 2024 13:40:00.000,87.991,19.524,1336.909983
24 Mar 2024 09:14:00.000,109.822,15.905,1497.297213
29 Mar 2024 03:53:00.000,298.060,56.616,660.894480
05 Mar 2024 15:07:00.000,290.893,21.319,1269.167077
08 Mar 2024 16:39:00.000,277.061,21.646,1255.941194
28 Mar 2024 03:58:00.000,61.926,42.127,799.590625
17 Mar 2024 07:51:00.000,121.102,60.697,636.337627
12 Mar 2024 13:09:00.000,66.510,35.808,896.600869
25 Mar 2024 02:27:00.000,120.941,8.769,1924.754868
17 Mar 2024 09:30:00.000,292.117,33.297,943.313534
25 Mar 2024 04:09:00.000,79.441,13.349,1634.423698
29 Mar 2024 03:57:00.000,66.874,15.401,1524.570482
31 Mar 2024 05:31:00.000,86.000,23.901,1178.509467
13 Mar 2024 11:27:00.000,68.784,14.320,1583.386987
17 Mar 2024 12:49:00.000,285.702,7.891,1999.982482
28 Mar 2024 08:59:00.000,191.849,26.849,1089.238861
12 Mar 2024 09:46:00.000,187.004,51.101,703.574359
17 Mar 2024 07:47:00.000,234.828,13.621,1615.357378
14 Mar 2024 13:03:00.000,90.556,41.200,812.646370
28 Mar 2024 07:23:00.000,105.811,7.820,1999.991909
03 Mar 2024 18:40:00.000,127.770,14.746,1552.255416
26 Mar 2024 04:05:00.000,79.307,24.042,1174.219785
27 Mar 2024 04:04:00.000,70.811,9.395,1887.297561
24 Mar 2024 09:13:00.000,109.323,25.661,1124.933892
13 Mar 2024 09:48:00.000,71.444,7.897,1999.980728
18 Mar 2024 09:32:00.000,70.051,14.171,1591.354277
18 Mar 2024 07:48:00.000,88.476,73.357,584.630890
14 Mar 2024 09:39:00.000,252.872,36.275,887.350381
08 Mar 2024 11:36:00.000,232.035,21.994,1241.673992
15 Mar 2024 12:55:00.000,289.836,7.898,1999.978685
26 Mar 2024 10:46:00.000,200.725,10.329,1815.015801
23 Mar 2024 05:53:00.000,67.613,42.509,795.240472
02 Mar 2024 13:35:00.000,209.874,20.641,1289.727690
15 Mar 2024 09:34:00.000,260.298,13.628,1618.145207
15 Mar 2024 07:55:00.000,184.928,27.992,1059.311195
25 Mar 2024 04:07:00.000,98.548,31.845,970.475173
20 Mar 2024 05:57:00.000,221.172,7.750,1999.991007
29 Mar 2024 02:14:00.000,101.696,27.845,1063.205864
20 Mar 2024 12:41:00.000,261.613,12.062,1710.139591
21 Mar 2024 10:56:00.000,287.181,7.889,1999.981342
23 Mar 2024 07:37:00.000,75.801,7.881,1999.985179
17 Mar 2024 11:12:00.000,334.254,51.754,699.702811
21 Mar 2024 12:44:00.000,179.638,7.744,1999.979583
30 Mar 2024 03:51:00.000,16.116,54.405,677.066348
17 Mar 2024 12:52:00.000,266.629,33.678,935.047394
10 Mar 2024 16:31:00.000,276.840,7.864,1999.987443
26 Mar 2024 10:47:00.000,188.465,7.744,1999.986663
16 Mar 2024 11:20:00.000,85.010,8.434,1957.300194
02 Mar 2024 15:22:00.000,69.318,9.030,1914.073763
20 Mar 2024 11:01:00.000,287.904,22.295,1234.391506
17 Mar 2024 12:57:00.000,132.743,14.135,1586.890506
24 Mar 2024 04:10:00.000,103.419,24.412,1161.328921
01 Mar 2024 18:42:00.000,305.557,62.311,627.340095
23 Mar 2024 09:12:00.000,300.025,35.636,899.587406
09 Mar 2024 11:36:00.000,86.565,74.232,582.557343
15 Mar 2024 09:37:00.000,288.500,58.711,648.703701
26 Mar 2024 10:47:00.000,188.890,7.856,1991.468140
20 Mar 2024 11:02:00.000,285.771,36.354,887.008693
30 Mar 2024 05:27:00.000,288.424,7.856,1999.982516
03 Mar 2024 15:14:00.000,315.275,50.848,706.908556
26 Mar 2024 02:23:00.000,124.454,13.744,1606.467869
14 Mar 2024 08:01:00.000,121.202,22.897,1210.712103
12 Mar 2024 09:49:00.000,82.315,23.084,1207.069824
19 Mar 2024 11:06:00.000,307.903,62.226,628.931517
11 Mar 2024 16:35:00.000,167.743,9.141,1895.344668
04 Mar 2024 13:31:00.000,219.068,61.023,634.471232
21 Mar 2024 09:20:00.000,33.871,51.572,701.026862
08 Mar 2024 14:58:00.000,297.281,21.795,1252.364365
30 Mar 2024 08:55:00.000,178.586,7.737,1999.979031
20 Mar 2024 06:05:00.000,77.553,7.874,1999.989638
29 Mar 2024 07:17:00.000,115.788,25.490,1128.953233
12 Mar 2024 14:51:00.000,131.656,23.718,1182.666955
02 Mar 2024 15:19:00.000,52.867,39.087,843.186427
06 Mar 2024 15:02:00.000,284.676,7.884,1999.990579
28 Mar 2024 03:57:00.000,37.297,71.753,588.592792
19 Mar 2024 06:03:00.000,175.416,25.408,1129.383820
29 Mar 2024 03:54:00.000,19.494,61.999,628.968487
27 Mar 2024 05:45:00.000,73.757,8.346,1964.094020
26 Mar 2024 09:06:00.000,149.013,35.272,903.445906
02 Mar 2024 20:21:00.000,192.404,17.261,1426.939368
16 Mar 2024 09:37:00.000,61.740,23.974,1179.144085
04 Mar 2024 20:12:00.000,242.783,7.773,1999.993288
28 Mar 2024 08:57:00.000,243.065,25.249,1136.155601
04 Mar 2024 15:13:00.000,18.460,48.987,724.195115
13 Mar 2024 13:04:00.000,330.848,54.228,679.786886
12 Mar 2024 09:43:00.000,229.356,13.494,1622.788198
18 Mar 2024 09:29:00.000,19.501,47.926,735.049151
25 Mar 2024 05:46:00.000,17.184,57.530,655.794924
26 Mar 2024 09:00:00.000,285.875,7.875,1999.981983
22 Mar 2024 05:50:00.000,241.210,7.778,1999.991154
17 Mar 2024 06:10:00.000,141.454,14.948,1542.555994
23 Mar 2024 04:08:00.000,203.264,7.718,1999.987450
05 Mar 2024 15:06:00.000,284.542,13.548,1624.984008
03 Mar 2024 15:20:00.000,70.841,7.875,1999.987310
21 Mar 2024 12:38:00.000,261.112,7.843,1999.980926
30 Mar 2024 05:34:00.000,77.891,22.886,1212.370431
23 Mar 2024 04:09:00.000,195.452,12.407,1681.127297
17 Mar 2024 07:48:00.000,231.406,21.941,1242.727493
08 Mar 2024 11:42:00.000,74.816,15.213,1535.652608
17 Mar 2024 07:52:00.000,87.974,38.894,845.659803
12 Mar 2024 11:23:00.000,272.467,13.549,1624.201706
14 Mar 2024 14:43:00.000,190.847,31.036,987.059492
21 Mar 2024 09:21:00.000,66.212,35.600,900.273941
28 Mar 2024 05:36:00.000,304.949,32.499,958.429160
25 Mar 2024 05:48:00.000,61.826,23.973,1178.014457
10 Mar 2024 14:53:00.000,295.462,36.105,891.337418
17 Mar 2024 12:55:00.000,149.985,34.922,909.970706
09 Mar 2024 16:34:00.000,281.851,7.873,1999.982631
26 Mar 2024 07:19:00.000,289.355,7.873,1999.991881
17 Mar 2024 06:13:00.000,99.528,8.439,1954.327567
02 Mar 2024 18:36:00.000,288.516,13.766,1611.739233
20 Mar 2024 07:38:00.000,264.392,13.668,1615.465576
03 Mar 2024 20:15:00.000,249.088,10.838,1783.328226
23 Mar 2024 04:15:00.000,92.643,12.173,1702.326402
27 Mar 2024 02:17:00.000,174.649,16.416,1465.872232
11 Mar 2024 16:34:00.000,178.031,13.463,1620.883055
22 Mar 2024 09:14:00.000,296.827,21.837,1250.724840
05 Mar 2024 11:49:00.000,121.667,23.302,1197.387947
27 Mar 2024 08:57:00.000,282.292,7.868,1999.982291
13 Mar 2024 11:20:00.000,279.031,13.545,1625.114410
27 Mar 2024 03:59:00.000,234.364,62.365,626.231124
15 Mar 2024 09:42:00.000,69.176,9.316,1895.272949
16 Mar 2024 12:56:00.000,260.462,59.592,643.069852
24 Mar 2024 05:44:00.000,258.237,7.807,1999.989257
20 Mar 2024 06:04:00.000,88.445,19.195,1350.072836
09 Mar 2024 15:01:00.000,96.133,15.426,1521.758661
16 Mar 2024 07:58:00.000,75.549,7.887,1999.979010
28 Mar 2024 05:37:00.000,333.772,46.127,752.722293
01 Mar 2024 18:40:00.000,292.422,22.258,1234.317756
09 Mar 2024 13:21:00.000,74.364,7.882,1999.972273
19 Mar 2024 09:30:00.000,77.624,8.227,1973.849360
27 Mar 2024 07:22:00.000,81.806,39.600,834.885899
28 Mar 2024 02:19:00.000,91.950,14.350,1576.593416
16 Mar 2024 09:35:00.000,16.873,57.198,658.803654
10 Mar 2024 13:10:00.000,286.577,13.518,1627.362430
27 Mar 2024 07:19:00.000,303.352,35.102,908.658815
07 Mar 2024 18:21:00.000,265.596,7.831,1999.987428
08 Mar 2024 15:00:00.000,334.411,52.079,696.616142
18 Mar 2024 11:11:00.000,82.699,39.648,834.817645
07 Mar 2024 10:01:00.000,150.281,9.502,1872.664976
07 Mar 2024 16:49:00.000,120.070,7.776,1999.976560
30 Mar 2024 03:55:00.000,70.177,8.769,1932.181033
19 Mar 2024 07:44:00.000,274.018,61.417,632.609105
19 Mar 2024 11:09:00.000,103.199,25.413,1132.724123
06 Mar 2024 11:45:00.000,125.886,33.098,945.372235
24 Mar 2024 09:06:00.000,289.892,7.885,1999.985035
20 Mar 2024 11:07:00.000,115.513,15.795,1502.398424
24 Mar 2024 05:49:00.000,24.418,66.605,607.824834
30 Mar 2024 05:35:00.000,83.862,14.500,1570.573308
06 Mar 2024 15:03:00.000,288.428,13.471,1629.757026
28 Mar 2024 03:52:00.000,254.010,7.784,1999.989056
02 Mar 2024 15:21:00.000,66.807,15.299,1530.674890
24 Mar 2024 04:08:00.000,157.151,33.857,928.207856
01 Mar 2024 18:47:00.000,106.980,7.786,1999.978643
03 Mar 2024 13:39:00.000,74.012,8.502,1952.901798
26 Mar 2024 07:22:00.000,307.225,33.945,930.387808
14 Mar 2024 12:59:00.000,294.460,22.134,1240.545332
31 Mar 2024 00:27:00.000,130.290,16.863,1446.117396
08 Mar 2024 11:43:00.000,72.476,7.891,1999.988078
25 Mar 2024 07:26:00.000,336.861,48.091,732.812136
23 Mar 2024 05:49:00.000,250.987,22.241,1232.385087
18 Mar 2024 09:25:00.000,281.700,13.511,1626.793054
20 Mar 2024 12:45:00.000,192.500,17.958,1398.563960
18 Mar 2024 09:33:00.000,74.219,7.890,1999.976136
14 Mar 2024 09:45:00.000,70.018,7.899,1999.975581
02 Mar 2024 15:18:00.000,18.883,60.639,637.261422
18 Mar 2024 11:14:00.000,98.060,9.074,1908.586913
31 Mar 2024 02:03:00.000,239.418,13.559,1616.076604
29 Mar 2024 02:10:00.000,207.588,20.392,1295.969820
17 Mar 2024 09:31:00.000,319.969,49.228,722.141825
09 Mar 2024 09:57:00.000,118.402,19.041,1355.128636
09 Mar 2024 14:58:00.000,49.304,62.798,625.679582
16 Mar 2024 11:20:00.000,85.333,7.869,1999.973848
02 Mar 2024 13:34:00.000,217.533,13.278,1634.069162
21 Mar 2024 09:15:00.000,288.548,7.886,1999.982114
09 Mar 2024 13:19:00.000,63.609,22.265,1235.730292
07 Mar 2024 15:02:00.000,308.354,33.173,946.031469
27 Mar 2024 05:40:00.000,327.783,46.833,745.150452
24 Mar 2024 04:09:00.000,125.715,32.027,965.619885
14 Mar 2024 07:56:00.000,203.918,7.748,1999.999343
11 Mar 2024 08:09:00.000,140.326,7.773,1999.998765
16 Mar 2024 07:49:00.000,226.757,7.772,1999.991768
03 Mar 2024 18:37:00.000,174.807,57.584,653.708759
11 Mar 2024 08:09:00.000,135.711,7.854,1994.283978
05 Mar 2024 15:11:00.000,52.365,33.471,939.813507
04 Mar 2024 18:38:00.000,135.176,7.741,1999.978668
15 Mar 2024 08:01:00.000,79.660,7.880,1999.990463
25 Mar 2024 10:51:00.000,171.108,7.745,1999.984688
03 Mar 2024 20:19:00.000,190.488,10.360,1809.590804
02 Mar 2024 13:36:00.000,195.504,30.506,999.139000
03 Mar 2024 18:39:00.000,132.195,23.573,1185.817703
25 Mar 2024 02:27:00.000,113.902,7.778,1999.991459
21 Mar 2024 07:37:00.000,287.185,33.929,930.336044
14 Mar 2024 13:05:00.000,100.418,15.698,1508.336780
22 Mar 2024 10:55:00.000,273.589,21.180,1273.373031
15 Mar 2024 07:53:00.000,210.217,13.051,1646.030301
16 Mar 2024 12:57:00.000,162.020,66.573,607.812446
02 Mar 2024 20:24:00.000,165.480,7.703,1999.988549
20 Mar 2024 11:06:00.000,116.635,25.476,1130.150319
15 Mar 2024 11:18:00.000,335.240,46.318,751.893942
27 Mar 2024 09:04:00.000,150.137,18.898,1358.610689
11 Mar 2024 16:30:00.000,248.273,16.287,1477.873681
05 Mar 2024 16:50:00.000,317.675,60.166,639.617105
26 Mar 2024 07:29:00.000,91.094,7.850,1999.990699
03 Mar 2024 16:52:00.000,291.937,13.602,1621.993035
11 Mar 2024 14:50:00.000,285.191,36.419,885.662889
21 Mar 2024 07:41:00.000,61.467,23.448,1195.714148
11 Mar 2024 09:50:00.000,126.959,38.823,845.986694
03 Mar 2024 13:38:00.000,76.869,14.531,1570.577127
06 Mar 2024 11:44:00.000,158.399,34.884,910.725929
19 Mar 2024 06:06:00.000,104.114,21.019,1277.495947
16 Mar 2024 12:53:00.000,287.016,13.741,1614.825249
28 Mar 2024 05:33:00.000,282.306,7.847,1999.990790
25 Mar 2024 05:44:00.000,281.400,34.576,917.262913
09 Mar 2024 16:41:00.000,151.234,18.384,1379.241671
18 Mar 2024 11:10:00.000,48.805,62.314,628.514849
06 Mar 2024 16:49:00.000,110.322,42.403,795.414331
27 Mar 2024 02:23:00.000,89.227,7.824,1999.990835
03 Mar 2024 20:20:00.000,181.172,7.701,1999.989343
21 Mar 2024 04:15:00.000,172.337,7.716,1999.987487
16 Mar 2024 12:55:00.000,279.512,35.834,895.844487
24 Mar 2024 09:10:00.000,294.152,63.124,623.996895
21 Mar 2024 09:24:00.000,88.121,7.863,1999.980010
27 Mar 2024 05:44:00.000,69.860,14.198,1588.532788
27 Mar 2024 09:00:00.000,254.669,30.064,1010.550716
19 Mar 2024 07:41:00.000,255.532,13.666,1614.729163
28 Mar 2024 03:53:00.000,254.983,13.628,1614.587367
29 Mar 2024 07:12:00.000,288.242,22.269,1233.939147
09 Mar 2024 16:42:00.000,143.940,11.715,1725.126881
21 Mar 2024 12:43:00.000,190.735,10.977,1772.205095
29 Mar 2024 03:58:00.000,69.243,9.097,1908.596574
30 Mar 2024 08:54:00.000,191.046,11.406,1744.206623
11 Mar 2024 13:07:00.000,289.871,13.518,1627.682412
23 Mar 2024 07:28:00.000,280.271,7.860,1999.982723
30 Mar 2024 02:08:00.000,212.379,33.456,935.118490
05 Mar 2024 15:10:00.000,21.841,47.002,744.100498
30 Mar 2024 07:10:00.000,274.341,35.044,908.592442
09 Mar 2024 11:37:00.000,73.463,42.603,794.777086
27 Mar 2024 09:06:00.000,139.239,7.770,1999.991124
25 Mar 2024 10:50:00.000,191.890,14.539,1563.444645
14 Mar 2024 14:39:00.000,273.728,13.064,1651.720153
28 Mar 2024 07:15:00.000,292.982,22.173,1237.659080
21 Mar 2024 11:05:00.000,124.162,7.797,1999.976755
19 Mar 2024 11:10:00.000,105.008,15.780,1504.125812
10 Mar 2024 09:49:00.000,203.716,12.799,1661.020007
11 Mar 2024 11:32:00.000,62.467,24.608,1159.264412
23 Mar 2024 05:57:00.000,70.068,7.885,1999.975978
10 Mar 2024 13:15:00.000,54.095,33.493,939.847367
04 Mar 2024 16:52:00.000,330.823,54.541,676.702339
12 Mar 2024 11:29:00.000,61.410,23.483,1195.044195
16 Mar 2024 06:16:00.000,112.714,7.810,1999.997561
08 Mar 2024 13:23:00.000,67.788,14.533,1571.525402
11 Mar 2024 16:36:00.000,164.963,7.728,1999.989224
22 Mar 2024 05:56:00.000,81.623,41.027,814.582078
07 Mar 2024 13:23:00.000,16.946,56.832,661.154344
04 Mar 2024 20:13:00.000,230.319,8.923,1912.595013
30 Mar 2024 03:52:00.000,49.784,36.908,876.650284
09 Mar 2024 16:38:00.000,224.963,37.933,858.657387
22 Mar 2024 04:17:00.000,101.706,11.237,1759.632739
25 Mar 2024 04:04:00.000,202.944,32.028,964.510893
03 Mar 2024 18:38:00.000,142.119,37.604,862.893723
12 Mar 2024 14:46:00.000,281.055,22.019,1243.495293
10 Mar 2024 16:39:00.000,151.944,7.735,1999.999860
08 Mar 2024 14:57:00.000,292.421,13.687,1618.046758
10 Mar 2024 11:34:00.000,60.820,41.917,803.937662
13 Mar 2024 13:07:00.000,86.996,24.138,1172.266822
