aer_data/rounded_times/rounded_CR_AER.csv

Time (UTCG),Azimuth (deg),Elevation (deg),Range (km)
31 May 2023 16:07:00.000,94.024,24.979,1147.720896
05 Jan 2024 20:54:00.000,225.409,16.695,1451.787905
14 Nov 2023 14:22:00.000,16.018,53.239,686.472271
30 Oct 2023 20:07:00.000,69.196,9.250,1894.622427
04 Jan 2024 21:01:00.000,158.303,7.663,1999.985360
13 May 2023 20:07:00.000,71.354,7.894,1999.979692
29 Jun 2023 01:34:00.000,273.370,13.514,1623.185282
03 May 2023 03:08:00.000,26.275,47.434,738.893341
23 Aug 2023 00:02:00.000,196.902,30.825,989.043352
08 Oct 2023 03:40:00.000,197.237,12.409,1678.828441
23 Feb 2024 20:39:00.000,288.764,7.794,1999.992613
28 Oct 2023 02:54:00.000,205.243,13.947,1590.393234
08 Dec 2023 06:37:00.000,54.772,66.004,608.778823
12 Feb 2024 21:14:00.000,177.726,25.836,1111.628163
02 Jun 2023 16:01:00.000,153.139,69.445,597.795613
30 Sep 2023 14:09:00.000,175.410,17.132,1435.008920
22 Apr 2023 03:28:00.000,161.793,14.418,1568.656693
22 Sep 2023 12:46:00.000,17.626,58.755,648.587386
26 Apr 2023 08:28:00.000,128.538,8.337,1958.937013
10 Oct 2023 03:36:00.000,206.241,32.512,952.965828
11 Jan 2024 12:10:00.000,241.111,13.651,1612.147685
04 May 2023 23:46:00.000,72.043,7.871,1999.967762
23 Nov 2023 10:39:00.000,61.459,23.230,1201.648847
21 Jan 2024 11:48:00.000,91.909,41.279,809.619930
16 Sep 2023 14:39:00.000,255.725,36.149,889.277785
06 Oct 2023 10:30:00.000,246.958,54.432,676.343499
02 May 2023 04:47:00.000,291.810,13.730,1613.987936
21 Aug 2023 03:30:00.000,19.585,47.675,735.290779
03 Jun 2023 11:00:00.000,75.833,14.974,1549.511601
27 Dec 2023 00:46:00.000,164.459,11.650,1722.655592
02 Mar 2024 18:37:00.000,287.405,22.184,1232.765920
30 Mar 2024 07:08:00.000,285.401,13.578,1617.361253
17 Feb 2024 22:42:00.000,26.011,47.211,737.626607
09 Aug 2023 12:17:00.000,267.460,12.650,1675.202357
05 Jan 2024 15:53:00.000,50.668,37.906,859.375434
02 May 2023 04:51:00.000,62.201,68.506,599.920357
11 Jan 2024 13:52:00.000,285.282,21.382,1264.168114
06 Apr 2023 12:20:00.000,252.366,22.342,1232.580803
07 Feb 2024 04:16:00.000,43.819,58.799,645.028911
04 Oct 2023 10:41:00.000,106.525,7.817,1999.975505
13 Feb 2024 00:41:00.000,78.361,7.775,1999.999898
09 Feb 2024 04:14:00.000,111.559,9.246,1887.953415
03 Jul 2023 03:06:00.000,287.669,7.850,1999.981556
23 Oct 2023 22:03:00.000,80.111,23.691,1182.611761
04 Dec 2023 03:22:00.000,200.671,12.595,1666.885677
18 Jun 2023 03:45:00.000,92.269,13.800,1607.142378
02 Jul 2023 22:12:00.000,74.656,7.852,1999.981541
04 Feb 2024 06:08:00.000,106.245,15.826,1496.788653
09 Sep 2023 18:22:00.000,66.756,15.039,1543.127269
30 Dec 2023 21:08:00.000,292.640,22.073,1237.326370
27 Feb 2024 20:37:00.000,120.372,7.691,1999.978723
05 Apr 2023 12:28:00.000,72.795,15.685,1514.879894
21 May 2023 16:21:00.000,233.220,13.592,1619.877891
13 Jun 2023 12:15:00.000,252.031,29.114,1034.159633
22 Oct 2023 03:13:00.000,108.940,7.755,1999.976581
14 Oct 2023 08:31:00.000,192.318,16.410,1466.819778
17 May 2023 18:09:00.000,238.799,7.831,1999.976181
24 May 2023 19:45:00.000,114.872,9.340,1887.875544
06 Sep 2023 21:46:00.000,305.599,34.635,915.937418
30 Apr 2023 06:39:00.000,125.179,8.659,1934.384284
22 Aug 2023 01:45:00.000,278.116,60.612,635.190441
06 Jul 2023 03:05:00.000,192.182,22.775,1210.343875
03 Oct 2023 07:21:00.000,70.700,9.331,1891.808748
07 Sep 2023 18:26:00.000,68.709,25.581,1127.819834
21 Nov 2023 09:03:00.000,104.041,22.528,1222.476963
26 Aug 2023 01:35:00.000,303.859,32.336,960.122864
04 Dec 2023 06:51:00.000,77.170,7.837,1999.990521
20 Jun 2023 10:20:00.000,237.846,13.780,1607.083772
09 Oct 2023 05:20:00.000,291.182,58.507,647.894436
26 Nov 2023 13:54:00.000,161.125,7.725,1999.999924
27 Sep 2023 09:13:00.000,94.903,35.085,907.763991
28 Jan 2024 06:22:00.000,278.188,21.495,1257.632023
13 Mar 2024 14:42:00.000,279.981,13.383,1629.567791
16 Dec 2023 02:58:00.000,94.329,7.770,1999.970559
12 May 2023 20:03:00.000,214.492,34.066,926.452713
26 Nov 2023 07:04:00.000,213.396,13.064,1642.258569
21 Aug 2023 03:27:00.000,288.429,21.158,1271.649937
22 Feb 2024 20:48:00.000,59.646,34.047,923.589598
07 Oct 2023 08:50:00.000,87.487,24.058,1173.332730
11 Mar 2024 16:34:00.000,178.031,13.391,1620.402161
04 Nov 2023 18:06:00.000,268.115,21.836,1246.688326
20 Mar 2024 11:00:00.000,288.785,13.708,1612.164033
11 Mar 2024 16:35:00.000,167.743,9.079,1895.016779
19 May 2023 19:53:00.000,68.362,21.957,1246.936844
25 Mar 2024 07:28:00.000,62.127,34.532,916.170363
01 Apr 2023 17:39:00.000,97.561,7.888,1999.980191
21 Oct 2023 04:51:00.000,223.122,35.156,902.674983
10 Jan 2024 12:17:00.000,125.083,53.567,682.016906
28 Apr 2023 03:17:00.000,36.581,71.262,590.458182
21 Nov 2023 09:05:00.000,83.710,9.995,1843.781244
24 Aug 2023 23:59:00.000,103.601,70.749,590.612059
08 Apr 2023 15:43:00.000,126.516,24.592,1158.837015
26 Oct 2023 20:16:00.000,81.635,11.908,1716.411029
18 Dec 2023 01:12:00.000,79.807,7.789,1999.975549
04 Nov 2023 21:35:00.000,115.119,9.213,1890.746903
02 Feb 2024 04:34:00.000,71.517,8.474,1950.284404
11 May 2023 02:50:00.000,259.564,18.811,1364.173040
01 Feb 2024 07:49:00.000,288.044,7.820,1999.999958
06 Apr 2023 10:39:00.000,196.957,12.591,1674.636157
07 Jun 2023 14:09:00.000,248.636,55.731,668.767013
19 Feb 2024 19:15:00.000,119.179,62.031,625.604379
12 May 2023 20:09:00.000,73.851,7.888,1999.990190
09 May 2023 04:38:00.000,189.200,8.179,1965.163266
11 Oct 2023 05:19:00.000,61.882,22.703,1217.787216
05 Nov 2023 21:28:00.000,247.362,54.973,670.711504
01 Mar 2024 16:57:00.000,282.879,7.808,1999.971432
18 Apr 2023 11:59:00.000,259.254,31.577,978.717621
22 Jan 2024 06:43:00.000,103.064,25.407,1129.490106
19 Jul 2023 16:27:00.000,279.046,34.772,915.278933
28 Jun 2023 06:43:00.000,210.220,19.311,1339.854701
03 May 2023 04:53:00.000,112.022,9.310,1888.261222
07 Jul 2023 23:40:00.000,70.193,36.605,880.997446
16 Dec 2023 06:16:00.000,199.904,7.682,1999.997240
02 Nov 2023 00:59:00.000,229.280,11.641,1726.797165
27 May 2023 12:53:00.000,121.738,23.430,1194.913552
06 Mar 2024 18:31:00.000,164.811,11.335,1742.349454
18 Nov 2023 12:31:00.000,16.125,56.123,665.159656
07 Aug 2023 07:24:00.000,84.596,40.288,824.544307
04 Jan 2024 17:36:00.000,25.852,47.159,740.078016
03 Sep 2023 01:17:00.000,255.299,30.068,1007.773201
27 Jun 2023 03:20:00.000,286.814,13.488,1625.884691
08 Nov 2023 18:03:00.000,80.090,8.220,1969.930330
22 Sep 2023 12:47:00.000,51.740,38.494,852.598880
09 Mar 2024 13:17:00.000,19.384,47.781,733.840874
09 May 2023 23:30:00.000,287.422,21.271,1270.390130
15 Feb 2024 00:32:00.000,34.403,52.147,691.889832
04 Apr 2023 14:07:00.000,314.937,51.398,704.272260
22 Oct 2023 23:48:00.000,69.474,8.927,1917.144730
01 Jan 2024 22:48:00.000,190.584,10.556,1792.667835
29 May 2023 14:30:00.000,61.591,23.884,1183.748054
25 Jun 2023 01:47:00.000,121.194,61.189,632.225750
04 Dec 2023 10:07:00.000,243.952,25.814,1117.995789
12 Mar 2024 14:51:00.000,131.656,23.626,1181.835465
06 Apr 2023 14:00:00.000,284.663,13.611,1624.752624
22 Aug 2023 06:52:00.000,153.130,7.724,1999.999839
29 Aug 2023 04:52:00.000,209.574,9.635,1858.800387
30 May 2023 11:05:00.000,144.310,15.903,1496.519816
12 Dec 2023 23:42:00.000,104.180,20.273,1300.652296
21 Sep 2023 12:50:00.000,64.815,25.375,1135.554048
02 May 2023 06:31:00.000,220.372,31.888,968.512103
16 Jan 2024 08:43:00.000,88.160,7.820,1999.988219
27 Aug 2023 23:49:00.000,275.307,21.645,1253.172513
08 Jun 2023 07:25:00.000,131.185,17.384,1425.413806
05 May 2023 21:56:00.000,192.472,12.296,1689.983297
17 Jul 2023 16:37:00.000,70.345,9.460,1884.871608
16 Apr 2023 10:23:00.000,336.624,47.119,743.976579
27 May 2023 17:59:00.000,102.956,7.854,1999.990067
23 Apr 2023 05:11:00.000,70.146,15.897,1500.550082
18 Nov 2023 15:53:00.000,166.917,64.117,617.539055
29 Oct 2023 20:01:00.000,249.982,13.685,1610.131573
05 Dec 2023 08:27:00.000,116.355,42.407,794.131531
16 Jun 2023 10:34:00.000,126.845,7.805,1999.978659
20 Dec 2023 23:16:00.000,287.617,21.177,1268.679663
29 Feb 2024 13:47:00.000,88.199,7.789,1999.988372
06 Jan 2024 19:09:00.000,266.024,33.388,937.045915
21 Dec 2023 23:14:00.000,304.839,32.214,960.955293
30 Jul 2023 09:23:00.000,118.753,19.198,1348.349124
02 Oct 2023 09:04:00.000,71.219,8.577,1947.236203
17 Jul 2023 20:00:00.000,100.102,7.821,1999.990329
14 Aug 2023 10:24:00.000,270.773,7.842,1999.998967
31 Aug 2023 23:43:00.000,29.654,49.077,721.322299
19 Oct 2023 22:08:00.000,186.403,7.676,1999.977061
17 Jan 2024 08:34:00.000,193.994,19.015,1350.328512
23 May 2023 19:45:00.000,102.537,25.426,1132.861254
10 Feb 2024 23:02:00.000,119.787,62.434,623.212854
28 Mar 2024 09:01:00.000,160.146,14.374,1567.708380
16 Aug 2023 08:44:00.000,185.604,43.565,779.891888
28 Aug 2023 01:31:00.000,308.281,33.246,941.821551
18 May 2023 21:33:00.000,322.444,58.264,651.799852
04 May 2023 23:42:00.000,117.415,64.398,616.945628
21 May 2023 21:32:00.000,128.288,8.390,1954.237208
12 Jul 2023 23:24:00.000,279.691,13.419,1630.182496
15 Nov 2023 12:38:00.000,221.982,61.190,632.795198
30 Apr 2023 23:54:00.000,92.267,7.864,1997.611865
07 Apr 2023 10:41:00.000,126.098,33.845,932.192607
23 Nov 2023 09:01:00.000,73.321,7.863,1999.990577
27 Oct 2023 01:16:00.000,117.314,42.331,793.611592
29 Feb 2024 13:46:00.000,103.386,14.843,1547.016136
17 May 2023 18:16:00.000,77.356,24.644,1158.165574
29 Jul 2023 09:22:00.000,171.705,11.094,1764.434610
29 Feb 2024 17:03:00.000,300.319,32.460,956.302420
30 Jun 2023 22:15:00.000,92.335,13.296,1635.254800
30 Oct 2023 18:23:00.000,103.482,24.150,1167.784795
08 Jul 2023 01:14:00.000,285.929,7.853,1999.993074
01 Jun 2023 16:06:00.000,107.644,15.991,1495.290578
01 Feb 2024 04:35:00.000,61.654,23.715,1182.601483
12 Jun 2023 08:59:00.000,61.886,22.757,1219.228965
16 Jun 2023 08:47:00.000,307.719,33.801,933.435752
28 Oct 2023 02:50:00.000,262.070,7.765,1999.992219
01 Oct 2023 07:23:00.000,98.683,32.042,966.210006
30 Apr 2023 04:59:00.000,88.550,7.845,1999.981755
09 Sep 2023 23:24:00.000,172.588,7.689,1999.996889
06 Sep 2023 01:09:00.000,250.360,10.968,1773.310988
13 Apr 2023 15:30:00.000,230.563,12.087,1708.445540
05 Sep 2023 23:28:00.000,281.542,21.940,1243.254589
16 Nov 2023 16:01:00.000,101.640,15.655,1508.112153
30 Mar 2024 08:55:00.000,179.829,8.114,1966.528944
06 Jun 2023 10:49:00.000,298.150,56.879,661.018269
08 Jan 2024 14:07:00.000,69.652,7.845,1999.985609
03 Aug 2023 15:56:00.000,213.883,8.275,1962.222115
02 Nov 2023 01:01:00.000,200.697,10.153,1821.017556
11 Aug 2023 08:52:00.000,297.350,21.706,1254.393104
01 Apr 2023 15:56:00.000,63.224,22.339,1236.346851
22 Jul 2023 18:03:00.000,310.932,61.184,634.569700
29 May 2023 12:44:00.000,224.626,13.540,1621.595067
12 Jan 2024 15:31:00.000,299.367,35.924,892.410511
03 Jun 2023 09:19:00.000,100.075,7.858,1999.984091
17 Dec 2023 21:44:00.000,199.755,19.565,1325.577664
09 Jun 2023 10:39:00.000,280.514,7.883,1999.991233
23 Aug 2023 22:21:00.000,135.718,13.084,1641.727110
05 Apr 2023 15:45:00.000,305.393,34.891,915.758387
19 Apr 2023 08:32:00.000,280.945,7.876,1999.990900
11 May 2023 20:05:00.000,193.966,30.247,1005.530565
23 Jan 2024 06:34:00.000,227.727,7.713,1999.984703
19 Jan 2024 11:55:00.000,84.985,14.606,1563.332385
17 Mar 2024 14:32:00.000,242.432,10.126,1827.695167
12 Dec 2023 06:26:00.000,188.063,38.136,852.592146
20 Jul 2023 18:11:00.000,86.372,14.743,1558.643622
10 Jan 2024 19:00:00.000,203.938,12.806,1655.232247
09 Jul 2023 01:19:00.000,150.356,18.776,1361.142955
10 Jul 2023 18:31:00.000,101.412,28.565,1046.817640
06 Oct 2023 05:33:00.000,74.057,8.450,1954.533747
26 Jul 2023 12:54:00.000,68.987,25.676,1127.568164
05 Jan 2024 14:13:00.000,97.831,32.450,956.782757
27 Mar 2024 05:45:00.000,74.047,7.810,1999.979137
07 Jan 2024 14:08:00.000,71.507,25.646,1124.706143
15 Sep 2023 19:50:00.000,136.314,7.739,1999.990286
25 Mar 2024 07:27:00.000,30.534,49.301,718.485155
03 Nov 2023 16:34:00.000,91.899,14.615,1562.105317
13 Nov 2023 11:03:00.000,146.394,7.744,1999.995698
17 Nov 2023 10:57:00.000,79.002,7.859,1999.975620
06 Jan 2024 17:33:00.000,82.783,23.506,1188.780711
18 Jan 2024 08:36:00.000,87.906,19.557,1333.104648
18 Sep 2023 17:59:00.000,135.600,39.719,831.357278
28 Apr 2023 01:32:00.000,209.438,7.741,1999.974159
12 Jun 2023 07:17:00.000,86.535,39.448,837.084131
21 Jan 2024 10:09:00.000,72.091,13.967,1599.139254
25 Mar 2024 04:02:00.000,222.356,13.302,1625.739487
24 Sep 2023 14:23:00.000,80.399,39.394,838.199637
24 May 2023 17:58:00.000,307.892,32.829,954.528511
17 Jan 2024 15:18:00.000,241.036,24.461,1157.676572
15 Apr 2023 13:48:00.000,191.686,26.602,1098.599683
10 Apr 2023 12:11:00.000,279.247,7.906,1999.992519
25 May 2023 17:56:00.000,308.017,33.548,940.212528
11 Sep 2023 21:34:00.000,252.741,29.374,1024.995372
07 Sep 2023 21:46:00.000,58.146,67.497,603.045871
19 Jan 2024 08:34:00.000,76.749,14.500,1569.603212
17 Apr 2023 10:20:00.000,307.923,33.501,940.522207
06 Jan 2024 17:31:00.000,37.588,54.832,672.687467
01 Oct 2023 05:40:00.000,160.037,7.708,1999.998612
22 Mar 2024 04:15:00.000,131.223,17.257,1425.607277
07 Jun 2023 10:49:00.000,49.884,36.755,881.631945
24 Sep 2023 14:19:00.000,296.202,21.902,1248.372007
11 May 2023 20:10:00.000,81.194,12.272,1699.221103
05 Mar 2024 13:33:00.000,69.843,9.407,1883.172488
25 May 2023 21:20:00.000,204.356,13.241,1635.750560
22 Aug 2023 03:23:00.000,286.917,13.421,1628.558268
30 Nov 2023 11:57:00.000,256.338,18.081,1394.815766
16 May 2023 18:16:00.000,126.855,47.803,735.364580
14 Apr 2023 12:12:00.000,97.423,9.138,1907.044917
29 Aug 2023 23:47:00.000,20.751,47.235,739.670363
31 Mar 2024 02:04:00.000,237.184,21.876,1238.676373
30 Jan 2024 09:42:00.000,169.795,22.891,1205.992130
02 Jul 2023 03:15:00.000,113.300,25.497,1127.158981
24 Feb 2024 19:03:00.000,68.967,14.152,1585.002456
18 Jul 2023 18:15:00.000,74.685,14.032,1597.987791
29 Apr 2023 03:12:00.000,268.235,21.960,1243.350171
22 Oct 2023 22:02:00.000,200.264,31.456,974.663405
10 Jul 2023 20:13:00.000,66.833,15.331,1528.767648
09 May 2023 20:14:00.000,92.714,9.573,1873.701339
05 Sep 2023 18:26:00.000,223.491,21.531,1256.055305
16 Nov 2023 12:40:00.000,69.907,7.873,1999.990539
07 Apr 2023 12:18:00.000,264.284,22.175,1239.105219
13 Oct 2023 06:56:00.000,106.800,15.793,1500.402840
14 Nov 2023 17:42:00.000,271.499,34.757,912.931205
03 Sep 2023 23:36:00.000,71.990,71.526,588.362095
31 May 2023 17:44:00.000,251.200,28.850,1041.355378
12 Nov 2023 12:48:00.000,104.103,21.781,1248.957538
04 Jun 2023 15:59:00.000,149.260,19.357,1341.929324
27 Nov 2023 07:06:00.000,127.159,49.018,720.843162
21 Jun 2023 03:34:00.000,232.040,35.619,896.112585
23 Oct 2023 04:47:00.000,209.133,17.884,1397.699465
08 Oct 2023 03:47:00.000,84.770,7.816,1999.999800
02 Jul 2023 23:51:00.000,61.540,23.594,1188.829751
30 Jul 2023 11:07:00.000,70.554,7.907,1999.976047
21 Sep 2023 17:53:00.000,162.988,12.744,1662.182995
17 Aug 2023 01:59:00.000,121.439,22.791,1210.877963
04 Dec 2023 03:24:00.000,172.502,24.458,1154.283250
02 Jul 2023 03:16:00.000,112.921,15.788,1500.024122
05 May 2023 06:26:00.000,197.895,8.255,1960.270483
07 Feb 2024 23:06:00.000,205.154,7.646,1999.976170
18 Apr 2023 05:18:00.000,132.428,18.006,1397.183451
21 Jun 2023 01:54:00.000,164.914,14.942,1539.710595
11 Aug 2023 08:56:00.000,69.661,36.483,884.198104
03 Oct 2023 10:43:00.000,98.508,7.833,1999.990770
10 Oct 2023 03:42:00.000,75.172,7.832,1999.999874
13 Oct 2023 03:35:00.000,69.311,9.272,1893.704163
29 Dec 2023 16:08:00.000,197.195,7.698,1999.983658
06 Nov 2023 18:03:00.000,325.111,47.770,734.627519
29 Jan 2024 06:24:00.000,62.575,22.419,1226.629097
18 Oct 2023 04:58:00.000,284.838,62.787,623.454973
13 Dec 2023 01:20:00.000,271.261,61.914,626.901873
15 Jan 2024 15:22:00.000,276.802,21.526,1258.088191
06 Jan 2024 15:54:00.000,71.381,8.487,1950.383454
11 Jun 2023 10:44:00.000,85.427,8.497,1953.941173
25 Jan 2024 11:36:00.000,189.301,35.616,895.141397
28 May 2023 17:53:00.000,111.575,42.771,792.598901
26 Nov 2023 08:53:00.000,69.188,9.174,1902.915752
01 Jul 2023 01:29:00.000,281.390,7.843,1999.990664
18 Aug 2023 07:00:00.000,110.392,25.622,1124.266741
19 Aug 2023 06:58:00.000,124.946,24.654,1152.278263
30 Jul 2023 14:25:00.000,83.459,40.111,828.541857
03 May 2023 04:53:00.000,112.032,7.798,1999.976780
28 Dec 2023 17:56:00.000,87.889,38.716,845.094784
16 Apr 2023 08:38:00.000,262.276,7.844,1999.981474
15 Aug 2023 02:00:00.000,171.925,7.690,1999.995351
10 Jun 2023 09:00:00.000,289.854,58.811,647.974986
24 Nov 2023 07:12:00.000,170.910,15.848,1493.488106
28 Oct 2023 23:29:00.000,331.633,53.465,682.700691
21 Jul 2023 18:09:00.000,94.266,15.295,1529.219026
15 Sep 2023 21:25:00.000,226.746,8.571,1937.796862
29 Oct 2023 18:20:00.000,202.622,7.711,1999.990538
30 Jul 2023 12:42:00.000,328.886,46.763,747.327958
12 Aug 2023 05:31:00.000,95.075,72.978,584.496677
21 Apr 2023 06:54:00.000,61.568,23.764,1185.521409
19 Nov 2023 14:09:00.000,333.546,52.598,691.604394
17 Apr 2023 07:04:00.000,74.130,8.509,1953.658180
17 Mar 2024 09:36:00.000,71.250,8.555,1945.470610
08 Jan 2024 17:25:00.000,78.419,72.592,584.885793
24 Apr 2023 08:32:00.000,108.889,9.336,1888.974536
28 Nov 2023 06:58:00.000,239.300,7.745,1999.990963
10 Nov 2023 17:58:00.000,91.537,8.692,1933.319038
18 Aug 2023 08:35:00.000,265.631,12.435,1685.525450
17 Mar 2024 09:29:00.000,281.219,21.352,1263.561707
22 Mar 2024 04:14:00.000,149.571,17.364,1419.584802
03 Apr 2023 12:28:00.000,164.634,39.102,842.925638
27 Apr 2023 03:18:00.000,233.743,62.487,625.966959
07 Oct 2023 05:25:00.000,219.108,61.054,632.427698
28 May 2023 17:48:00.000,289.836,13.779,1614.944832
20 Oct 2023 04:52:00.000,275.215,21.300,1264.778307
27 Jun 2023 03:25:00.000,54.401,33.386,939.941253
19 Feb 2024 19:14:00.000,202.660,57.241,653.376214
30 Jun 2023 06:39:00.000,209.152,7.727,1999.992193
26 Jun 2023 05:08:00.000,83.621,39.833,830.404820
01 Jan 2024 16:07:00.000,73.871,7.823,1999.990470
05 Aug 2023 07:25:00.000,204.221,20.089,1309.147451
17 Sep 2023 14:43:00.000,69.589,7.888,1999.981830
09 Mar 2024 11:40:00.000,70.624,9.378,1885.764939
14 Sep 2023 19:48:00.000,176.872,56.448,661.125699
06 Dec 2023 06:42:00.000,32.754,50.907,704.567950
24 Aug 2023 03:22:00.000,335.247,50.207,710.861136
22 Feb 2024 19:03:00.000,269.080,21.745,1246.692341
06 Dec 2023 08:24:00.000,137.879,38.936,841.713108
10 Aug 2023 09:00:00.000,80.353,14.246,1585.510519
24 Jan 2024 13:20:00.000,191.880,7.703,1999.986571
12 Sep 2023 19:53:00.000,81.318,72.810,585.222447
28 Jul 2023 17:49:00.000,225.762,16.963,1445.311070
28 Mar 2024 07:16:00.000,296.395,35.959,890.106717
20 Feb 2024 19:16:00.000,70.522,9.289,1888.683094
12 Oct 2023 03:35:00.000,70.866,25.495,1128.417783
02 Sep 2023 18:39:00.000,89.596,7.823,1999.998322
19 Dec 2023 19:58:00.000,170.342,10.872,1772.867857
09 Nov 2023 16:15:00.000,308.855,53.180,686.373739
14 Jun 2023 07:16:00.000,69.286,9.395,1889.002771
05 May 2023 04:42:00.000,275.476,21.419,1263.142321
30 Sep 2023 12:23:00.000,290.251,13.792,1611.306148
08 Nov 2023 19:43:00.000,110.802,15.805,1498.030331
25 Apr 2023 06:40:00.000,287.112,7.874,1999.972099
05 Apr 2023 14:10:00.000,72.590,8.464,1960.527518
26 Apr 2023 10:06:00.000,189.284,8.217,1965.073103
06 Jan 2024 15:46:00.000,276.074,13.522,1622.413305
14 May 2023 23:26:00.000,101.342,15.641,1510.080841
22 Jan 2024 08:20:00.000,270.216,35.574,897.304992
26 Aug 2023 03:16:00.000,298.188,36.009,890.390644
12 Jan 2024 15:38:00.000,102.909,7.776,1999.990267
31 Oct 2023 19:56:00.000,268.106,13.531,1620.765705
22 Oct 2023 03:09:00.000,92.546,74.050,580.398573
21 May 2023 19:50:00.000,86.842,14.845,1554.044370
10 Mar 2024 16:39:00.000,153.225,8.661,1925.794584
30 May 2023 11:07:00.000,112.208,12.841,1663.872431
24 Jun 2023 03:28:00.000,281.826,34.353,920.604607
06 Jan 2024 12:31:00.000,99.834,8.693,1932.679291
23 Jul 2023 14:40:00.000,53.789,39.933,831.886427
21 Jul 2023 14:46:00.000,73.104,25.596,1129.620430
29 Nov 2023 12:05:00.000,153.931,17.398,1422.088247
22 May 2023 18:03:00.000,327.558,46.985,745.566155
04 Aug 2023 14:12:00.000,219.770,31.307,982.464967
07 May 2023 21:58:00.000,86.562,20.658,1292.250693
15 Oct 2023 03:29:00.000,67.264,14.641,1561.746253
19 May 2023 16:33:00.000,83.468,10.313,1826.059977
28 Feb 2024 15:27:00.000,120.552,62.013,626.576015
17 Jun 2023 08:46:00.000,328.410,55.542,669.662104
02 Mar 2024 11:58:00.000,127.627,7.729,1999.996588
23 Apr 2023 06:44:00.000,279.364,7.861,1999.992268
20 Jun 2023 07:04:00.000,87.493,7.852,1999.975328
19 Apr 2023 08:33:00.000,284.739,13.469,1629.580540
27 Jun 2023 01:47:00.000,69.638,7.856,1999.975501
28 Dec 2023 21:14:00.000,297.274,21.630,1253.314203
08 Aug 2023 09:02:00.000,20.550,47.362,740.216663
04 Feb 2024 00:59:00.000,204.772,12.736,1656.875527
19 Jun 2023 10:19:00.000,271.496,7.853,1999.997868
09 May 2023 01:12:00.000,297.310,21.668,1255.986114
19 Jul 2023 18:13:00.000,79.901,14.244,1585.914172
27 Dec 2023 23:01:00.000,130.820,40.574,815.996446
18 Jul 2023 16:33:00.000,65.006,25.407,1135.197926
18 Oct 2023 03:22:00.000,77.090,14.057,1592.104500
08 Jan 2024 19:06:00.000,191.887,25.525,1122.674614
22 May 2023 19:50:00.000,97.771,7.850,1999.979663
03 May 2023 22:01:00.000,166.019,7.743,1999.990197
07 Oct 2023 10:26:00.000,272.755,21.016,1277.841554
03 Feb 2024 07:53:00.000,141.180,7.712,1999.991462
02 Jan 2024 19:18:00.000,292.569,13.625,1616.759028
06 Sep 2023 21:51:00.000,91.517,15.036,1539.448983
05 Dec 2023 10:09:00.000,162.255,7.717,1999.983261
28 Jan 2024 04:42:00.000,216.183,33.955,924.004953
06 Dec 2023 03:18:00.000,210.792,33.213,938.282822
14 Jun 2023 05:31:00.000,153.102,31.103,984.798765
18 Jan 2024 15:20:00.000,165.790,7.696,1999.988338
17 Mar 2024 06:07:00.000,181.990,7.666,2000.000093
09 Jan 2024 14:01:00.000,18.745,60.723,635.530609
07 Nov 2023 19:42:00.000,317.990,59.950,639.510000
11 May 2023 23:29:00.000,28.210,48.059,733.011789
14 Jan 2024 08:47:00.000,111.468,7.816,1996.967498
01 Nov 2023 20:02:00.000,71.557,7.826,1999.990441
13 May 2023 18:26:00.000,92.306,7.867,1999.998735
07 Jan 2024 15:51:00.000,74.400,7.827,1999.985310
11 Sep 2023 21:35:00.000,224.631,37.363,866.397762
02 Jul 2023 04:50:00.000,263.740,12.253,1695.549416
30 Sep 2023 09:04:00.000,287.163,59.253,644.457008
24 Mar 2024 10:49:00.000,254.436,17.707,1408.829914
23 Feb 2024 15:45:00.000,102.789,7.748,1999.981601
15 Jul 2023 14:55:00.000,164.921,7.765,1999.998473
30 Jan 2024 09:40:00.000,220.312,32.018,964.014558
23 Mar 2024 07:37:00.000,75.555,8.214,1969.855380
21 Feb 2024 17:31:00.000,91.692,15.126,1531.672732
23 Jan 2024 13:24:00.000,173.426,7.701,1999.977218
06 Jul 2023 03:01:00.000,267.087,12.556,1677.735910
28 Jun 2023 06:39:00.000,269.310,7.821,1999.990649
11 Apr 2023 08:52:00.000,154.538,32.177,963.914319
24 Sep 2023 16:05:00.000,149.055,19.333,1340.270697
15 Apr 2023 08:40:00.000,254.148,7.830,1999.990741
28 Sep 2023 10:54:00.000,68.494,14.391,1578.850501
15 Dec 2023 06:17:00.000,221.178,14.703,1551.229392
25 Oct 2023 01:16:00.000,292.481,13.577,1618.942706
12 Aug 2023 07:16:00.000,73.895,7.870,1999.999931
12 Jul 2023 21:48:00.000,77.186,38.355,853.053273
14 Sep 2023 13:06:00.000,120.257,11.740,1727.176039
18 Jan 2024 10:14:00.000,18.683,60.444,637.173691
12 Dec 2023 04:46:00.000,81.283,39.226,837.593829
27 Jun 2023 00:00:00.000,177.095,25.884,1114.299389
29 Jul 2023 14:29:00.000,82.713,23.551,1192.137629
09 Jul 2023 20:10:00.000,260.702,36.184,888.477133
25 Aug 2023 04:59:00.000,257.653,30.995,987.224356
10 May 2023 01:15:00.000,81.591,39.634,833.849071
15 Sep 2023 13:06:00.000,91.489,7.852,1999.995022
25 Aug 2023 23:51:00.000,252.238,7.773,1999.978267
28 Jan 2024 11:25:00.000,234.632,12.970,1649.644067
07 Jun 2023 10:43:00.000,268.972,7.864,1999.991987
15 Jun 2023 08:48:00.000,296.366,21.372,1267.140988
09 Aug 2023 07:14:00.000,258.554,13.700,1611.669177
23 Jul 2023 16:16:00.000,285.741,7.904,1999.990743
04 Aug 2023 07:29:00.000,146.472,26.691,1093.419501
07 Mar 2024 18:23:00.000,242.049,14.739,1549.996515
17 Sep 2023 19:41:00.000,212.915,22.496,1221.324658
14 Sep 2023 16:25:00.000,316.773,50.717,707.960708
23 Nov 2023 12:23:00.000,89.637,7.836,1999.976270
16 Jun 2023 07:03:00.000,270.870,7.835,1999.991839
08 Jan 2024 14:06:00.000,68.054,15.820,1502.025381
19 Jan 2024 15:14:00.000,203.740,12.647,1666.184413
04 Jul 2023 20:26:00.000,92.670,11.482,1744.907597
15 Dec 2023 01:18:00.000,61.433,23.458,1190.310216
07 Jun 2023 09:11:00.000,77.419,14.414,1578.175122
16 Apr 2023 08:44:00.000,53.080,39.613,836.447625
19 Mar 2024 07:41:00.000,255.532,13.594,1614.241115
02 Oct 2023 05:42:00.000,99.378,8.260,1965.447581
04 Feb 2024 04:28:00.000,78.154,8.144,1973.970251
29 Apr 2023 01:31:00.000,216.615,13.283,1632.167376
30 Sep 2023 09:07:00.000,64.209,25.123,1142.314669
01 May 2023 06:37:00.000,139.267,12.922,1653.772357
15 Feb 2024 00:34:00.000,79.302,22.958,1204.595501
10 Mar 2024 13:15:00.000,54.095,33.388,938.706122
02 Nov 2023 19:52:00.000,287.747,21.263,1268.005415
14 Nov 2023 17:39:00.000,286.799,7.859,1999.980038
22 Nov 2023 08:59:00.000,127.146,41.048,812.420180
06 Dec 2023 03:24:00.000,74.630,8.230,1968.662536
27 Feb 2024 22:15:00.000,179.416,10.038,1825.773195
07 May 2023 01:15:00.000,287.623,13.484,1627.924166
01 Sep 2023 23:39:00.000,334.908,51.153,702.531049
10 May 2023 21:52:00.000,66.243,25.584,1129.100027
18 Feb 2024 19:18:00.000,126.917,46.474,744.047908
02 May 2023 04:48:00.000,294.115,22.156,1238.029817
22 Mar 2024 11:00:00.000,144.501,20.698,1283.865215
30 Sep 2023 07:22:00.000,199.878,19.659,1325.280190
06 Nov 2023 14:46:00.000,92.691,7.821,1999.992972
23 May 2023 18:01:00.000,333.685,46.172,754.337564
02 Oct 2023 09:01:00.000,49.327,35.570,900.223438
06 Feb 2024 07:40:00.000,203.712,12.499,1673.389965
15 May 2023 23:22:00.000,112.363,42.506,794.309202
25 Dec 2023 23:10:00.000,102.249,7.739,1999.990320
16 Sep 2023 19:47:00.000,150.232,9.862,1844.602227
22 Sep 2023 17:49:00.000,192.160,15.569,1509.255729
26 Mar 2024 05:42:00.000,319.371,49.260,718.280037
16 Mar 2024 13:01:00.000,119.662,7.737,1999.976587
02 Aug 2023 12:36:00.000,335.985,50.385,711.870486
09 Jul 2023 21:53:00.000,23.412,46.831,745.154706
04 Nov 2023 23:10:00.000,231.115,19.619,1325.891429
15 Aug 2023 02:04:00.000,117.551,10.461,1806.044345
18 Mar 2024 11:14:00.000,98.060,9.013,1908.261251
19 Dec 2023 02:45:00.000,262.100,60.065,636.958618
09 Mar 2024 09:57:00.000,118.402,18.958,1354.454402
23 Oct 2023 23:46:00.000,71.312,7.816,1999.990709
29 Jun 2023 22:18:00.000,91.330,7.820,1999.992198
24 Nov 2023 13:53:00.000,278.710,13.435,1629.326063
22 Jan 2024 08:22:00.000,23.126,64.963,613.822819
19 Jan 2024 13:30:00.000,280.571,21.927,1244.206522
14 Feb 2024 02:18:00.000,116.913,15.555,1507.135772
25 Mar 2024 09:06:00.000,280.155,35.861,891.845122
24 Feb 2024 17:22:00.000,72.570,15.539,1512.581946
29 Nov 2023 08:37:00.000,283.186,13.483,1625.499632
10 Jul 2023 23:34:00.000,117.069,25.476,1127.840980
04 Sep 2023 18:33:00.000,88.582,18.885,1361.410425
19 Sep 2023 11:09:00.000,185.858,7.739,1999.988490
14 Jan 2024 10:22:00.000,217.719,21.185,1267.068084
25 May 2023 19:34:00.000,287.096,7.917,1999.969744
13 Apr 2023 15:32:00.000,201.419,10.831,1785.497170
11 Jan 2024 12:14:00.000,108.243,69.101,596.837260
25 Aug 2023 22:20:00.000,83.937,7.814,1999.987376
14 Feb 2024 00:35:00.000,59.710,34.087,922.799596
14 Aug 2023 07:11:00.000,81.991,8.295,1966.409953
03 Dec 2023 06:48:00.000,298.554,32.582,954.975069
14 Jan 2024 15:30:00.000,125.207,24.630,1151.800659
25 Sep 2023 09:17:00.000,148.804,28.146,1055.074389
21 Sep 2023 14:32:00.000,74.855,14.072,1595.623208
27 Aug 2023 20:30:00.000,141.898,11.012,1768.140682
31 Jul 2023 14:21:00.000,304.935,62.178,629.492150
05 Feb 2024 02:43:00.000,62.355,24.266,1164.191284
10 Sep 2023 19:59:00.000,71.481,37.077,873.144516
02 Nov 2023 21:37:00.000,82.228,39.687,830.955746
03 Apr 2023 14:12:00.000,66.823,15.544,1522.837090
21 Feb 2024 19:07:00.000,262.552,35.803,891.010443
28 Feb 2024 17:12:00.000,71.811,7.798,1999.976810
04 Oct 2023 08:52:00.000,292.872,21.232,1270.830903
24 Mar 2024 04:13:00.000,79.908,7.794,1999.979691
23 Aug 2023 23:56:00.000,233.528,7.739,1999.991604
05 May 2023 03:00:00.000,292.482,13.595,1621.669194
26 Jul 2023 12:49:00.000,250.832,22.315,1231.937265
09 Sep 2023 14:58:00.000,136.574,10.076,1833.283556
02 Mar 2024 13:38:00.000,127.195,39.220,836.746525
10 Jul 2023 01:14:00.000,217.638,28.536,1044.069043
16 Dec 2023 01:16:00.000,68.533,14.281,1579.079420
28 Jan 2024 09:44:00.000,271.820,34.600,915.012702
19 Jul 2023 18:14:00.000,83.692,8.364,1962.162903
16 Jul 2023 21:34:00.000,281.764,13.577,1622.401791
24 May 2023 16:16:00.000,267.850,22.019,1244.710274
28 Dec 2023 21:16:00.000,334.425,51.695,696.659311
22 Mar 2024 05:56:00.000,81.623,40.917,813.224157
01 Apr 2023 17:39:00.000,97.131,9.102,1909.925601
29 May 2023 12:49:00.000,97.011,33.254,944.638580
19 Sep 2023 11:10:00.000,175.633,11.312,1750.270515
13 Feb 2024 03:56:00.000,258.173,18.394,1376.665605
08 Apr 2023 17:21:00.000,224.035,16.154,1486.377633
18 Feb 2024 00:23:00.000,112.760,74.737,577.246818
10 May 2023 01:13:00.000,326.631,56.255,664.202999
11 Sep 2023 18:12:00.000,300.529,32.669,955.196425
06 Dec 2023 06:40:00.000,308.242,33.321,940.258909
07 Aug 2023 07:18:00.000,239.256,7.770,1999.990988
17 Jul 2023 18:15:00.000,51.255,33.708,935.650079
24 Aug 2023 01:37:00.000,270.419,7.802,1999.992173
19 Jan 2024 15:16:00.000,181.678,7.694,1999.997045
05 Apr 2023 10:46:00.000,114.909,15.312,1529.208278
05 Jun 2023 10:51:00.000,270.424,61.825,631.150327
05 Jul 2023 01:29:00.000,98.772,15.495,1515.835123
09 Sep 2023 20:00:00.000,30.576,49.807,715.338341
26 Jan 2024 09:54:00.000,104.679,25.403,1130.087001
01 Jun 2023 12:46:00.000,69.588,7.929,1999.975344
21 Aug 2023 01:44:00.000,246.940,7.758,1999.999968
15 Jul 2023 23:22:00.000,191.519,13.075,1641.969455
04 Dec 2023 08:32:00.000,104.674,9.281,1889.985367
13 Oct 2023 05:16:00.000,78.593,7.832,1999.976179
09 Jul 2023 20:12:00.000,36.311,71.069,591.356862
05 Apr 2023 12:23:00.000,234.526,36.186,890.070788
14 Aug 2023 10:28:00.000,211.484,20.713,1286.314276
16 Jul 2023 21:42:00.000,131.242,7.756,1999.983004
19 Apr 2023 10:19:00.000,92.189,41.518,809.121821
27 Feb 2024 17:15:00.000,69.737,8.810,1924.298833
07 Mar 2024 13:26:00.000,66.767,14.977,1543.722429
15 Apr 2023 07:08:00.000,84.202,9.150,1905.652546
08 Sep 2023 16:37:00.000,210.360,13.017,1647.804214
19 Sep 2023 16:18:00.000,89.660,14.961,1546.114994
26 Sep 2023 10:56:00.000,53.944,39.685,834.459791
24 Apr 2023 03:29:00.000,80.679,7.859,1999.991943
18 Jul 2023 16:29:00.000,264.695,35.831,895.806059
05 Aug 2023 10:44:00.000,285.228,7.880,1999.988890
21 Jun 2023 05:14:00.000,284.130,21.340,1266.050314
05 Mar 2024 16:55:00.000,102.804,7.744,1999.990246
22 Apr 2023 08:33:00.000,73.369,37.473,868.558345
02 Nov 2023 21:40:00.000,98.312,7.769,1999.990294
24 Apr 2023 05:03:00.000,260.863,22.036,1240.360436
14 Jan 2024 12:04:00.000,282.768,34.287,921.879339
17 Sep 2023 16:15:00.000,285.191,7.883,1999.983381
11 Nov 2023 19:28:00.000,281.647,7.839,1999.982624
04 Apr 2023 15:53:00.000,88.244,7.912,1999.979316
27 Nov 2023 12:12:00.000,122.076,7.775,1999.977642
01 Sep 2023 20:23:00.000,72.908,7.843,1999.990122
25 Feb 2024 18:52:00.000,280.826,7.791,1999.991221
19 Sep 2023 14:31:00.000,283.049,21.466,1263.321385
01 Dec 2023 10:15:00.000,282.018,36.123,889.024827
13 Dec 2023 23:38:00.000,127.009,37.131,867.990381
19 Jan 2024 10:06:00.000,269.892,7.810,1999.999357
27 Apr 2023 01:36:00.000,187.081,11.993,1706.806241
12 Nov 2023 17:52:00.000,106.102,15.786,1500.329538
11 Feb 2024 05:43:00.000,240.413,9.902,1840.706485
31 Dec 2023 17:46:00.000,299.537,55.849,665.093681
18 Jul 2023 18:12:00.000,24.331,47.004,744.427958
13 Mar 2024 11:23:00.000,324.992,47.721,734.491425
26 May 2023 19:40:00.000,138.794,13.058,1647.636151
12 Sep 2023 18:16:00.000,78.329,7.850,1999.999880
11 Aug 2023 10:39:00.000,131.280,14.411,1572.199387
06 Dec 2023 05:05:00.000,70.056,8.782,1928.973677
01 Sep 2023 20:16:00.000,229.544,21.853,1244.031483
08 Jul 2023 23:37:00.000,48.206,61.867,629.468447
22 Oct 2023 20:25:00.000,117.415,7.739,1999.997557
03 Apr 2023 14:06:00.000,267.665,21.972,1247.170866
25 Jun 2023 01:42:00.000,237.000,7.759,1999.991087
10 Dec 2023 04:54:00.000,80.560,14.182,1584.863934
17 Jul 2023 19:57:00.000,93.957,24.951,1146.015001
12 Feb 2024 04:01:00.000,224.428,37.019,869.352863
01 Feb 2024 07:50:00.000,286.602,13.704,1611.691080
29 Dec 2023 21:18:00.000,98.165,9.010,1906.042260
11 Aug 2023 10:35:00.000,240.617,51.072,703.790177
18 May 2023 19:57:00.000,74.830,8.264,1971.682405
18 Oct 2023 22:12:00.000,167.574,7.676,1999.988186
26 Sep 2023 12:37:00.000,58.336,33.936,930.867069
19 Dec 2023 01:02:00.000,296.668,21.223,1267.478121
07 Mar 2024 15:04:00.000,31.041,49.670,715.148447
13 Nov 2023 16:05:00.000,336.170,47.101,742.134849
27 Jan 2024 09:53:00.000,116.128,9.254,1889.769620
18 Jun 2023 05:24:00.000,63.394,42.121,799.845572
03 Jul 2023 22:07:00.000,84.054,40.405,822.368013
10 May 2023 20:08:00.000,174.781,25.279,1134.524860
12 Feb 2024 03:57:00.000,281.548,7.777,1999.982508
04 Mar 2024 15:11:00.000,296.935,32.893,947.981871
05 Oct 2023 10:33:00.000,274.922,62.587,625.970983
23 Sep 2023 11:01:00.000,220.265,34.732,913.147099
23 Feb 2024 20:46:00.000,79.155,22.975,1204.014640
21 Jan 2024 08:20:00.000,251.204,7.765,1999.988738
18 Nov 2023 15:48:00.000,287.921,7.868,1999.988114
03 Mar 2024 15:20:00.000,70.843,7.813,1999.985903
13 Jan 2024 13:54:00.000,80.202,8.234,1969.162044
03 Jun 2023 12:40:00.000,67.415,14.688,1565.695236
19 Sep 2023 11:11:00.000,162.057,14.475,1566.700128
29 Sep 2023 09:02:00.000,249.763,7.792,1999.999975
23 Jun 2023 06:58:00.000,110.351,7.805,1999.976076
22 Apr 2023 03:29:00.000,145.299,16.135,1482.036341
28 Aug 2023 03:17:00.000,124.390,15.175,1528.884109
04 Apr 2023 15:50:00.000,66.204,35.868,897.928476
18 May 2023 16:30:00.000,162.489,21.635,1254.573182
05 May 2023 01:24:00.000,49.560,34.944,911.352200
12 Oct 2023 01:54:00.000,119.166,19.788,1319.991845
18 Oct 2023 23:56:00.000,84.045,22.038,1237.913048
16 Nov 2023 14:15:00.000,303.618,32.491,958.754694
12 Feb 2024 22:53:00.000,258.634,21.929,1238.497281
24 Jul 2023 11:18:00.000,105.700,7.844,1999.985760
19 Jan 2024 08:29:00.000,215.618,34.190,921.036545
03 Feb 2024 02:45:00.000,241.442,62.646,622.650151
15 Oct 2023 05:08:00.000,68.041,36.067,889.280414
30 Aug 2023 01:30:00.000,95.069,24.969,1142.747074
15 Nov 2023 16:05:00.000,95.396,8.901,1918.521480
15 Jul 2023 21:37:00.000,286.449,13.701,1615.871845
12 Jul 2023 20:10:00.000,72.647,8.434,1957.225849
16 Jul 2023 23:17:00.000,239.126,9.803,1852.233952
21 Aug 2023 01:46:00.000,246.417,22.087,1235.333476
23 Dec 2023 18:10:00.000,117.980,10.572,1796.792047
31 Jan 2024 07:54:00.000,289.916,22.158,1235.124817
06 Feb 2024 00:52:00.000,232.955,7.683,1999.992100
26 Dec 2023 19:37:00.000,260.139,13.587,1615.205096
01 Aug 2023 10:57:00.000,301.729,55.681,668.882210
28 May 2023 12:46:00.000,211.430,13.142,1643.341289
23 Jun 2023 05:17:00.000,79.953,7.852,1999.974451
04 Oct 2023 05:33:00.000,150.595,29.566,1018.609014
15 Jan 2024 10:23:00.000,87.110,39.441,835.719412
30 Apr 2023 03:14:00.000,16.126,53.645,683.307825
01 Oct 2023 10:44:00.000,30.085,49.559,718.508930
14 Aug 2023 05:30:00.000,69.671,7.865,1999.990066
06 Feb 2024 05:56:00.000,284.557,13.524,1620.372440
21 Sep 2023 14:24:00.000,283.694,7.882,1999.988842
23 Dec 2023 18:09:00.000,132.081,11.958,1707.295665
20 Feb 2024 01:55:00.000,240.607,9.906,1838.828616
21 Nov 2023 09:04:00.000,91.444,15.670,1508.903341
24 Dec 2023 02:35:00.000,179.603,7.653,1999.979058
01 Feb 2024 06:16:00.000,75.739,22.596,1219.545691
31 Aug 2023 01:24:00.000,292.704,36.193,887.023555
27 Feb 2024 20:29:00.000,284.214,21.974,1239.175467
18 Jan 2024 15:17:00.000,192.280,17.065,1435.332478
16 Feb 2024 21:03:00.000,260.792,62.569,622.798592
12 Aug 2023 08:52:00.000,327.339,56.210,664.580383
15 May 2023 23:17:00.000,289.738,13.791,1611.933353
01 Oct 2023 07:19:00.000,216.032,20.991,1274.470374
21 Apr 2023 10:13:00.000,255.232,58.018,652.963739
30 Nov 2023 05:12:00.000,213.300,7.696,1999.985412
25 Nov 2023 07:09:00.000,171.133,24.031,1169.414719
11 Aug 2023 10:31:00.000,286.101,7.874,1999.992921
21 Oct 2023 03:12:00.000,86.943,40.482,819.417245
04 Apr 2023 15:51:00.000,78.440,23.108,1209.186054
19 Jun 2023 07:01:00.000,336.384,46.799,745.663691
08 May 2023 02:59:00.000,127.748,41.316,808.970049
12 Sep 2023 19:52:00.000,304.606,62.397,626.809189
31 Jan 2024 02:53:00.000,186.806,28.306,1046.399508
06 Feb 2024 04:18:00.000,335.324,49.887,712.450422
14 Dec 2023 03:03:00.000,81.825,8.242,1965.967932
29 Dec 2023 21:11:00.000,295.855,21.892,1243.874538
27 Jul 2023 16:11:00.000,293.306,62.992,625.197843
14 Oct 2023 05:12:00.000,79.411,14.197,1585.198444
05 Feb 2024 04:23:00.000,59.790,34.087,923.991616
29 Nov 2023 10:24:00.000,94.714,25.000,1143.635195
23 Aug 2023 03:27:00.000,72.901,22.215,1233.766283
11 Aug 2023 07:14:00.000,17.122,51.734,698.726178
28 Feb 2024 17:11:00.000,67.846,14.421,1571.369578
03 Feb 2024 07:50:00.000,164.981,26.494,1095.824177
23 Apr 2023 05:12:00.000,70.283,7.886,1999.975414
05 Jan 2024 14:14:00.000,85.338,21.270,1267.046942
02 Nov 2023 23:13:00.000,277.314,13.217,1638.340966
07 Apr 2023 15:38:00.000,289.705,7.943,1999.969575
13 Apr 2023 13:55:00.000,128.362,8.429,1955.212217
22 Dec 2023 21:30:00.000,267.800,21.742,1247.228742
15 Jun 2023 10:28:00.000,288.025,13.826,1609.853640
31 Jan 2024 04:34:00.000,290.841,58.026,649.835075
03 May 2023 22:05:00.000,113.512,8.685,1933.712016
30 Jul 2023 12:41:00.000,300.308,32.670,956.651496
15 Jun 2023 08:50:00.000,336.608,47.461,739.411596
15 Oct 2023 03:30:00.000,70.659,8.617,1940.895139
08 Feb 2024 00:51:00.000,51.688,73.807,580.150892
22 Sep 2023 16:08:00.000,153.820,69.172,597.397235
12 May 2023 20:08:00.000,77.018,14.490,1573.381743
15 Jun 2023 08:55:00.000,83.707,7.876,1999.986876
23 Apr 2023 03:27:00.000,141.164,23.220,1197.696416
26 Feb 2024 17:16:00.000,63.731,24.872,1145.593869
10 Apr 2023 15:41:00.000,142.760,7.818,1999.990624
12 Apr 2023 10:32:00.000,51.572,38.522,853.627616
13 Oct 2023 03:29:00.000,263.662,35.926,890.303977
01 Oct 2023 14:03:00.000,242.981,15.084,1537.625157
09 Jun 2023 10:42:00.000,302.900,32.502,960.163138
11 Jun 2023 07:22:00.000,78.908,13.606,1621.396917
04 Jul 2023 01:26:00.000,306.149,34.295,922.438829
29 Sep 2023 07:30:00.000,92.629,11.949,1715.956147
27 May 2023 19:34:00.000,220.669,32.416,959.500151
19 Jul 2023 19:48:00.000,286.205,22.278,1234.632028
10 Jul 2023 01:12:00.000,259.431,18.739,1366.288503
06 Feb 2024 02:33:00.000,270.034,7.755,1999.984978
08 Feb 2024 04:12:00.000,315.953,59.874,638.499495
03 Dec 2023 08:27:00.000,292.489,13.591,1619.992076
07 Nov 2023 21:27:00.000,146.014,7.694,1999.989942
28 Jan 2024 09:46:00.000,176.156,57.027,656.541903
23 Feb 2024 20:41:00.000,297.268,21.419,1259.779828
04 Apr 2023 10:47:00.000,132.133,12.143,1704.211671
29 Feb 2024 13:44:00.000,138.538,21.674,1247.978081
01 Mar 2024 15:22:00.000,60.394,41.839,801.391210
06 Jun 2023 09:05:00.000,220.377,7.771,1999.970746
16 Mar 2024 13:00:00.000,121.401,15.410,1516.603591
14 Aug 2023 08:45:00.000,288.134,22.345,1230.986353
09 Sep 2023 20:04:00.000,85.552,7.824,1999.984897
16 Mar 2024 07:54:00.000,127.170,45.161,759.933854
20 Nov 2023 15:52:00.000,142.035,7.735,1999.991246
22 Sep 2023 12:45:00.000,305.022,54.674,675.945237
01 Feb 2024 07:58:00.000,120.933,8.933,1911.379577
25 Mar 2024 02:26:00.000,134.081,9.571,1861.179164
18 Dec 2023 01:08:00.000,24.916,47.096,739.615662
07 Jun 2023 07:28:00.000,131.465,11.855,1719.010374
29 Feb 2024 20:27:00.000,188.845,35.794,889.147844
13 Jul 2023 21:47:00.000,98.390,25.224,1136.855544
08 May 2023 23:29:00.000,271.757,7.857,1999.982622
22 Dec 2023 19:47:00.000,220.998,7.699,1999.976986
09 Jul 2023 18:29:00.000,192.316,18.804,1362.243575
01 Dec 2023 06:59:00.000,69.902,7.854,1999.970773
23 Jun 2023 05:14:00.000,56.014,33.655,935.069822
01 Dec 2023 08:31:00.000,286.966,7.841,1999.985887
23 May 2023 16:26:00.000,69.709,7.923,1999.994727
08 Oct 2023 08:50:00.000,102.679,9.281,1891.388194
17 Mar 2024 11:14:00.000,70.848,36.855,875.700852
25 Feb 2024 22:21:00.000,156.976,15.886,1487.274877
07 Dec 2023 03:15:00.000,236.334,21.949,1238.078505
24 Dec 2023 21:22:00.000,275.244,7.787,1999.989564
22 Jun 2023 08:37:00.000,190.570,31.818,969.767512
15 May 2023 19:57:00.000,270.790,35.462,902.647615
18 Aug 2023 07:01:00.000,110.656,15.873,1496.877541
18 Jul 2023 16:27:00.000,257.810,13.679,1616.013484
08 Mar 2024 16:45:00.000,133.290,14.029,1586.663718
13 Apr 2023 10:33:00.000,70.979,8.664,1944.560715
31 Oct 2023 21:42:00.000,61.934,34.646,914.185536
26 Jan 2024 04:48:00.000,177.431,25.905,1111.451504
13 May 2023 20:01:00.000,235.221,36.170,889.102646
07 Apr 2023 17:22:00.000,235.150,21.733,1253.734857
15 Feb 2024 19:24:00.000,181.924,11.631,1723.264253
04 Oct 2023 12:19:00.000,160.876,14.009,1591.579938
20 Jun 2023 03:36:00.000,211.269,33.457,935.607714
05 Apr 2023 12:27:00.000,75.056,25.168,1143.983177
14 Oct 2023 03:23:00.000,263.669,7.775,1999.981797
05 Oct 2023 08:51:00.000,307.891,32.703,954.183555
06 Dec 2023 05:01:00.000,15.981,54.868,672.422140
11 Jan 2024 15:40:00.000,94.897,8.934,1914.618130
30 Mar 2024 02:13:00.000,77.542,14.242,1579.301234
22 Dec 2023 21:28:00.000,262.115,7.761,1999.990922
16 Dec 2023 04:39:00.000,133.708,7.709,1999.981043
15 Aug 2023 03:45:00.000,82.665,22.662,1218.210651
31 Jul 2023 12:40:00.000,334.097,46.115,754.310869
22 Jan 2024 06:45:00.000,82.563,11.165,1764.200560
16 Feb 2024 02:07:00.000,258.822,31.295,977.877713
30 Mar 2024 05:31:00.000,336.260,49.331,717.564822
12 Sep 2023 16:31:00.000,32.464,69.948,595.206200
25 May 2023 19:41:00.000,131.428,23.830,1180.328535
23 Nov 2023 14:03:00.000,126.846,8.494,1945.012395
13 Apr 2023 07:10:00.000,109.709,10.787,1789.968987
22 Jun 2023 03:34:00.000,61.663,74.899,579.532193
12 Dec 2023 03:01:00.000,281.109,13.383,1627.926390
05 Sep 2023 18:27:00.000,213.094,33.697,931.710611
04 Aug 2023 10:46:00.000,281.287,7.874,1999.990522
11 Jan 2024 12:12:00.000,235.195,35.989,889.695296
03 Aug 2023 07:33:00.000,116.076,16.226,1480.279368
17 Dec 2023 23:31:00.000,69.212,9.161,1899.073602
23 Oct 2023 04:46:00.000,227.871,17.895,1398.141047
26 May 2023 17:54:00.000,305.322,34.773,916.875406
17 Mar 2024 11:11:00.000,307.117,33.962,927.789200
25 Dec 2023 02:30:00.000,206.289,8.317,1950.379266
04 Nov 2023 19:54:00.000,82.307,8.247,1966.627123
26 Jul 2023 11:13:00.000,104.088,17.389,1428.394354
30 Apr 2023 04:57:00.000,78.834,23.021,1207.911807
20 Aug 2023 08:35:00.000,199.413,9.334,1881.440301
25 May 2023 18:01:00.000,84.414,14.633,1566.313168
17 Mar 2024 06:09:00.000,157.546,13.656,1606.514355
18 Feb 2024 02:01:00.000,253.063,17.235,1426.950664
05 Dec 2023 05:06:00.000,63.025,24.584,1156.114769
28 Oct 2023 18:29:00.000,114.186,14.365,1572.344528
13 Feb 2024 21:16:00.000,80.750,12.429,1681.771132
31 Mar 2024 07:08:00.000,232.370,44.788,763.389566
10 Sep 2023 14:58:00.000,99.796,8.766,1929.830979
12 Jul 2023 21:50:00.000,92.207,15.106,1537.276906
29 Jan 2024 02:58:00.000,182.004,11.618,1724.657278
20 Sep 2023 12:51:00.000,70.362,42.515,795.618074
11 Mar 2024 14:54:00.000,117.316,25.261,1132.119359
23 Feb 2024 17:26:00.000,73.935,8.436,1951.082778
27 Jun 2023 05:09:00.000,106.961,9.349,1885.366106
27 Apr 2023 06:43:00.000,91.057,24.520,1159.608375
15 Jun 2023 12:10:00.000,259.170,11.864,1722.586835
22 Dec 2023 23:18:00.000,82.132,8.251,1964.021341
05 Apr 2023 17:25:00.000,273.031,21.079,1280.147542
10 Apr 2023 10:37:00.000,70.264,25.781,1125.450566
24 Nov 2023 12:17:00.000,79.061,38.963,843.822677
05 Dec 2023 08:30:00.000,113.583,9.307,1886.857380
23 Jan 2024 06:37:00.000,205.931,32.461,954.025689
19 May 2023 21:36:00.000,108.710,9.341,1887.568262
20 May 2023 14:47:00.000,129.980,8.979,1913.894334
16 Oct 2023 01:44:00.000,73.805,25.209,1136.126033
31 Oct 2023 20:03:00.000,66.710,15.108,1537.153569
13 Aug 2023 07:09:00.000,333.668,46.101,752.753255
02 Jul 2023 22:03:00.000,229.489,7.765,1999.992046
03 Jan 2024 19:21:00.000,90.968,40.903,813.172523
06 Jan 2024 15:51:00.000,49.419,35.308,903.212792
08 Dec 2023 04:51:00.000,279.775,7.799,1999.992847
02 May 2023 03:07:00.000,291.100,21.174,1273.276433
27 Dec 2023 22:56:00.000,287.047,13.620,1615.029847
28 Jan 2024 11:29:00.000,181.977,7.700,1999.995555
06 Sep 2023 23:30:00.000,157.476,31.371,977.211376
24 Jan 2024 09:56:00.000,306.742,33.989,927.829722
20 Sep 2023 17:54:00.000,166.632,25.470,1127.354130
03 Apr 2023 12:24:00.000,220.775,7.812,1999.981588
28 Nov 2023 08:46:00.000,62.065,22.608,1221.998291
07 Jun 2023 12:30:00.000,33.046,51.631,701.459168
03 Sep 2023 20:10:00.000,254.847,13.687,1612.106169
27 Sep 2023 14:13:00.000,274.635,35.082,908.627916
13 May 2023 18:25:00.000,102.097,11.850,1723.614250
07 Dec 2023 03:22:00.000,72.047,9.093,1905.284909
24 Jun 2023 06:56:00.000,119.894,9.106,1901.980884
11 Nov 2023 17:49:00.000,295.669,21.961,1244.285989
14 Feb 2024 22:48:00.000,278.253,21.529,1254.098754
21 Jul 2023 19:43:00.000,278.225,13.354,1635.601028
19 Dec 2023 02:49:00.000,120.674,15.394,1516.005845
14 Jun 2023 05:35:00.000,83.734,9.918,1849.853585
03 Mar 2024 20:16:00.000,235.246,13.069,1640.260552
03 Aug 2023 10:56:00.000,62.667,22.500,1228.104872
21 Jun 2023 05:21:00.000,72.560,7.868,1999.986494
30 Jun 2023 03:19:00.000,88.619,24.164,1168.975664
17 Jun 2023 05:28:00.000,71.879,15.840,1502.618854
05 Nov 2023 16:23:00.000,224.236,21.597,1253.094179
05 Dec 2023 03:21:00.000,191.016,29.322,1022.373543
26 Apr 2023 03:17:00.000,233.520,13.559,1617.752153
24 Jun 2023 05:13:00.000,75.044,22.506,1224.934451
01 Aug 2023 12:42:00.000,79.072,14.186,1590.348365
24 Apr 2023 06:48:00.000,55.287,33.582,937.684441
11 Jan 2024 10:37:00.000,92.296,7.815,1999.986206
16 Nov 2023 17:43:00.000,147.267,7.718,1999.981151
31 Jan 2024 02:58:00.000,82.497,11.152,1762.829671
03 May 2023 04:46:00.000,289.643,22.315,1232.201780
22 Feb 2024 22:28:00.000,144.915,71.950,584.802590
21 Sep 2023 17:48:00.000,256.442,18.095,1395.329951
12 Sep 2023 18:14:00.000,67.405,22.014,1242.824428
20 May 2023 19:50:00.000,61.217,34.513,920.689595
07 Apr 2023 12:17:00.000,261.287,13.771,1612.673586
31 Mar 2024 07:11:00.000,143.751,20.951,1273.376349
21 Jun 2023 05:21:00.000,72.226,8.448,1956.111277
21 Dec 2023 02:38:00.000,269.354,20.412,1296.144918
27 Mar 2024 08:59:00.000,269.496,20.488,1294.479355
08 Oct 2023 03:45:00.000,104.280,18.212,1387.302015
26 Jan 2024 09:47:00.000,290.195,7.841,1999.999957
09 Dec 2023 03:07:00.000,257.514,7.748,1999.981544
07 Feb 2024 00:55:00.000,79.561,41.267,807.364497
16 Jul 2023 16:40:00.000,72.168,7.894,1999.997784
17 Jan 2024 08:39:00.000,91.625,15.066,1538.447476
01 Jan 2024 19:29:00.000,88.420,7.777,1999.976863
03 Apr 2023 17:35:00.000,114.740,9.374,1888.251620
19 Dec 2023 23:17:00.000,272.132,7.772,1999.991383
29 Nov 2023 07:03:00.000,70.116,15.889,1498.893509
16 Mar 2024 11:14:00.000,308.305,33.009,946.498531
12 Dec 2023 06:30:00.000,138.742,7.717,1999.977922
13 Jul 2023 21:48:00.000,101.185,15.696,1506.533709
18 Jun 2023 07:04:00.000,22.246,46.964,744.063292
11 Nov 2023 16:14:00.000,70.305,14.126,1590.921286
21 Feb 2024 19:13:00.000,69.343,9.276,1889.812952
13 Apr 2023 10:26:00.000,280.263,21.553,1261.290975
08 Jan 2024 14:03:00.000,33.300,70.580,591.970285
13 Dec 2023 04:43:00.000,72.218,70.881,589.754065
03 Sep 2023 20:09:00.000,253.885,7.800,1999.985139
28 Nov 2023 08:43:00.000,323.033,48.486,727.668300
27 Jun 2023 00:02:00.000,124.070,28.095,1055.906606
03 Feb 2024 04:30:00.000,70.387,14.083,1590.392951
31 Aug 2023 20:20:00.000,171.613,43.480,780.191498
27 Apr 2023 06:40:00.000,327.086,56.542,662.466971
11 Nov 2023 14:34:00.000,70.548,9.412,1885.714838
04 Jun 2023 10:59:00.000,70.873,7.921,1999.976965
12 Mar 2024 13:13:00.000,88.430,7.794,1999.977923
28 Jun 2023 03:24:00.000,72.675,22.282,1232.285284
21 Oct 2023 03:14:00.000,98.337,15.510,1513.374301
22 Nov 2023 14:06:00.000,117.099,9.211,1894.147582
07 Dec 2023 04:58:00.000,17.663,49.667,715.389432
20 May 2023 18:05:00.000,271.293,21.823,1251.576130
07 Sep 2023 20:04:00.000,331.501,46.201,751.496204
23 Mar 2024 07:36:00.000,71.572,14.014,1594.815063
28 Apr 2023 04:58:00.000,23.347,46.841,745.280063
24 May 2023 16:14:00.000,262.114,7.879,1999.990909
15 Dec 2023 21:51:00.000,148.689,17.088,1432.106566
13 Apr 2023 13:52:00.000,147.939,35.923,894.256364
28 Feb 2024 15:25:00.000,225.640,35.046,904.469879
11 Feb 2024 02:21:00.000,297.196,21.610,1252.619885
17 Feb 2024 00:23:00.000,294.148,21.935,1240.452039
25 Nov 2023 10:36:00.000,76.602,8.222,1972.353716
09 Apr 2023 10:38:00.000,85.461,40.105,829.398262
07 Nov 2023 17:58:00.000,284.415,13.467,1627.143072
30 Apr 2023 06:31:00.000,284.798,13.701,1615.149082
31 Jul 2023 14:26:00.000,106.913,9.394,1885.413502
21 Oct 2023 03:07:00.000,292.192,13.625,1616.279978
09 Sep 2023 18:23:00.000,69.697,8.871,1924.573787
23 Sep 2023 17:42:00.000,256.739,7.824,1999.984819
27 May 2023 16:14:00.000,52.348,33.571,939.894435
23 Feb 2024 20:48:00.000,88.841,7.750,1999.979107
09 Jan 2024 17:17:00.000,289.092,7.842,1999.990866
20 Jul 2023 19:53:00.000,127.578,8.434,1950.163495
15 Jul 2023 16:42:00.000,75.148,8.048,1987.780260
13 Jun 2023 10:38:00.000,93.339,24.838,1151.028932
25 Nov 2023 13:55:00.000,170.967,22.035,1236.846692
22 Sep 2023 09:25:00.000,129.326,8.806,1923.118291
19 Jun 2023 03:36:00.000,219.558,7.734,1999.978251
18 Apr 2023 13:41:00.000,216.620,8.869,1920.612925
12 Feb 2024 22:56:00.000,31.422,70.099,591.382753
02 May 2023 04:55:00.000,103.338,7.815,1999.997051
06 Sep 2023 23:25:00.000,280.182,13.420,1628.563315
17 Jul 2023 16:38:00.000,70.358,7.898,1999.976393
11 Sep 2023 19:50:00.000,290.385,7.874,1999.981587
03 Apr 2023 15:46:00.000,285.994,7.939,1999.984798
14 Sep 2023 19:44:00.000,284.388,13.628,1619.039840
28 Apr 2023 01:41:00.000,82.512,7.850,1999.979294
15 May 2023 01:07:00.000,146.917,7.740,1999.975749
18 Dec 2023 04:25:00.000,274.381,7.779,1999.985052
21 May 2023 16:28:00.000,75.651,15.092,1543.525146
17 Dec 2023 21:50:00.000,80.026,7.784,1999.979212
31 Aug 2023 20:16:00.000,225.111,7.748,1999.999025
06 Jan 2024 14:13:00.000,72.770,8.893,1921.116066
13 Nov 2023 12:48:00.000,77.052,7.859,1999.990621
09 May 2023 20:14:00.000,89.403,7.858,1999.991091
11 Apr 2023 08:50:00.000,197.262,19.427,1337.480421
17 Jul 2023 18:09:00.000,279.062,7.885,1999.982591
28 Aug 2023 22:10:00.000,84.329,40.375,821.815306
20 Nov 2023 10:48:00.000,70.412,15.874,1500.939194
16 Feb 2024 19:27:00.000,84.601,7.761,1999.999782
14 Apr 2023 08:51:00.000,70.777,7.917,1999.972065
21 Aug 2023 03:33:00.000,70.357,14.120,1590.342369
25 Jan 2024 09:50:00.000,290.389,7.842,1999.982510
23 Jun 2023 05:15:00.000,69.099,22.060,1240.905429
01 Aug 2023 16:03:00.000,166.210,7.758,1999.987353
25 Sep 2023 14:17:00.000,293.260,22.147,1239.500678
17 Jul 2023 19:56:00.000,85.644,40.484,822.074038
26 Feb 2024 17:17:00.000,67.189,15.520,1514.096589
30 Jul 2023 12:38:00.000,278.329,7.882,1999.982672
02 Oct 2023 07:20:00.000,88.178,38.634,848.245975
04 Apr 2023 10:49:00.000,104.325,7.873,1999.983373
16 Feb 2024 00:26:00.000,296.605,21.688,1249.433457
27 Aug 2023 01:36:00.000,57.484,33.803,930.751863
19 Jul 2023 19:50:00.000,267.437,61.365,632.780188
07 Feb 2024 02:36:00.000,49.724,34.409,917.624039
05 Feb 2024 00:56:00.000,218.116,13.161,1633.051385
02 Aug 2023 07:37:00.000,107.521,9.250,1893.999900
26 Oct 2023 23:35:00.000,27.537,47.700,734.078937
15 Aug 2023 03:38:00.000,231.413,7.735,1999.991146
02 Sep 2023 18:33:00.000,186.550,11.985,1707.063907
11 Oct 2023 01:55:00.000,143.578,15.575,1506.368657
24 Jul 2023 14:33:00.000,271.561,13.586,1622.807753
17 Apr 2023 11:59:00.000,284.885,13.672,1619.805247
06 Apr 2023 12:22:00.000,259.841,63.132,625.168186
21 Jul 2023 13:03:00.000,135.238,19.814,1323.387069
06 Nov 2023 19:49:00.000,94.624,8.841,1921.010381
07 Apr 2023 12:25:00.000,69.571,7.943,1999.983247
10 Oct 2023 07:01:00.000,63.229,34.941,910.193140
16 Oct 2023 08:25:00.000,224.946,8.385,1950.847128
07 Feb 2024 00:51:00.000,239.940,22.051,1233.183937
30 Apr 2023 06:33:00.000,272.487,34.909,911.052678
11 Jul 2023 23:28:00.000,272.612,34.878,911.042738
04 Aug 2023 09:10:00.000,47.462,73.746,583.607791
25 May 2023 16:21:00.000,70.334,8.738,1938.744154
30 Dec 2023 21:12:00.000,99.423,42.152,795.851991
27 Mar 2024 07:20:00.000,326.699,56.330,661.531865
15 Jun 2023 10:33:00.000,124.630,41.477,808.410926
07 Jul 2023 02:58:00.000,266.990,7.811,1999.988527
01 May 2023 06:34:00.000,186.525,42.260,796.420913
23 Feb 2024 20:45:00.000,67.018,35.825,891.043347
18 May 2023 21:38:00.000,100.462,7.832,1999.990319
27 Jul 2023 16:13:00.000,108.847,42.755,792.245556
01 Jul 2023 23:50:00.000,294.300,57.648,654.022740
31 Aug 2023 23:45:00.000,74.062,22.420,1226.262557
24 Aug 2023 03:20:00.000,297.266,21.473,1260.584365
05 Feb 2024 02:45:00.000,69.771,7.807,1999.983390
31 Aug 2023 23:38:00.000,287.115,7.841,1999.984218
26 Jun 2023 03:28:00.000,63.704,22.158,1237.258325
24 Apr 2023 10:07:00.000,238.732,23.278,1198.356008
13 Dec 2023 01:21:00.000,39.065,71.733,586.747643
23 Apr 2023 03:26:00.000,162.977,21.619,1251.938622
23 Jun 2023 08:37:00.000,164.235,11.788,1720.393732
01 Mar 2024 15:23:00.000,65.716,25.407,1130.267009
22 Sep 2023 16:07:00.000,266.250,61.241,633.380322
23 Mar 2024 09:12:00.000,300.025,35.529,898.382316
09 Feb 2024 02:30:00.000,57.020,33.465,935.369034
19 Jul 2023 14:47:00.000,199.344,31.241,983.714209
04 Apr 2023 14:06:00.000,287.442,34.062,930.586429
05 Jun 2023 14:18:00.000,105.187,9.328,1891.766935
08 Jan 2024 19:04:00.000,241.493,24.556,1153.485761
23 Feb 2024 19:03:00.000,16.658,53.128,684.486563
18 Jun 2023 08:49:00.000,104.842,7.832,1999.994879
27 Jan 2024 08:13:00.000,82.869,8.268,1966.054676
27 Jun 2023 22:19:00.000,147.025,7.732,1999.994376
03 Apr 2023 19:11:00.000,231.657,19.952,1320.154248
09 Jun 2023 14:09:00.000,148.669,10.403,1813.016710
24 Jan 2024 11:36:00.000,265.378,33.202,941.936618
04 Apr 2023 10:48:00.000,118.003,10.751,1793.666499
26 Jan 2024 04:52:00.000,91.566,15.122,1533.806655
22 Jan 2024 11:48:00.000,111.425,9.301,1887.275315
27 Feb 2024 15:34:00.000,75.335,7.895,1992.760769
03 Feb 2024 06:08:00.000,50.495,63.400,620.244742
06 Sep 2023 01:12:00.000,204.623,13.477,1617.594276
20 Nov 2023 10:42:00.000,247.482,22.273,1230.813460
25 Feb 2024 19:01:00.000,76.259,7.780,1999.980497
21 Mar 2024 12:39:00.000,250.237,10.938,1774.967014
16 Feb 2024 22:48:00.000,72.138,13.882,1598.947964
15 Mar 2024 09:35:00.000,263.066,21.903,1242.608187
27 Mar 2024 09:06:00.000,139.237,7.707,1999.991052
17 Apr 2023 05:19:00.000,147.825,12.079,1703.382174
28 Oct 2023 01:16:00.000,125.801,14.939,1539.448118
13 Sep 2023 14:45:00.000,210.753,20.657,1288.876527
03 Apr 2023 17:26:00.000,289.251,7.946,1999.980341
09 Jun 2023 07:23:00.000,144.214,25.231,1135.630802
13 Jul 2023 23:24:00.000,246.790,26.883,1088.820039
08 Nov 2023 14:34:00.000,210.739,13.001,1647.778389
27 Oct 2023 02:57:00.000,192.524,18.644,1364.021501
09 Apr 2023 17:20:00.000,210.909,10.232,1825.851781
22 Oct 2023 04:51:00.000,174.723,18.047,1390.202082
17 Sep 2023 16:20:00.000,26.756,47.463,739.163047
24 Jul 2023 17:59:00.000,172.610,60.439,637.697349
09 Jan 2024 18:59:00.000,269.863,7.796,1999.994841
18 Dec 2023 23:24:00.000,16.652,57.639,652.341097
04 Sep 2023 21:54:00.000,58.662,33.980,927.804096
24 Jun 2023 06:55:00.000,121.372,15.504,1514.926046
07 Mar 2024 18:26:00.000,191.761,13.765,1598.899348
02 Oct 2023 08:55:00.000,272.330,7.831,1999.990912
14 Sep 2023 21:31:00.000,182.715,7.700,1999.993470
31 Oct 2023 16:38:00.000,147.189,9.210,1890.120931
03 Oct 2023 12:20:00.000,188.728,36.890,875.106879
14 Aug 2023 07:05:00.000,307.762,32.658,954.890463
15 Oct 2023 08:30:00.000,189.989,9.455,1871.796924
20 Aug 2023 03:35:00.000,67.873,14.428,1573.945015
12 Dec 2023 23:41:00.000,123.301,26.209,1103.459786
01 Jul 2023 22:07:00.000,213.304,13.081,1643.202556
08 Aug 2023 05:39:00.000,163.147,21.747,1246.553502
09 Apr 2023 13:59:00.000,38.839,56.100,667.689283
21 Feb 2024 17:26:00.000,194.347,18.913,1352.138827
13 Jul 2023 18:19:00.000,251.730,13.751,1610.770453
17 Aug 2023 07:01:00.000,59.205,67.325,604.145529
01 Dec 2023 03:33:00.000,142.465,8.784,1918.793380
11 Feb 2024 04:04:00.000,236.603,48.159,727.116618
27 May 2023 12:52:00.000,144.984,25.765,1122.258766
10 Apr 2023 08:56:00.000,103.677,15.980,1495.742360
06 Apr 2023 10:46:00.000,84.837,7.910,1999.999783
20 Jan 2024 08:32:00.000,71.309,7.849,1999.990695
26 Jun 2023 00:03:00.000,159.287,20.522,1291.484943
13 Aug 2023 03:45:00.000,191.244,18.607,1367.250351
20 Apr 2023 11:53:00.000,264.572,12.382,1692.280735
26 Aug 2023 22:12:00.000,189.249,28.949,1032.874052
20 Aug 2023 00:07:00.000,183.256,7.689,1999.998233
13 Feb 2024 03:54:00.000,276.414,7.766,1999.986443
25 Sep 2023 12:38:00.000,333.274,46.108,753.722639
11 Jun 2023 12:22:00.000,132.641,40.343,824.389000
22 Mar 2024 04:11:00.000,189.501,7.651,1999.976710
22 Dec 2023 19:48:00.000,216.257,13.127,1636.991604
25 Aug 2023 01:44:00.000,73.338,7.832,1999.999992
23 Dec 2023 21:33:00.000,67.020,14.729,1554.977414
05 Oct 2023 08:57:00.000,82.749,7.854,1999.990332
04 Jun 2023 10:57:00.000,71.612,15.926,1501.465795
19 Jun 2023 08:45:00.000,114.678,25.609,1125.916886
07 Jul 2023 03:00:00.000,243.850,15.242,1527.064559
13 Nov 2023 14:21:00.000,265.416,13.616,1617.874037
26 Jun 2023 23:57:00.000,210.947,7.728,1999.987098
12 Jul 2023 16:47:00.000,102.015,11.788,1726.596233
15 Feb 2024 22:47:00.000,325.371,47.349,736.143810
12 Jul 2023 21:46:00.000,330.838,54.599,676.059844
16 Nov 2023 16:00:00.000,98.967,25.170,1138.037076
07 Mar 2024 18:28:00.000,172.599,7.650,1999.990092
17 Jan 2024 12:01:00.000,74.061,13.937,1600.644927
01 Nov 2023 21:41:00.000,82.062,23.386,1192.515281
17 Jun 2023 07:05:00.000,327.084,47.253,740.932197
24 Jun 2023 01:45:00.000,222.890,13.376,1625.939988
30 Jul 2023 16:09:00.000,140.649,7.780,1999.982152
27 May 2023 19:32:00.000,263.476,19.577,1335.943771
27 Jul 2023 11:12:00.000,90.514,16.968,1448.924257
17 Sep 2023 12:56:00.000,188.332,28.930,1035.893449
19 Nov 2023 10:45:00.000,233.887,21.983,1240.207230
22 Oct 2023 22:05:00.000,99.471,30.744,991.921566
11 Jun 2023 09:02:00.000,66.782,15.031,1546.151078
25 Mar 2024 04:04:00.000,202.944,31.924,963.414146
09 May 2023 21:52:00.000,75.165,42.316,797.905106
24 Mar 2024 07:26:00.000,288.162,13.460,1624.843054
02 Aug 2023 14:19:00.000,143.775,37.426,867.746809
25 Dec 2023 21:24:00.000,331.327,46.104,750.316685
16 Mar 2024 07:57:00.000,79.224,13.424,1627.417291
21 Feb 2024 20:45:00.000,282.975,7.783,1999.973489
26 Jul 2023 17:57:00.000,155.691,16.576,1461.873321
23 Mar 2024 09:18:00.000,102.069,7.773,1999.990360
12 Aug 2023 08:48:00.000,290.303,7.869,1999.999994
08 Aug 2023 07:20:00.000,248.516,62.907,623.908050
26 Jun 2023 05:11:00.000,98.572,9.080,1905.779353
18 May 2023 16:31:00.000,140.734,23.152,1202.960911
17 Feb 2024 02:10:00.000,146.792,7.660,1999.976332
23 Apr 2023 08:31:00.000,86.718,40.522,822.188478
25 Jun 2023 00:09:00.000,99.596,8.523,1945.420114
15 Mar 2024 11:23:00.000,80.160,7.816,1999.975295
18 Nov 2023 17:33:00.000,223.916,16.085,1483.985762
20 Feb 2024 19:08:00.000,246.748,13.612,1610.965035
23 Sep 2023 12:47:00.000,70.864,8.675,1940.978275
01 Feb 2024 07:51:00.000,283.975,22.109,1236.391898
13 Apr 2023 10:27:00.000,291.008,33.534,939.578658
28 Aug 2023 22:06:00.000,235.449,21.920,1241.272349
13 Nov 2023 17:47:00.000,145.616,71.784,587.689259
12 Oct 2023 08:31:00.000,281.361,7.835,1999.982590
01 Dec 2023 05:13:00.000,171.185,42.707,788.774321
19 Jan 2024 11:57:00.000,88.829,7.819,1999.979305
02 May 2023 06:32:00.000,191.137,29.829,1013.643913
14 Oct 2023 08:34:00.000,167.156,7.715,1999.986754
27 Aug 2023 03:20:00.000,112.754,9.305,1885.899714
26 Jun 2023 01:47:00.000,71.447,25.498,1129.461795
23 Nov 2023 15:37:00.000,246.793,10.625,1797.715888
27 Mar 2024 05:41:00.000,19.074,47.960,731.126693
16 Jan 2024 13:41:00.000,325.217,57.381,655.802179
13 Aug 2023 07:06:00.000,286.111,13.510,1624.889644
09 Mar 2024 11:39:00.000,70.909,15.892,1497.386393
24 Apr 2023 03:25:00.000,154.775,32.362,958.203351
18 Mar 2024 09:26:00.000,287.859,21.221,1268.788477
07 Oct 2023 05:29:00.000,72.669,15.590,1513.539781
23 Mar 2024 09:11:00.000,294.610,21.978,1241.573644
15 Feb 2024 21:09:00.000,74.542,25.067,1138.072829
