aer_data/rounded_times/rounded_MS_AER.csv

Time (UTCG),Azimuth (deg),Elevation (deg),Range (km)
05 Nov 2023 18:08:00.000,46.104,19.150,1351.199651
01 Aug 2023 14:22:00.000,92.225,13.963,1600.154946
12 Jan 2024 15:32:00.000,358.982,36.363,884.897578
12 Aug 2023 08:52:00.000,31.053,32.188,965.012985
18 Aug 2023 01:56:00.000,85.920,17.851,1403.688178
09 May 2023 03:00:00.000,108.099,7.785,1999.983527
22 Mar 2024 07:33:00.000,312.124,27.547,1070.538255
06 Jun 2023 15:51:00.000,233.793,42.343,797.372063
05 Apr 2023 12:21:00.000,242.108,36.480,884.480094
04 Aug 2023 14:14:00.000,131.635,24.638,1154.291022
04 Jun 2023 17:33:00.000,269.474,7.875,1999.986005
23 Aug 2023 06:44:00.000,259.055,30.073,1007.720021
31 Dec 2023 17:40:00.000,265.373,7.781,1999.982354
04 Jan 2024 15:49:00.000,261.165,7.784,1999.973581
29 Sep 2023 09:02:00.000,252.565,13.642,1613.495824
15 Oct 2023 01:41:00.000,228.721,21.880,1239.851639
16 Aug 2023 10:21:00.000,251.230,16.409,1470.720333
30 Oct 2023 21:41:00.000,326.366,25.610,1125.371744
05 Feb 2024 07:38:00.000,282.000,13.282,1633.412035
24 Apr 2023 04:59:00.000,259.099,7.803,1999.983972
18 Feb 2024 01:58:00.000,289.362,7.765,1999.991224
27 Dec 2023 19:32:00.000,269.393,7.775,1999.987502
16 Jul 2023 21:35:00.000,302.157,22.101,1240.067611
06 Mar 2024 11:40:00.000,209.241,13.071,1640.478669
25 Jan 2024 06:36:00.000,61.715,9.275,1893.013880
10 Jun 2023 13:59:00.000,286.188,13.630,1621.084954
09 Dec 2023 23:48:00.000,121.918,7.698,1999.995085
21 Apr 2023 05:10:00.000,120.524,53.616,682.052269
09 Apr 2023 15:38:00.000,323.533,60.184,641.241364
08 Aug 2023 12:19:00.000,294.295,13.704,1616.027867
03 Feb 2024 01:04:00.000,136.146,21.712,1243.787481
07 Jul 2023 20:14:00.000,210.405,60.050,638.922969
05 Jan 2024 14:06:00.000,223.029,13.433,1621.920061
21 Feb 2024 22:25:00.000,301.810,7.789,1999.975046
23 May 2023 18:03:00.000,50.715,15.763,1509.882503
21 Oct 2023 06:28:00.000,264.514,7.768,1999.985721
25 Dec 2023 23:01:00.000,307.288,13.146,1642.558410
05 Aug 2023 10:48:00.000,20.020,28.109,1060.783840
25 Apr 2023 03:26:00.000,70.540,7.858,1999.975819
03 Aug 2023 12:34:00.000,29.966,31.479,981.501246
07 Apr 2023 17:21:00.000,267.371,32.697,956.097306
18 Dec 2023 01:09:00.000,52.541,15.356,1522.396500
01 Aug 2023 16:01:00.000,166.292,28.517,1046.192223
31 Aug 2023 04:45:00.000,233.504,9.047,1901.444393
23 Jul 2023 14:42:00.000,58.695,7.909,1999.971533
10 Sep 2023 21:42:00.000,109.414,9.170,1895.291312
22 Sep 2023 11:01:00.000,213.614,21.143,1269.650404
29 Jan 2024 02:55:00.000,187.957,7.641,1999.980819
24 May 2023 19:36:00.000,301.388,7.922,1999.982372
18 May 2023 21:33:00.000,32.204,33.778,934.087951
22 Aug 2023 08:29:00.000,211.483,9.690,1856.133555
07 Apr 2023 15:43:00.000,67.031,31.133,990.148354
03 Jun 2023 14:21:00.000,72.148,7.907,1999.997610
24 Mar 2024 09:12:00.000,79.115,20.223,1305.004258
24 May 2023 19:38:00.000,312.128,21.250,1273.446238
20 May 2023 16:30:00.000,70.660,7.904,1999.999905
25 Jul 2023 14:33:00.000,338.457,34.168,927.371280
04 Aug 2023 14:11:00.000,261.933,58.466,649.621666
27 Jan 2024 04:45:00.000,122.926,43.096,783.230444
26 Mar 2024 05:42:00.000,8.241,34.723,912.085219
05 Dec 2023 08:24:00.000,354.720,43.872,776.909941
15 Dec 2023 02:59:00.000,67.090,10.053,1836.299230
06 Apr 2023 15:43:00.000,358.776,36.545,886.442532
07 Jun 2023 10:44:00.000,286.423,20.367,1304.455563
18 Aug 2023 06:54:00.000,306.268,13.381,1632.281520
27 Mar 2024 02:17:00.000,154.013,19.558,1324.006191
09 Feb 2024 00:50:00.000,54.919,14.180,1583.287853
17 Mar 2024 12:56:00.000,106.813,15.473,1513.851405
27 Mar 2024 03:55:00.000,248.296,22.017,1234.208320
10 Feb 2024 04:02:00.000,300.576,7.792,1999.982920
15 Apr 2023 07:06:00.000,78.819,7.870,1999.990543
25 Feb 2024 22:13:00.000,293.866,7.779,1999.975798
02 Apr 2023 19:10:00.000,286.971,22.102,1242.864031
26 Nov 2023 08:49:00.000,48.178,22.004,1242.660639
23 Sep 2023 14:27:00.000,69.180,10.289,1825.753874
26 Mar 2024 04:00:00.000,211.209,60.476,633.341512
05 Jun 2023 10:48:00.000,261.718,21.740,1251.865240
08 Jan 2024 15:39:00.000,297.034,12.875,1660.636529
09 Jul 2023 02:55:00.000,244.993,14.901,1543.923809
27 Jan 2024 09:46:00.000,311.404,21.098,1274.246294
12 Jul 2023 23:23:00.000,298.054,13.768,1611.168172
13 Aug 2023 12:09:00.000,243.423,10.059,1835.849163
12 Dec 2023 08:05:00.000,228.993,17.299,1424.820246
24 Oct 2023 21:56:00.000,257.573,62.397,624.520596
17 Oct 2023 06:46:00.000,127.044,8.884,1914.160905
16 Dec 2023 06:18:00.000,165.988,7.674,1999.989582
25 Nov 2023 15:30:00.000,258.164,7.798,1999.995248
26 Jun 2023 00:05:00.000,100.553,14.555,1563.706003
02 Jul 2023 22:08:00.000,87.244,36.963,874.169786
26 Feb 2024 18:50:00.000,299.699,12.785,1663.060907
04 Apr 2023 19:12:00.000,162.939,14.632,1560.895282
04 Jan 2024 15:53:00.000,309.758,48.160,729.577971
05 Jan 2024 15:53:00.000,46.328,20.205,1308.284478
09 Dec 2023 01:34:00.000,79.178,10.848,1781.669046
24 Aug 2023 03:24:00.000,60.130,15.840,1500.045940
14 Feb 2024 21:12:00.000,67.381,8.899,1915.479029
09 Jan 2024 15:43:00.000,54.934,15.368,1524.241905
18 Sep 2023 14:32:00.000,284.063,20.515,1297.940453
13 Oct 2023 05:08:00.000,307.962,18.912,1359.772421
27 Aug 2023 03:14:00.000,355.185,43.183,784.893907
02 Dec 2023 10:17:00.000,106.888,9.011,1908.543004
03 Dec 2023 06:48:00.000,341.433,32.812,950.386554
31 Mar 2023 21:01:00.000,158.107,8.020,1981.111754
25 Dec 2023 21:19:00.000,287.103,7.794,1999.990175
22 Dec 2023 19:49:00.000,194.092,30.837,987.015048
03 Aug 2023 12:31:00.000,316.744,19.598,1336.377382
04 Sep 2023 21:51:00.000,353.634,29.846,1015.847525
14 Aug 2023 10:32:00.000,140.331,7.759,1999.990294
25 Sep 2023 10:56:00.000,7.613,58.905,646.855259
03 Jul 2023 20:21:00.000,182.828,7.727,1999.985162
20 Jan 2024 15:10:00.000,213.061,19.453,1332.528389
29 Aug 2023 23:46:00.000,14.145,29.845,1015.202461
27 Mar 2024 04:01:00.000,61.233,15.785,1500.077841
14 Sep 2023 19:50:00.000,98.322,24.189,1167.184666
11 Apr 2023 12:10:00.000,308.660,19.012,1361.653322
22 Feb 2024 20:47:00.000,42.172,21.754,1247.317247
04 Feb 2024 07:45:00.000,181.602,55.908,662.942403
07 Sep 2023 21:49:00.000,83.337,7.804,1999.981930
02 Sep 2023 23:38:00.000,53.832,24.729,1151.423943
10 Mar 2024 18:14:00.000,227.415,10.730,1783.546416
13 Dec 2023 01:19:00.000,7.320,58.118,648.802186
18 Sep 2023 12:49:00.000,228.038,7.769,1999.994740
10 Mar 2024 13:16:00.000,59.310,10.035,1839.626980
15 Jul 2023 16:32:00.000,224.419,13.583,1617.505166
07 Nov 2023 19:39:00.000,316.113,20.040,1315.353062
23 Mar 2024 12:35:00.000,206.122,12.846,1652.925228
29 Jul 2023 14:21:00.000,299.607,7.906,1999.991184
24 Jan 2024 11:42:00.000,110.125,7.765,1999.971650
12 Dec 2023 01:26:00.000,62.390,9.305,1888.685763
02 Jun 2023 12:36:00.000,292.823,31.261,986.024689
08 Nov 2023 17:56:00.000,326.958,25.606,1126.973061
09 Mar 2024 18:15:00.000,267.516,7.760,1999.993200
21 Oct 2023 22:05:00.000,121.993,31.609,971.596862
20 Mar 2024 11:05:00.000,84.156,21.546,1255.373967
03 Dec 2023 03:30:00.000,89.901,8.688,1931.275116
26 May 2023 14:35:00.000,63.442,25.838,1123.258327
23 Mar 2024 07:36:00.000,60.573,7.824,1999.989834
28 Dec 2023 21:15:00.000,358.543,31.298,980.849796
03 Jan 2024 20:56:00.000,292.904,13.645,1613.914237
21 Apr 2023 11:51:00.000,277.036,13.133,1648.057546
18 Nov 2023 15:56:00.000,100.923,8.605,1938.632994
23 Aug 2023 05:09:00.000,96.741,7.788,1999.987073
09 Dec 2023 06:34:00.000,64.755,29.694,1017.276440
10 May 2023 01:14:00.000,53.914,24.896,1148.327299
02 Jul 2023 01:32:00.000,40.687,21.867,1247.349179
15 Jul 2023 23:21:00.000,194.220,31.231,980.839881
27 Nov 2023 13:50:00.000,160.616,15.860,1493.747191
17 Feb 2024 03:47:00.000,204.865,11.784,1713.549332
09 Sep 2023 23:24:00.000,150.765,10.784,1780.605796
07 Sep 2023 23:26:00.000,163.477,67.619,601.192420
24 Sep 2023 16:06:00.000,117.396,9.350,1884.409106
13 Feb 2024 21:15:00.000,71.739,7.765,1999.983986
04 May 2023 23:43:00.000,66.543,25.398,1133.040655
11 Dec 2023 08:10:00.000,177.767,17.988,1392.917347
03 Sep 2023 02:57:00.000,245.803,15.066,1534.173917
02 Oct 2023 08:57:00.000,307.278,28.493,1048.644140
29 Mar 2024 03:48:00.000,268.476,13.273,1630.276417
19 Sep 2023 11:12:00.000,124.424,14.942,1543.685462
25 Nov 2023 13:52:00.000,260.176,57.967,651.464427
11 Sep 2023 18:12:00.000,343.338,32.145,966.091500
01 Oct 2023 14:01:00.000,270.127,20.073,1313.802485
17 Nov 2023 17:31:00.000,289.090,7.848,1999.991035
22 Sep 2023 14:27:00.000,42.886,21.999,1244.851085
09 Sep 2023 23:16:00.000,284.073,7.825,1999.982853
07 Oct 2023 08:44:00.000,316.625,19.442,1340.087822
26 Mar 2024 05:44:00.000,46.267,18.246,1387.183270
15 Apr 2023 08:46:00.000,56.760,15.096,1542.854899
14 Feb 2024 03:53:00.000,259.625,30.288,999.843212
17 Oct 2023 01:40:00.000,43.582,39.056,840.208063
09 Jun 2023 10:43:00.000,14.803,29.535,1026.145801
08 Oct 2023 03:45:00.000,81.706,7.971,1987.090259
01 Apr 2023 12:28:00.000,182.606,11.977,1711.545346
01 Oct 2023 12:21:00.000,309.738,21.448,1263.910310
06 Mar 2024 11:46:00.000,85.775,17.946,1399.211622
21 Sep 2023 12:50:00.000,55.683,14.778,1558.320049
20 Apr 2023 06:57:00.000,58.656,8.385,1962.853417
11 Jul 2023 01:14:00.000,151.923,19.614,1326.121234
28 Aug 2023 04:57:00.000,150.351,7.700,1999.999364
28 Oct 2023 01:10:00.000,316.701,34.211,921.630148
31 Mar 2023 19:17:00.000,57.675,62.899,626.252197
22 Oct 2023 04:45:00.000,287.991,13.506,1621.526253
19 Aug 2023 05:10:00.000,303.617,12.844,1662.528892
01 Feb 2024 06:13:00.000,23.979,28.194,1054.539934
09 May 2023 20:10:00.000,133.604,20.233,1305.790133
28 Jul 2023 14:31:00.000,67.882,7.895,1999.991274
17 Dec 2023 02:53:00.000,70.834,18.037,1394.604761
14 Feb 2024 19:30:00.000,103.063,7.715,1999.999935
11 Jun 2023 12:23:00.000,90.959,23.105,1205.907547
28 Apr 2023 06:36:00.000,315.224,20.326,1305.968358
07 Dec 2023 06:35:00.000,306.556,12.905,1658.052161
30 Sep 2023 07:27:00.000,75.546,7.845,1999.981654
08 Nov 2023 21:22:00.000,145.450,21.697,1246.176897
26 Aug 2023 05:01:00.000,128.778,15.239,1524.891401
27 Aug 2023 04:56:00.000,189.899,44.462,767.331438
21 Nov 2023 10:42:00.000,38.797,36.666,880.497320
28 Oct 2023 01:16:00.000,103.398,7.742,1999.979019
01 Dec 2023 05:17:00.000,70.786,7.822,1999.980660
29 Mar 2024 02:16:00.000,72.734,7.770,1999.990003
15 Apr 2023 08:44:00.000,41.185,37.982,860.666493
23 Oct 2023 20:17:00.000,163.010,10.525,1796.862341
23 Jan 2024 13:23:00.000,158.899,16.653,1454.368641
20 Oct 2023 04:50:00.000,299.407,13.683,1612.678282
21 Apr 2023 08:31:00.000,331.449,25.805,1123.387522
01 May 2023 06:36:00.000,114.002,15.766,1502.039395
13 Dec 2023 06:20:00.000,287.190,21.894,1242.828888
15 Apr 2023 08:47:00.000,60.050,7.911,1999.985015
29 Nov 2023 05:19:00.000,117.128,20.792,1281.220172
16 Dec 2023 23:23:00.000,250.852,7.720,1999.979493
18 Jul 2023 21:30:00.000,283.714,21.708,1253.104880
23 Aug 2023 06:50:00.000,142.835,7.724,1999.969420
22 Jan 2024 13:26:00.000,146.190,21.569,1252.143062
28 May 2023 14:33:00.000,58.677,8.479,1958.360962
26 Oct 2023 21:50:00.000,286.943,32.090,963.498422
24 Jul 2023 14:37:00.000,32.601,28.436,1053.043281
08 Feb 2024 02:32:00.000,36.680,22.604,1218.243745
23 Mar 2024 10:57:00.000,125.355,15.469,1512.654575
19 Oct 2023 03:11:00.000,304.261,12.843,1661.020336
05 Mar 2024 15:07:00.000,320.916,26.138,1109.826535
19 Aug 2023 01:50:00.000,207.247,33.482,933.431654
13 Jul 2023 23:22:00.000,290.128,22.113,1238.237506
05 Jun 2023 09:14:00.000,80.957,9.201,1901.566943
11 Oct 2023 08:42:00.000,110.116,9.145,1898.729890
17 Aug 2023 01:54:00.000,181.747,17.816,1400.185724
18 Oct 2023 04:57:00.000,326.335,31.400,979.251692
29 Jan 2024 03:00:00.000,112.477,15.165,1527.351496
08 Sep 2023 20:00:00.000,326.962,25.666,1125.750942
22 Jul 2023 17:59:00.000,307.078,13.286,1641.618925
22 Jul 2023 19:43:00.000,256.391,56.814,659.725387
16 Feb 2024 00:28:00.000,29.640,31.133,982.846177
19 Apr 2023 05:10:00.000,202.430,7.726,1999.991127
12 Sep 2023 18:12:00.000,38.115,22.278,1234.155811
22 Jul 2023 19:41:00.000,287.645,22.095,1240.345136
16 Nov 2023 17:42:00.000,125.839,7.737,1999.981454
04 Apr 2023 12:25:00.000,116.576,59.578,643.821266
21 Mar 2024 09:23:00.000,70.280,7.815,1999.997455
24 Sep 2023 14:25:00.000,78.581,7.857,1999.997086
05 Feb 2024 04:18:00.000,312.565,18.850,1360.609621
22 Mar 2024 04:10:00.000,185.753,7.638,1999.980557
23 Jun 2023 06:52:00.000,356.488,41.343,810.120848
18 May 2023 16:29:00.000,159.532,21.564,1256.612125
16 Oct 2023 05:06:00.000,66.014,16.952,1445.876566
14 Jun 2023 10:36:00.000,76.720,19.678,1331.548372
09 Jun 2023 15:45:00.000,220.949,13.641,1615.018908
21 Jan 2024 15:07:00.000,219.950,13.125,1638.827150
26 May 2023 14:32:00.000,241.661,62.955,625.148477
01 Aug 2023 14:17:00.000,323.812,32.485,960.290443
31 Jan 2024 09:37:00.000,188.283,46.668,742.945907
11 Nov 2023 12:47:00.000,156.539,20.520,1292.084462
04 Jul 2023 23:39:00.000,286.201,7.845,1999.984899
21 Feb 2024 19:04:00.000,264.620,21.485,1254.972190
01 Jun 2023 17:40:00.000,283.537,21.835,1251.123763
20 May 2023 00:54:00.000,202.841,7.728,1999.994512
16 Dec 2023 23:29:00.000,47.632,40.333,820.694714
15 Aug 2023 10:27:00.000,175.036,21.305,1263.112216
02 Apr 2023 15:55:00.000,61.721,7.942,1999.997460
08 Jun 2023 15:46:00.000,251.420,16.419,1473.494231
12 Nov 2023 19:29:00.000,181.901,56.364,660.486671
30 Jan 2024 02:56:00.000,142.947,26.206,1102.038758
06 Nov 2023 21:24:00.000,312.054,62.095,626.745928
05 Jul 2023 03:08:00.000,125.516,25.258,1132.713528
10 Aug 2023 12:18:00.000,193.060,35.322,901.973880
08 May 2023 21:52:00.000,107.412,67.339,604.309145
28 Aug 2023 04:53:00.000,223.617,31.942,964.880448
27 May 2023 21:16:00.000,192.167,9.596,1864.723903
04 Aug 2023 15:49:00.000,258.870,7.836,1999.998058
03 Feb 2024 02:43:00.000,254.965,35.912,888.033353
16 Aug 2023 07:06:00.000,76.258,7.842,1999.978628
04 Aug 2023 15:50:00.000,247.391,10.513,1807.072720
17 May 2023 19:55:00.000,33.178,25.666,1128.127676
21 Sep 2023 11:02:00.000,205.181,12.993,1648.095377
31 Jan 2024 02:57:00.000,74.526,7.785,1999.980613
12 Aug 2023 08:55:00.000,75.303,11.112,1770.310235
24 Aug 2023 03:26:00.000,71.362,7.822,1999.997589
18 Aug 2023 06:58:00.000,38.393,41.471,807.702324
21 May 2023 21:22:00.000,299.144,7.909,1999.972828
20 Sep 2023 17:55:00.000,122.735,15.709,1503.639935
11 Nov 2023 17:52:00.000,54.894,25.293,1135.184433
04 Apr 2023 14:02:00.000,278.615,13.345,1638.050582
20 Feb 2024 17:29:00.000,156.978,20.510,1288.198906
30 Mar 2024 03:51:00.000,46.214,19.212,1345.342852
07 May 2023 01:17:00.000,351.039,30.163,1009.720276
16 Sep 2023 14:41:00.000,53.531,24.494,1161.629504
22 Oct 2023 03:10:00.000,77.768,19.856,1319.146721
04 Aug 2023 14:15:00.000,128.398,15.348,1523.661955
22 Mar 2024 12:38:00.000,195.186,17.983,1392.633232
23 Sep 2023 12:46:00.000,58.274,7.892,1999.998504
10 Mar 2024 14:58:00.000,87.426,7.773,1999.976731
01 Jun 2023 12:43:00.000,55.834,14.765,1561.361398
30 Oct 2023 02:44:00.000,262.855,7.752,1999.990300
18 Dec 2023 02:46:00.000,328.188,30.640,994.808592
12 Nov 2023 19:33:00.000,131.076,8.550,1937.193674
10 Feb 2024 22:59:00.000,219.204,61.873,625.444412
22 Mar 2024 05:56:00.000,64.098,25.563,1124.772843
21 Apr 2023 11:54:00.000,224.261,32.831,950.599741
10 Jan 2024 12:17:00.000,82.424,38.862,843.809695
28 Nov 2023 05:20:00.000,141.767,15.703,1500.016256
16 Nov 2023 14:16:00.000,15.550,29.200,1032.308219
02 Apr 2023 17:36:00.000,82.161,12.439,1691.211821
10 Nov 2023 14:35:00.000,65.265,7.857,1999.974001
10 Jun 2023 14:07:00.000,135.864,7.797,1999.981144
07 Dec 2023 03:11:00.000,240.103,7.705,1999.987499
18 Mar 2024 07:44:00.000,252.384,35.918,889.165485
23 Dec 2023 19:45:00.000,225.044,21.760,1243.879993
15 Sep 2023 19:41:00.000,297.581,13.704,1614.999967
03 Mar 2024 20:14:00.000,263.041,18.719,1362.660062
08 Sep 2023 16:36:00.000,200.054,19.999,1312.823701
07 Apr 2023 10:36:00.000,201.647,20.283,1303.854546
17 Apr 2023 08:41:00.000,32.592,27.926,1065.716235
27 May 2023 21:14:00.000,220.153,13.270,1634.650631
08 Jul 2023 18:34:00.000,114.892,17.972,1399.449801
12 Sep 2023 14:50:00.000,100.519,22.542,1222.689819
07 Dec 2023 04:56:00.000,338.060,34.337,919.859419
30 Aug 2023 22:06:00.000,55.592,14.591,1564.830370
18 Jun 2023 08:47:00.000,81.440,12.217,1701.130884
09 Nov 2023 14:31:00.000,218.017,21.531,1255.029802
29 Apr 2023 23:51:00.000,127.837,11.339,1749.620393
12 Aug 2023 12:15:00.000,181.450,10.970,1772.032119
19 Jul 2023 14:46:00.000,171.167,45.800,755.208552
05 May 2023 04:41:00.000,301.754,22.174,1236.718883
14 Feb 2024 21:07:00.000,197.340,56.654,656.450716
04 Jan 2024 17:30:00.000,292.669,7.829,1999.992471
11 Feb 2024 05:44:00.000,216.816,23.500,1183.702628
13 Nov 2023 12:45:00.000,82.188,20.728,1288.224735
04 Jan 2024 14:14:00.000,98.904,26.167,1107.574199
17 Dec 2023 02:47:00.000,307.285,13.119,1643.927944
08 Mar 2024 11:37:00.000,216.088,61.266,630.516908
12 Jun 2023 05:37:00.000,97.268,8.316,1961.857041
07 Feb 2024 05:51:00.000,297.193,7.798,1999.969305
20 Dec 2023 01:04:00.000,61.645,15.988,1490.041187
16 May 2023 23:22:00.000,101.125,8.582,1941.644959
12 Feb 2024 02:20:00.000,31.550,32.999,944.051015
17 Jul 2023 16:36:00.000,61.404,9.313,1895.178467
16 Jan 2024 08:36:00.000,173.966,16.672,1452.760991
16 Jul 2023 21:36:00.000,307.058,35.771,896.058660
05 Oct 2023 10:31:00.000,324.431,32.242,963.607759
05 Feb 2024 04:22:00.000,42.250,21.783,1247.543417
23 Jul 2023 16:17:00.000,311.584,18.976,1362.319394
22 Jan 2024 15:04:00.000,215.653,7.712,1999.996365
17 Apr 2023 13:42:00.000,221.332,29.173,1031.979390
11 Mar 2024 14:46:00.000,301.322,7.833,1999.983437
15 Oct 2023 03:21:00.000,280.274,13.106,1643.675340
09 Dec 2023 03:15:00.000,58.944,8.574,1942.942190
13 Mar 2024 14:42:00.000,299.593,22.152,1235.053198
02 Sep 2023 23:32:00.000,301.108,7.847,1999.999262
24 May 2023 16:16:00.000,288.539,32.172,966.895183
27 May 2023 17:51:00.000,316.093,20.189,1314.445727
03 Oct 2023 08:59:00.000,47.968,16.660,1463.273766
06 Mar 2024 16:45:00.000,327.384,30.854,990.793348
08 Nov 2023 19:37:00.000,313.725,20.839,1284.511490
18 Jan 2024 08:36:00.000,71.861,7.831,1999.975325
20 Dec 2023 21:39:00.000,61.135,15.832,1497.845340
30 Jan 2024 02:59:00.000,89.419,12.982,1648.821491
03 Feb 2024 06:11:00.000,80.501,7.792,1999.984574
19 Nov 2023 15:54:00.000,110.864,7.773,1999.984496
25 Jul 2023 16:19:00.000,75.875,7.877,1999.984962
19 Mar 2024 07:44:00.000,6.736,56.796,658.165750
10 May 2023 20:06:00.000,173.106,25.596,1124.793525
02 Jul 2023 01:30:00.000,352.840,29.884,1015.155600
25 Apr 2023 03:18:00.000,220.332,13.449,1622.086451
16 Sep 2023 16:24:00.000,58.115,10.284,1826.663013
13 Jun 2023 07:13:00.000,23.025,69.795,595.135571
18 May 2023 23:11:00.000,293.287,22.350,1231.614029
04 Nov 2023 16:27:00.000,123.069,41.416,806.739339
08 Jan 2024 14:02:00.000,6.027,55.975,664.800531
10 Nov 2023 14:29:00.000,231.275,36.182,886.464875
24 Jun 2023 05:13:00.000,65.174,9.937,1848.404765
17 Dec 2023 21:44:00.000,155.410,34.963,904.112613
10 Jun 2023 10:42:00.000,19.310,28.200,1059.063700
29 Mar 2024 08:50:00.000,287.705,7.794,1999.990240
29 Nov 2023 11:57:00.000,295.014,7.854,1999.982011
02 Sep 2023 21:52:00.000,289.757,13.018,1652.064260
23 Dec 2023 19:52:00.000,67.635,7.795,1999.977746
19 Nov 2023 17:34:00.000,162.484,7.701,1999.990634
27 Nov 2023 07:08:00.000,68.881,8.580,1944.093605
03 Jan 2024 19:19:00.000,33.439,34.967,907.950043
24 Feb 2024 18:59:00.000,11.004,31.925,966.781965
31 Mar 2024 03:48:00.000,33.303,25.079,1138.950461
13 Sep 2023 21:30:00.000,230.533,39.629,831.333966
06 Jul 2023 20:19:00.000,91.997,33.639,934.113161
12 Nov 2023 16:04:00.000,307.659,19.012,1357.965714
21 Sep 2023 17:51:00.000,152.599,35.707,894.420473
16 Aug 2023 03:35:00.000,241.476,13.601,1612.963586
03 Sep 2023 01:15:00.000,296.488,22.187,1234.022633
11 Jun 2023 13:56:00.000,283.804,7.887,1999.999392
21 Dec 2023 00:55:00.000,307.213,13.039,1648.382346
15 Jul 2023 23:19:00.000,251.579,27.436,1073.627106
26 Jan 2024 09:52:00.000,62.219,28.751,1040.798984
25 May 2023 21:15:00.000,274.306,12.868,1663.249339
04 Mar 2024 18:36:00.000,113.654,15.676,1500.831037
15 Jan 2024 15:22:00.000,308.537,35.748,895.015368
14 Sep 2023 13:04:00.000,130.098,12.009,1708.922900
05 Dec 2023 03:26:00.000,73.252,7.802,1999.991361
23 Dec 2023 19:43:00.000,230.826,7.707,1999.991084
24 Jan 2024 08:13:00.000,292.710,19.812,1322.294636
19 Jan 2024 11:55:00.000,70.896,7.835,1999.992559
08 Dec 2023 08:14:00.000,292.393,22.130,1235.806834
19 Oct 2023 22:12:00.000,98.083,9.319,1884.342076
06 Jan 2024 20:50:00.000,239.705,22.212,1228.504671
14 Jan 2024 10:22:00.000,207.859,33.471,934.393508
13 Feb 2024 04:02:00.000,131.194,8.499,1938.390239
14 Sep 2023 16:29:00.000,58.212,7.880,1999.997165
22 Jan 2024 15:04:00.000,223.090,8.047,1975.123790
13 Jul 2023 21:42:00.000,331.627,28.896,1039.881074
18 Oct 2023 01:35:00.000,313.660,46.514,745.540192
22 Dec 2023 23:16:00.000,62.880,9.799,1853.290995
17 May 2023 21:37:00.000,63.039,16.430,1474.601821
08 Jan 2024 12:23:00.000,100.730,22.161,1233.762928
01 Mar 2024 13:37:00.000,191.993,19.119,1344.541293
16 Jul 2023 21:37:00.000,324.447,59.952,640.250081
20 Aug 2023 01:46:00.000,234.943,22.121,1232.721020
19 Oct 2023 01:38:00.000,58.192,7.823,1999.969686
23 Mar 2024 04:09:00.000,163.463,22.677,1209.920778
27 Apr 2023 01:36:00.000,153.696,19.571,1329.103833
01 Feb 2024 09:30:00.000,283.668,7.804,1999.977257
08 Sep 2023 21:47:00.000,91.382,7.790,1999.989893
01 Oct 2023 08:59:00.000,295.470,30.839,992.730637
05 Sep 2023 23:31:00.000,85.024,37.817,859.164479
06 Oct 2023 05:31:00.000,67.324,7.840,1999.983111
06 Jun 2023 15:55:00.000,143.932,12.873,1658.531511
18 Aug 2023 05:19:00.000,61.091,9.929,1848.541733
06 Feb 2024 00:51:00.000,230.538,13.531,1612.156336
27 Sep 2023 10:49:00.000,285.819,20.367,1302.900211
12 Apr 2023 08:48:00.000,172.942,46.582,746.525305
07 Dec 2023 09:56:00.000,274.365,7.803,1999.998739
07 Sep 2023 16:39:00.000,181.719,17.802,1403.904347
16 Sep 2023 18:02:00.000,34.256,35.817,895.461664
26 Feb 2024 20:34:00.000,356.043,42.000,798.049720
18 Dec 2023 23:27:00.000,58.287,7.802,1999.990140
06 May 2023 23:35:00.000,278.031,33.721,933.215201
16 Jul 2023 14:53:00.000,140.165,15.243,1528.444840
20 Sep 2023 12:48:00.000,275.598,59.773,641.377075
09 Aug 2023 09:01:00.000,60.203,10.063,1841.893568
29 Sep 2023 14:13:00.000,123.772,9.126,1900.050703
04 Jan 2024 19:13:00.000,313.769,20.811,1284.250327
20 Sep 2023 17:52:00.000,150.703,71.834,587.855541
16 Jun 2023 07:09:00.000,46.175,18.691,1372.560775
06 Apr 2023 13:59:00.000,294.223,12.971,1661.035372
21 Oct 2023 22:01:00.000,205.574,12.924,1648.110912
23 Nov 2023 15:43:00.000,157.098,8.371,1950.343778
04 Jul 2023 04:46:00.000,253.612,16.907,1445.724285
06 Jan 2024 19:15:00.000,109.242,9.089,1898.878840
31 Jul 2023 09:14:00.000,202.309,12.848,1656.299216
25 Nov 2023 10:33:00.000,50.075,15.858,1501.813798
03 Apr 2023 12:28:00.000,96.254,29.888,1017.019541
22 Sep 2023 16:08:00.000,74.790,34.459,919.451654
04 Jun 2023 12:36:00.000,47.586,16.940,1453.432646
08 Aug 2023 05:38:00.000,138.315,23.309,1193.273513
09 Mar 2024 18:21:00.000,181.687,9.943,1833.226967
29 Aug 2023 01:33:00.000,71.714,10.557,1803.479069
07 Jun 2023 15:48:00.000,264.241,19.168,1352.167903
01 May 2023 01:33:00.000,63.468,9.379,1888.092484
09 Jul 2023 21:49:00.000,306.988,19.053,1356.779356
10 Jan 2024 15:38:00.000,25.766,28.767,1041.341660
16 May 2023 21:37:00.000,23.880,28.443,1052.324358
16 Jun 2023 12:06:00.000,271.912,12.749,1669.303296
24 Sep 2023 12:44:00.000,59.321,7.891,1999.982135
29 Dec 2023 21:13:00.000,31.417,32.560,953.848852
17 Feb 2024 03:48:00.000,185.879,7.636,1999.995033
23 Feb 2024 17:16:00.000,232.113,7.702,1999.991208
22 May 2023 16:17:00.000,245.633,7.837,1999.977965
11 Jul 2023 21:43:00.000,298.334,7.879,1999.997933
09 Sep 2023 16:41:00.000,69.591,7.860,1999.970599
16 Nov 2023 14:17:00.000,36.672,22.706,1219.309800
28 Jun 2023 23:55:00.000,198.867,57.279,654.967758
08 Feb 2024 05:52:00.000,264.463,59.406,640.460012
20 Jul 2023 14:40:00.000,234.216,7.799,1999.991050
09 Feb 2024 23:04:00.000,89.370,35.483,895.512776
11 Aug 2023 08:49:00.000,299.200,7.865,1999.990079
25 Nov 2023 15:34:00.000,203.456,10.853,1777.980927
29 Dec 2023 00:40:00.000,167.092,11.859,1708.932333
17 May 2023 18:15:00.000,66.744,25.543,1130.969034
23 Dec 2023 02:35:00.000,191.109,40.675,813.582213
18 Feb 2024 19:18:00.000,77.997,22.666,1213.953794
20 Jun 2023 08:36:00.000,302.898,13.628,1619.712178
03 Jul 2023 23:46:00.000,9.869,33.121,945.349503
31 Aug 2023 03:02:00.000,287.807,13.498,1622.863242
18 Jun 2023 10:20:00.000,292.951,7.874,1999.977712
01 Oct 2023 07:15:00.000,225.138,7.725,1999.972367
02 Oct 2023 12:22:00.000,95.143,40.585,819.863922
17 Oct 2023 06:37:00.000,293.295,7.821,1999.977759
18 Aug 2023 10:17:00.000,238.681,7.768,1999.998888
22 Apr 2023 08:34:00.000,74.644,7.879,1999.996939
13 Dec 2023 23:39:00.000,76.636,12.559,1674.626461
24 Jan 2024 13:21:00.000,167.799,11.399,1741.365909
22 Dec 2023 04:16:00.000,242.603,9.888,1841.048164
23 Feb 2024 18:58:00.000,279.366,13.097,1642.862180
04 May 2023 22:01:00.000,124.280,14.872,1547.132411
05 Feb 2024 00:53:00.000,221.166,7.656,1999.982878
02 Nov 2023 18:17:00.000,62.117,9.379,1885.997609
30 May 2023 12:45:00.000,70.884,42.080,801.962420
22 Nov 2023 14:03:00.000,86.612,22.121,1236.987829
22 Aug 2023 05:05:00.000,314.975,20.507,1296.769332
22 Apr 2023 10:13:00.000,100.916,41.641,806.350520
20 Apr 2023 05:12:00.000,122.942,36.268,885.465999
10 Mar 2024 09:53:00.000,100.559,21.896,1242.024498
19 Oct 2023 06:39:00.000,160.643,15.842,1492.783200
29 Aug 2023 20:23:00.000,160.806,21.763,1245.156743
25 Dec 2023 18:05:00.000,82.206,7.781,1999.998128
23 Feb 2024 22:19:00.000,299.723,7.787,1999.987866
27 Dec 2023 23:04:00.000,99.812,7.730,1999.991980
31 Dec 2023 19:22:00.000,294.776,7.819,2000.000040
20 Apr 2023 05:13:00.000,98.334,27.169,1081.898929
24 Jan 2024 04:55:00.000,122.556,13.862,1596.844134
07 Jul 2023 01:18:00.000,310.058,21.332,1266.581815
26 Mar 2024 05:43:00.000,32.608,26.471,1099.654927
21 Jan 2024 06:44:00.000,118.910,23.790,1177.208941
15 May 2023 20:02:00.000,58.955,7.900,1999.993429
06 Nov 2023 21:22:00.000,299.555,22.130,1236.130562
23 Apr 2023 03:29:00.000,84.011,7.836,1999.984688
24 Oct 2023 21:54:00.000,246.917,22.080,1234.373381
29 Dec 2023 22:49:00.000,295.948,7.801,1999.970229
04 Nov 2023 21:25:00.000,301.353,7.840,1999.997591
06 Feb 2024 00:57:00.000,72.967,24.166,1165.195344
05 Dec 2023 08:28:00.000,89.707,13.486,1623.191795
20 Jul 2023 21:27:00.000,242.711,23.820,1179.088078
17 Jan 2024 08:38:00.000,80.280,9.918,1846.970310
21 Oct 2023 23:50:00.000,59.442,7.818,1999.985705
23 Aug 2023 01:47:00.000,58.432,7.875,1997.167698
27 Feb 2024 18:51:00.000,23.522,28.203,1053.123558
12 Dec 2023 04:40:00.000,301.095,7.811,1999.999405
23 Dec 2023 02:32:00.000,275.800,20.793,1281.067905
05 Jan 2024 12:31:00.000,115.574,7.758,1999.997402
30 Jun 2023 03:17:00.000,30.182,31.442,979.687114
03 Apr 2023 19:13:00.000,164.159,29.932,1013.813356
17 Aug 2023 08:43:00.000,128.557,24.984,1142.023265
24 Mar 2024 05:52:00.000,59.210,7.817,1999.994591
30 Jun 2023 03:14:00.000,316.789,19.578,1334.189714
28 Feb 2024 18:50:00.000,62.352,16.107,1483.778181
25 May 2023 18:00:00.000,59.243,15.823,1506.364235
27 Apr 2023 08:19:00.000,295.885,36.253,887.689950
27 Feb 2024 17:05:00.000,274.785,13.196,1637.668045
31 May 2023 17:48:00.000,122.112,15.723,1506.142010
10 Feb 2024 04:04:00.000,308.935,21.392,1260.458020
02 Nov 2023 18:08:00.000,246.388,7.768,1999.967805
15 Jul 2023 21:38:00.000,319.071,33.721,934.076536
20 Sep 2023 12:49:00.000,18.724,68.126,601.684849
27 May 2023 19:36:00.000,129.681,24.889,1146.978727
10 Jan 2024 10:36:00.000,128.531,11.483,1738.939408
25 Apr 2023 10:05:00.000,228.185,36.781,877.582148
26 Jun 2023 06:46:00.000,287.998,63.099,622.543034
05 Mar 2024 13:26:00.000,286.210,57.195,655.367683
31 Aug 2023 22:02:00.000,46.635,20.613,1292.814002
28 Jun 2023 06:46:00.000,146.249,12.167,1696.264060
09 May 2023 21:54:00.000,62.495,7.880,1999.970307
25 Jul 2023 19:40:00.000,169.791,9.624,1861.577363
20 Feb 2024 19:13:00.000,60.392,15.701,1503.642404
14 Dec 2023 21:55:00.000,106.616,7.722,1999.988243
08 Feb 2024 23:03:00.000,210.129,13.016,1639.918116
20 Feb 2024 17:28:00.000,174.340,16.662,1450.800471
22 Apr 2023 10:09:00.000,301.760,22.112,1240.743286
02 Jul 2023 03:15:00.000,88.882,13.438,1625.939107
15 Feb 2024 03:50:00.000,262.527,18.601,1367.059224
13 Jul 2023 01:06:00.000,233.108,19.191,1344.778489
05 Jul 2023 01:28:00.000,78.146,11.575,1738.194773
06 Jul 2023 23:36:00.000,303.113,12.899,1661.002822
14 Apr 2023 15:32:00.000,173.686,7.784,1999.994348
03 May 2023 23:47:00.000,69.158,8.532,1949.211086
22 Oct 2023 20:22:00.000,125.270,7.718,1999.998006
08 Jan 2024 17:28:00.000,87.585,7.780,1999.976727
25 Jan 2024 11:39:00.000,120.229,9.296,1885.562697
14 Jan 2024 10:28:00.000,69.422,7.840,1999.971625
26 Aug 2023 03:20:00.000,72.894,18.705,1367.584262
06 Jun 2023 15:56:00.000,140.097,7.792,1999.990277
14 Aug 2023 08:50:00.000,90.639,13.683,1613.915956
21 May 2023 18:03:00.000,305.924,28.768,1044.833217
10 Jan 2024 12:12:00.000,229.878,13.593,1613.531192
08 Jun 2023 09:07:00.000,63.849,15.923,1499.992010
27 May 2023 16:15:00.000,57.718,10.433,1819.910481
04 Nov 2023 19:50:00.000,41.700,21.837,1247.431844
30 Jul 2023 17:41:00.000,267.184,7.851,1999.992863
19 Nov 2023 17:32:00.000,179.270,15.847,1493.213929
28 May 2023 19:27:00.000,289.295,7.905,1999.990940
21 Feb 2024 17:25:00.000,175.746,26.297,1099.270959
17 May 2023 00:57:00.000,250.962,27.335,1076.926215
02 Nov 2023 16:33:00.000,115.163,18.151,1389.431825
06 Jun 2023 15:48:00.000,283.513,13.442,1632.035585
17 Apr 2023 13:45:00.000,163.303,14.472,1569.261644
28 Sep 2023 14:12:00.000,80.803,71.254,590.338071
01 Feb 2024 02:51:00.000,89.311,35.432,897.257208
15 Jul 2023 16:38:00.000,77.514,22.896,1212.812130
26 Feb 2024 22:19:00.000,136.258,7.793,1989.246720
15 Mar 2024 11:21:00.000,63.690,7.828,1999.982414
15 Apr 2023 13:49:00.000,136.120,24.069,1173.493635
08 Jun 2023 14:04:00.000,299.851,22.209,1238.436460
15 Jun 2023 05:27:00.000,170.267,44.956,762.772350
11 Nov 2023 16:09:00.000,343.566,32.145,965.558684
13 Oct 2023 10:11:00.000,237.932,9.508,1871.278608
27 Apr 2023 01:40:00.000,90.023,9.348,1887.142500
25 Sep 2023 17:37:00.000,256.195,7.810,1999.990293
08 Nov 2023 14:39:00.000,78.337,11.454,1746.847198
11 Oct 2023 03:30:00.000,237.124,13.604,1611.325848
07 Oct 2023 12:05:00.000,263.213,11.970,1713.429249
31 May 2023 17:47:00.000,123.411,25.356,1133.921560
06 Jul 2023 03:03:00.000,243.463,49.761,713.542001
09 Apr 2023 17:19:00.000,216.016,22.780,1215.649005
04 Nov 2023 19:48:00.000,353.876,29.833,1015.675293
24 Nov 2023 07:10:00.000,167.225,15.646,1502.684237
14 Oct 2023 06:45:00.000,304.904,13.456,1626.935025
09 May 2023 03:00:00.000,107.692,9.103,1902.140365
23 Aug 2023 00:04:00.000,81.789,20.782,1283.942758
12 Nov 2023 14:21:00.000,257.158,7.801,1999.991295
26 May 2023 17:54:00.000,333.223,27.147,1087.645700
14 Mar 2024 09:41:00.000,54.711,24.742,1150.787362
29 Dec 2023 22:57:00.000,119.399,15.761,1496.233162
25 Sep 2023 17:40:00.000,216.056,11.520,1737.226694
25 Apr 2023 10:03:00.000,271.456,20.240,1307.922154
28 Feb 2024 18:45:00.000,316.343,19.206,1346.341455
13 May 2023 01:06:00.000,340.749,54.321,677.701403
03 May 2023 01:21:00.000,265.846,13.474,1625.184097
17 Sep 2023 17:55:00.000,301.600,7.887,1999.976025
27 Jun 2023 03:23:00.000,17.519,28.494,1048.824886
04 Jun 2023 09:12:00.000,152.263,19.142,1348.329439
10 Jun 2023 07:14:00.000,214.411,7.736,1999.970965
07 Jan 2024 12:21:00.000,185.951,12.030,1702.630928
06 May 2023 23:33:00.000,262.251,13.570,1620.207111
29 Apr 2023 06:39:00.000,84.541,21.571,1257.433478
09 Aug 2023 05:40:00.000,79.351,10.673,1797.190886
25 Aug 2023 04:58:00.000,298.159,22.225,1232.863455
11 Mar 2024 11:31:00.000,47.233,21.418,1262.214345
15 Mar 2024 11:21:00.000,61.008,9.912,1848.254121
03 Oct 2023 10:36:00.000,332.735,27.730,1069.426619
08 Jul 2023 18:29:00.000,193.114,7.744,1999.997180
03 Feb 2024 04:25:00.000,343.576,31.974,966.103508
20 May 2023 23:14:00.000,144.981,7.744,1999.981763
17 Aug 2023 02:00:00.000,82.045,7.804,1999.999429
09 Nov 2023 17:59:00.000,65.435,9.952,1845.967525
04 Apr 2023 10:42:00.000,166.826,7.769,1999.987609
05 Mar 2024 13:25:00.000,264.043,35.126,904.070028
21 Mar 2024 04:17:00.000,126.700,10.894,1773.042785
15 Jun 2023 08:46:00.000,302.337,12.830,1665.979267
18 May 2023 18:12:00.000,50.277,41.284,812.686595
15 Nov 2023 14:15:00.000,287.831,13.066,1650.375898
18 Aug 2023 05:16:00.000,19.363,28.106,1058.369322
15 Jul 2023 20:01:00.000,57.656,15.517,1519.256355
29 Jul 2023 14:29:00.000,70.293,10.468,1815.047286
29 Apr 2023 03:12:00.000,289.063,31.974,968.140833
25 Sep 2023 14:22:00.000,81.768,12.274,1697.397788
24 Aug 2023 03:20:00.000,332.301,25.981,1115.164956
01 Jan 2024 17:40:00.000,287.162,20.208,1306.480388
17 Sep 2023 12:56:00.000,159.724,38.378,851.241381
17 Apr 2023 10:23:00.000,59.496,15.771,1508.868955
24 Jul 2023 16:14:00.000,304.646,12.925,1662.654235
17 Mar 2024 12:54:00.000,95.585,40.455,819.290304
11 Nov 2023 14:33:00.000,62.044,7.862,1999.995409
20 Oct 2023 06:30:00.000,275.028,7.787,1999.983093
13 Oct 2023 06:52:00.000,36.611,38.684,847.120172
11 Jul 2023 01:07:00.000,287.200,7.841,1999.971862
11 Jul 2023 16:45:00.000,142.283,11.434,1744.380129
20 May 2023 00:52:00.000,221.165,9.456,1874.582335
14 Aug 2023 07:04:00.000,328.712,25.541,1129.100975
25 Oct 2023 04:38:00.000,259.851,11.592,1732.412718
13 Jan 2024 17:11:00.000,188.505,47.450,734.761123
26 Jul 2023 11:08:00.000,180.634,17.771,1406.291315
03 Jan 2024 15:53:00.000,256.984,21.972,1239.795078
14 Sep 2023 16:26:00.000,32.331,27.632,1072.328392
14 Nov 2023 17:39:00.000,302.034,13.633,1618.563217
10 Aug 2023 08:54:00.000,330.331,25.635,1127.264358
02 May 2023 08:12:00.000,204.574,11.684,1726.460114
14 Feb 2024 21:05:00.000,227.315,21.729,1243.286413
08 Nov 2023 14:35:00.000,156.931,36.452,881.270010
12 Mar 2024 16:30:00.000,175.543,20.777,1278.419232
18 Dec 2023 06:09:00.000,217.434,8.574,1932.947986
15 Apr 2023 13:42:00.000,292.348,7.913,1999.978450
02 May 2023 01:25:00.000,265.325,35.182,905.087383
26 Oct 2023 20:14:00.000,83.829,19.557,1331.158629
19 May 2023 21:26:00.000,301.796,7.911,1999.983909
11 Jun 2023 10:43:00.000,68.245,7.898,1999.982582
17 Aug 2023 03:34:00.000,256.594,21.886,1242.377585
26 Apr 2023 06:41:00.000,358.032,31.166,987.428588
01 Feb 2024 01:10:00.000,130.900,9.291,1880.426022
21 Jun 2023 05:12:00.000,286.061,13.048,1650.139823
17 Dec 2023 23:29:00.000,58.906,8.422,1952.892425
01 Oct 2023 12:28:00.000,99.506,7.820,1999.995145
28 Jan 2024 09:43:00.000,306.118,21.863,1246.083054
18 Nov 2023 12:33:00.000,53.820,12.838,1665.263165
27 Jan 2024 09:53:00.000,96.334,7.786,1999.990273
09 Jan 2024 15:40:00.000,354.167,29.846,1015.586229
12 Oct 2023 10:14:00.000,242.258,14.245,1579.302335
09 Jan 2024 17:26:00.000,95.931,7.765,1999.970350
14 Jul 2023 19:57:00.000,299.886,12.869,1664.379641
22 Jan 2024 06:39:00.000,158.270,36.945,871.203623
15 Dec 2023 06:21:00.000,152.214,7.686,1999.990511
18 Feb 2024 20:58:00.000,32.632,29.576,1018.505663
19 Oct 2023 04:59:00.000,98.595,14.730,1553.167493
03 Dec 2023 06:49:00.000,11.901,31.233,983.801503
07 Jun 2023 09:01:00.000,230.517,7.770,1999.982601
08 May 2023 01:15:00.000,330.280,25.615,1127.949065
29 Oct 2023 23:24:00.000,331.824,28.349,1050.559358
28 Dec 2023 21:11:00.000,299.518,7.814,1999.985223
05 Aug 2023 10:44:00.000,300.308,12.864,1664.305372
07 May 2023 04:35:00.000,290.736,7.854,1999.991404
24 Apr 2023 08:23:00.000,306.555,13.322,1638.136431
21 Dec 2023 19:50:00.000,200.433,12.735,1658.237987
17 Jul 2023 16:28:00.000,250.043,13.718,1612.180239
22 Mar 2024 07:31:00.000,286.561,12.985,1650.748312
14 Dec 2023 02:57:00.000,353.565,29.790,1014.900983
31 Jan 2024 11:16:00.000,234.771,7.732,2000.000038
02 Jun 2023 12:38:00.000,4.749,42.550,796.589776
18 Nov 2023 10:53:00.000,69.294,8.505,1951.045305
01 Nov 2023 23:19:00.000,61.563,64.607,613.891620
27 Aug 2023 20:31:00.000,109.843,7.764,1999.993507
20 Nov 2023 09:01:00.000,175.902,16.970,1439.925794
22 Feb 2024 20:49:00.000,63.365,9.823,1850.417803
29 Jul 2023 09:20:00.000,167.109,10.892,1776.647643
09 Dec 2023 09:54:00.000,219.363,9.026,1902.702703
11 Oct 2023 08:40:00.000,105.488,24.986,1142.474905
12 Nov 2023 14:28:00.000,50.897,23.728,1184.785196
08 Nov 2023 21:19:00.000,239.726,47.255,737.112893
27 May 2023 16:13:00.000,36.279,22.943,1214.664809
27 Sep 2023 09:13:00.000,75.243,23.722,1184.362960
19 Aug 2023 01:51:00.000,178.878,49.675,713.277642
27 Apr 2023 03:15:00.000,248.113,22.197,1232.911875
02 Sep 2023 18:32:00.000,170.352,16.173,1478.441214
23 Jun 2023 01:47:00.000,198.883,19.976,1311.737509
20 Feb 2024 00:14:00.000,308.225,35.587,894.607738
09 Feb 2024 05:47:00.000,279.754,21.236,1265.125327
21 Mar 2024 12:42:00.000,175.123,21.173,1264.705873
19 Jul 2023 16:27:00.000,320.978,42.643,794.520155
06 Jan 2024 17:31:00.000,48.866,23.079,1203.861243
28 Jan 2024 08:05:00.000,25.558,28.898,1037.658718
18 Mar 2024 07:49:00.000,60.924,15.830,1499.785295
02 Nov 2023 23:16:00.000,126.655,74.172,579.399339
10 Feb 2024 05:44:00.000,277.854,13.026,1646.527605
02 May 2023 08:13:00.000,186.431,7.729,1999.989808
21 May 2023 23:11:00.000,158.212,7.733,1999.999026
03 Jul 2023 20:27:00.000,93.533,7.814,1999.994076
18 Jan 2024 13:31:00.000,305.118,13.438,1629.136009
17 Mar 2024 06:09:00.000,137.117,14.115,1581.671336
26 Dec 2023 23:03:00.000,65.872,30.230,1002.982328
26 Mar 2024 10:44:00.000,218.198,25.065,1136.543522
27 Apr 2023 06:43:00.000,67.332,17.365,1429.905260
02 Oct 2023 12:21:00.000,61.627,65.220,613.340478
23 Feb 2024 22:28:00.000,104.845,8.776,1919.449503
16 Mar 2024 14:34:00.000,269.753,19.885,1317.658811
26 Apr 2023 10:01:00.000,258.978,18.020,1398.691858
20 May 2023 00:51:00.000,234.523,9.193,1894.649411
04 Feb 2024 02:37:00.000,257.308,7.717,1999.990889
12 Nov 2023 14:30:00.000,59.782,7.866,1999.986798
24 Nov 2023 13:58:00.000,115.082,25.627,1123.489785
08 Mar 2024 18:22:00.000,195.297,21.666,1245.395927
21 Jul 2023 16:27:00.000,59.290,7.902,1999.978195
18 Apr 2023 05:13:00.000,177.490,11.547,1734.006037
12 Apr 2023 12:12:00.000,43.166,21.998,1247.380503
02 Jul 2023 23:43:00.000,271.629,7.820,1999.981556
21 Feb 2024 17:28:00.000,100.483,22.374,1223.267693
17 Sep 2023 14:34:00.000,272.353,21.218,1270.759969
19 Jan 2024 15:09:00.000,273.510,12.778,1664.167363
22 Apr 2023 03:28:00.000,124.253,14.825,1548.662484
21 Jan 2024 08:28:00.000,60.784,7.846,1999.990118
16 Apr 2023 13:41:00.000,282.920,13.421,1633.299203
15 Sep 2023 21:25:00.000,231.790,18.642,1367.636527
21 Jun 2023 03:35:00.000,76.589,74.504,579.942926
26 Dec 2023 00:47:00.000,133.956,40.769,812.579734
28 Apr 2023 06:40:00.000,61.065,28.299,1054.069646
27 Dec 2023 19:37:00.000,5.364,40.600,818.081386
18 Jul 2023 18:11:00.000,18.102,28.405,1053.409311
06 May 2023 21:54:00.000,180.088,27.545,1070.287503
21 Mar 2024 12:36:00.000,281.244,7.802,1999.979919
23 May 2023 19:46:00.000,82.338,12.413,1690.210083
27 Feb 2024 18:48:00.000,314.101,18.859,1360.607595
28 Mar 2024 07:15:00.000,315.390,20.274,1303.833585
05 Oct 2023 07:14:00.000,54.225,13.695,1615.263109
01 Jun 2023 17:43:00.000,183.904,53.358,685.364044
29 May 2023 14:27:00.000,5.899,39.669,836.378808
21 May 2023 18:07:00.000,46.164,18.558,1380.642852
12 Dec 2023 03:02:00.000,342.276,32.580,953.669901
01 Mar 2024 22:02:00.000,226.559,10.541,1794.096753
17 Feb 2024 03:43:00.000,260.295,7.718,1999.995971
25 Feb 2024 00:05:00.000,168.464,7.624,1999.986767
23 Jun 2023 08:32:00.000,269.894,33.278,941.044462
17 Mar 2024 14:29:00.000,277.337,7.795,1999.985094
18 Dec 2023 20:00:00.000,150.301,7.669,1999.996271
28 Oct 2023 02:57:00.000,151.931,7.674,1999.991887
06 Jun 2023 12:33:00.000,54.312,15.468,1524.754343
24 Oct 2023 04:47:00.000,158.111,7.939,1980.119880
13 Apr 2023 15:34:00.000,166.199,12.712,1668.161062
04 May 2023 04:50:00.000,101.653,7.802,1999.999988
18 Oct 2023 03:16:00.000,327.800,25.491,1128.421425
29 Aug 2023 23:50:00.000,60.220,7.834,1999.989851
03 Jun 2023 16:03:00.000,107.000,9.074,1908.542764
19 Apr 2023 05:18:00.000,81.287,7.851,1999.978744
06 May 2023 21:57:00.000,99.973,24.288,1165.575826
16 Sep 2023 18:03:00.000,59.085,27.136,1084.184489
30 Apr 2023 06:33:00.000,315.099,34.791,913.624976
29 Sep 2023 15:52:00.000,182.581,7.728,1999.989419
17 Jul 2023 21:32:00.000,293.735,22.237,1234.879226
18 Sep 2023 14:31:00.000,276.101,13.273,1638.665874
13 Apr 2023 07:05:00.000,149.864,12.743,1663.558553
28 Jul 2023 11:09:00.000,69.942,8.248,1972.751065
25 May 2023 17:54:00.000,304.908,12.938,1663.147951
27 Aug 2023 01:34:00.000,20.119,28.020,1059.833937
22 Sep 2023 17:50:00.000,155.641,18.298,1382.101693
22 Jan 2024 08:21:00.000,4.155,49.152,720.183777
20 Feb 2024 17:26:00.000,195.376,7.659,1999.980502
16 May 2023 23:20:00.000,92.280,23.182,1201.203953
15 Apr 2023 06:58:00.000,206.894,7.739,1999.974837
23 Sep 2023 16:08:00.000,107.003,9.070,1905.643430
08 Mar 2024 16:37:00.000,300.409,13.701,1611.799858
22 Oct 2023 20:21:00.000,143.416,7.696,1999.999218
21 Nov 2023 15:45:00.000,150.960,36.438,881.346697
17 Aug 2023 08:44:00.000,126.027,15.521,1512.938280
26 Jul 2023 16:11:00.000,331.783,28.563,1049.840865
30 Dec 2023 19:29:00.000,17.307,28.515,1046.341562
07 Jun 2023 14:05:00.000,300.001,7.917,1999.984254
04 Feb 2024 07:46:00.000,149.015,36.942,871.227415
26 Jan 2024 08:10:00.000,17.527,28.465,1048.673588
07 Feb 2024 02:35:00.000,33.863,24.496,1156.825601
18 Dec 2023 01:07:00.000,19.099,28.073,1056.647314
06 Oct 2023 07:06:00.000,302.474,29.329,1027.081901
05 Apr 2023 15:42:00.000,306.835,13.080,1656.216894
08 Oct 2023 10:24:00.000,285.041,35.735,895.561597
18 Mar 2024 11:12:00.000,75.861,11.246,1758.044967
28 Apr 2023 01:35:00.000,147.712,29.843,1012.797594
08 Jun 2023 07:20:00.000,185.815,7.722,1999.979677
25 Jan 2024 08:11:00.000,317.544,26.649,1095.876739
21 Oct 2023 01:29:00.000,13.976,29.879,1013.346668
13 Jul 2023 20:06:00.000,57.828,10.343,1822.475806
12 Nov 2023 14:23:00.000,264.611,21.577,1256.024330
09 Jun 2023 09:05:00.000,58.427,15.562,1518.346055
12 Dec 2023 01:22:00.000,36.882,72.747,583.172344
14 May 2023 02:44:00.000,232.917,19.174,1346.349969
14 Nov 2023 16:05:00.000,59.898,15.797,1503.720398
27 Nov 2023 12:10:00.000,98.572,14.802,1551.833211
23 Aug 2023 01:38:00.000,266.488,7.781,1999.981818
08 May 2023 21:53:00.000,76.698,40.954,815.409935
08 Aug 2023 05:39:00.000,117.097,20.895,1278.931362
09 May 2023 21:53:00.000,61.328,15.846,1502.943145
12 Apr 2023 12:14:00.000,64.365,9.999,1849.449954
06 Dec 2023 03:20:00.000,86.093,37.322,866.054751
14 Feb 2024 00:33:00.000,354.333,29.763,1014.273394
30 Aug 2023 01:30:00.000,70.003,17.851,1404.561659
19 Mar 2024 09:28:00.000,59.077,10.113,1834.591221
07 Nov 2023 14:35:00.000,201.457,7.724,1999.995002
29 Jul 2023 17:47:00.000,217.409,24.282,1164.613201
09 Aug 2023 13:59:00.000,233.896,9.147,1899.342221
30 Aug 2023 03:11:00.000,123.362,15.664,1503.243127
28 Dec 2023 00:36:00.000,278.870,13.050,1645.213450
24 Mar 2024 12:29:00.000,242.106,7.732,1999.996175
03 Sep 2023 23:38:00.000,82.240,12.291,1692.547763
25 Dec 2023 21:23:00.000,345.986,31.163,983.704113
09 Apr 2023 17:18:00.000,237.551,21.416,1264.481196
06 May 2023 01:16:00.000,292.352,13.000,1655.002772
16 May 2023 21:36:00.000,356.220,30.230,1009.468960
17 Jun 2023 05:26:00.000,61.083,25.698,1124.009349
29 Jun 2023 05:02:00.000,98.422,24.261,1164.772001
06 Aug 2023 10:45:00.000,356.519,30.281,1007.923891
11 Mar 2024 14:55:00.000,95.681,7.759,1999.981932
15 Jun 2023 10:27:00.000,304.805,13.493,1628.662836
03 Sep 2023 01:18:00.000,119.816,74.794,578.289750
01 Feb 2024 02:54:00.000,69.493,8.321,1959.716274
10 Aug 2023 07:14:00.000,322.112,42.081,799.927924
26 Jan 2024 11:32:00.000,181.789,56.186,661.871002
22 Dec 2023 23:13:00.000,21.353,27.882,1061.488008
05 Oct 2023 07:09:00.000,289.279,31.749,971.894584
12 Dec 2023 06:24:00.000,296.090,62.883,622.363141
07 Jun 2023 15:54:00.000,154.739,9.406,1880.282323
09 Nov 2023 17:52:00.000,303.645,12.874,1662.050656
14 Jul 2023 21:38:00.000,306.132,13.452,1630.456627
11 Feb 2024 04:04:00.000,66.381,66.972,602.848389
10 Mar 2024 09:48:00.000,201.565,12.805,1655.228364
28 Sep 2023 15:49:00.000,265.016,12.138,1704.305141
10 Mar 2024 09:55:00.000,78.176,7.807,1999.982927
15 Jul 2023 14:55:00.000,145.444,9.232,1892.145133
17 Sep 2023 12:53:00.000,211.320,13.231,1635.302770
24 Aug 2023 06:43:00.000,220.234,27.649,1065.764516
24 Aug 2023 06:45:00.000,176.531,19.591,1326.553314
19 Apr 2023 08:40:00.000,60.917,7.904,1999.990096
12 Jul 2023 16:41:00.000,164.006,15.202,1529.151643
21 Feb 2024 19:08:00.000,39.546,37.213,867.921357
15 Feb 2024 21:10:00.000,63.441,7.778,1999.974403
03 Aug 2023 14:12:00.000,298.427,22.348,1232.619005
25 Sep 2023 12:34:00.000,295.847,12.885,1662.597921
11 Oct 2023 03:37:00.000,66.001,15.690,1506.686401
29 Jun 2023 01:33:00.000,279.914,13.168,1642.524074
23 Jan 2024 08:17:00.000,325.470,40.392,821.751283
01 Mar 2024 18:45:00.000,83.450,12.391,1683.427056
03 Nov 2023 16:34:00.000,78.544,7.822,1999.991344
01 Oct 2023 07:17:00.000,216.355,21.385,1259.115728
03 Jun 2023 16:00:00.000,91.827,39.699,834.373728
01 Nov 2023 16:35:00.000,136.265,13.890,1596.779742
28 Mar 2024 03:52:00.000,262.474,21.677,1247.073596
18 Feb 2024 03:43:00.000,222.931,7.968,1976.420825
02 Jul 2023 01:31:00.000,20.192,28.032,1060.500332
07 Dec 2023 08:14:00.000,297.936,7.831,1999.979899
03 Sep 2023 02:59:00.000,210.758,17.027,1436.108665
12 Aug 2023 05:33:00.000,62.399,9.348,1889.673030
02 Sep 2023 20:10:00.000,245.624,7.775,1999.976649
17 Nov 2023 14:14:00.000,19.676,28.116,1059.342091
17 Jun 2023 12:06:00.000,247.310,15.535,1515.135346
07 Apr 2023 12:24:00.000,58.982,7.940,1999.992110
04 Mar 2024 15:10:00.000,339.715,33.600,934.111698
16 Mar 2024 12:57:00.000,77.591,35.486,898.130470
15 Nov 2023 10:57:00.000,129.725,17.887,1401.088919
21 Sep 2023 17:50:00.000,184.456,52.721,688.734241
26 Nov 2023 08:45:00.000,285.208,32.603,954.091012
18 Oct 2023 23:51:00.000,211.933,34.209,918.834513
09 Mar 2024 13:13:00.000,300.748,19.400,1339.429328
15 Jan 2024 15:26:00.000,104.650,24.898,1144.049907
07 Jul 2023 20:18:00.000,67.371,15.643,1511.779286
10 Jun 2023 10:45:00.000,61.109,10.009,1847.364601
12 Feb 2024 22:54:00.000,301.594,52.104,691.354216
22 Aug 2023 00:06:00.000,100.418,22.647,1216.016123
22 Aug 2023 01:46:00.000,39.456,36.952,874.164383
23 Mar 2024 05:51:00.000,13.377,64.801,612.892378
26 Dec 2023 00:42:00.000,293.173,13.676,1610.920873
04 Aug 2023 12:35:00.000,84.743,7.865,1999.980073
30 Dec 2023 16:11:00.000,78.332,7.801,1999.991144
30 Mar 2024 02:04:00.000,228.019,13.398,1618.765255
13 May 2023 01:08:00.000,86.424,38.267,853.675199
05 Nov 2023 23:09:00.000,194.983,27.045,1079.628295
30 Apr 2023 06:36:00.000,86.685,38.219,854.658239
08 Nov 2023 21:16:00.000,286.261,13.486,1623.793354
07 Apr 2023 12:23:00.000,54.874,14.370,1583.424748
10 Nov 2023 17:56:00.000,62.301,16.176,1484.041597
04 Apr 2023 17:32:00.000,101.135,15.177,1537.040724
17 Oct 2023 01:37:00.000,267.397,34.856,908.363897
01 Jan 2024 17:42:00.000,329.945,37.936,858.189343
03 Mar 2024 18:41:00.000,105.007,7.717,1999.972483
26 Sep 2023 09:12:00.000,163.346,40.450,820.028766
20 Feb 2024 00:17:00.000,97.870,40.712,813.393194
16 Nov 2023 10:53:00.000,167.023,23.740,1179.253571
20 Nov 2023 09:07:00.000,84.689,7.827,1999.992163
21 May 2023 21:25:00.000,311.267,35.402,903.875615
31 Aug 2023 23:40:00.000,330.175,25.535,1128.305142
02 Mar 2024 18:42:00.000,91.800,13.775,1602.712672
04 Apr 2023 15:51:00.000,67.473,10.233,1833.972601
06 Sep 2023 20:05:00.000,338.752,33.896,930.229851
27 Jun 2023 08:25:00.000,212.058,9.934,1840.206277
10 Jun 2023 12:27:00.000,91.604,7.867,1999.989935
08 Feb 2024 23:07:00.000,122.902,35.654,891.536164
29 Mar 2024 05:31:00.000,311.686,18.791,1362.918036
08 Jul 2023 18:31:00.000,171.292,16.380,1470.064066
11 Jun 2023 07:21:00.000,69.642,8.367,1962.664267
19 Nov 2023 14:12:00.000,71.025,10.564,1805.665748
21 Jul 2023 14:38:00.000,245.478,13.759,1609.585082
03 Feb 2024 02:49:00.000,61.687,9.236,1893.392489
13 Nov 2023 12:39:00.000,217.101,13.307,1630.079861
08 Jan 2024 19:04:00.000,250.497,54.074,676.688377
08 Mar 2024 13:14:00.000,277.551,7.799,1999.982381
06 May 2023 06:20:00.000,253.943,11.114,1765.771023
08 Oct 2023 10:29:00.000,126.981,15.450,1516.540327
18 Apr 2023 05:15:00.000,147.295,17.494,1418.098213
12 Apr 2023 13:49:00.000,310.483,21.520,1264.397151
30 Nov 2023 08:36:00.000,325.480,25.661,1124.973451
09 Jun 2023 12:24:00.000,358.951,36.220,890.578713
25 May 2023 14:33:00.000,217.713,35.054,908.664086
07 Dec 2023 08:22:00.000,111.047,15.681,1504.408424
19 Feb 2024 01:57:00.000,268.625,19.638,1324.283822
13 Jul 2023 18:19:00.000,264.859,35.336,903.487602
18 Nov 2023 12:32:00.000,46.249,19.934,1321.081634
02 Aug 2023 10:56:00.000,46.120,18.945,1363.138577
28 Sep 2023 15:51:00.000,235.011,20.171,1307.752258
05 Apr 2023 12:26:00.000,63.524,15.979,1499.740653
13 Dec 2023 23:32:00.000,214.299,13.142,1634.217183
28 Mar 2024 05:34:00.000,306.781,19.021,1353.096274
26 Oct 2023 01:21:00.000,86.075,7.774,1999.999904
19 Apr 2023 05:11:00.000,194.951,12.537,1673.850747
22 Dec 2023 00:52:00.000,306.982,13.200,1639.057240
15 Mar 2024 11:13:00.000,292.538,7.821,1999.997856
03 Apr 2023 19:09:00.000,275.861,21.004,1282.009012
04 Oct 2023 07:13:00.000,6.792,56.425,661.871347
25 Jan 2024 11:39:00.000,120.154,7.748,1999.977653
25 May 2023 12:52:00.000,167.039,7.771,1999.987539
24 Jul 2023 12:57:00.000,75.184,23.819,1183.079928
09 May 2023 01:10:00.000,299.259,7.879,1999.979147
15 Apr 2023 13:50:00.000,131.881,15.067,1539.890261
30 Jul 2023 11:04:00.000,60.606,15.827,1505.018121
23 Jan 2024 11:45:00.000,100.340,8.527,1943.813717
23 Jun 2023 01:51:00.000,99.093,25.451,1128.541972
18 Jan 2024 13:30:00.000,301.265,7.854,1999.992686
16 Oct 2023 06:44:00.000,103.042,74.014,580.618493
31 Oct 2023 19:57:00.000,295.139,30.790,992.509493
24 Apr 2023 08:26:00.000,356.907,40.353,824.883975
11 May 2023 02:56:00.000,129.650,8.736,1926.085903
15 Dec 2023 04:37:00.000,49.858,56.535,659.348774
04 Feb 2024 04:19:00.000,297.308,12.796,1661.719150
12 Jan 2024 12:14:00.000,60.431,9.112,1906.131476
28 Jul 2023 14:27:00.000,356.087,30.132,1012.292458
24 Jul 2023 12:53:00.000,215.287,34.724,913.616421
14 May 2023 02:46:00.000,194.925,17.089,1435.116826
05 Oct 2023 07:08:00.000,276.340,20.964,1277.741708
05 Nov 2023 16:20:00.000,231.211,7.753,1999.991068
12 Jan 2024 17:09:00.000,292.686,13.680,1613.760554
10 Nov 2023 12:48:00.000,167.999,10.928,1773.274124
21 Sep 2023 11:03:00.000,195.634,19.621,1327.616240
17 Nov 2023 15:53:00.000,326.929,31.263,984.319033
17 Apr 2023 13:44:00.000,175.534,20.768,1286.023425
30 Jun 2023 22:15:00.000,80.506,7.826,1999.976375
28 May 2023 14:26:00.000,271.187,21.346,1268.129175
13 Jun 2023 13:57:00.000,208.624,15.186,1531.267159
07 May 2023 21:53:00.000,173.822,46.774,744.025457
18 May 2023 00:59:00.000,168.502,10.699,1788.081448
23 May 2023 23:05:00.000,193.192,7.733,1999.985524
22 Oct 2023 04:46:00.000,283.055,21.535,1255.546937
13 Sep 2023 18:12:00.000,63.520,9.883,1852.632542
20 Jan 2024 06:42:00.000,187.694,7.672,1999.981352
31 Dec 2023 19:25:00.000,329.186,25.533,1127.227152
16 Jan 2024 15:19:00.000,294.883,22.240,1232.902711
03 Mar 2024 11:50:00.000,168.655,7.682,1999.986998
13 Jul 2023 16:43:00.000,101.022,18.478,1379.289037
10 Jul 2023 02:56:00.000,200.977,9.053,1899.460382
26 May 2023 14:33:00.000,64.834,75.158,580.716319
17 Dec 2023 02:54:00.000,82.786,7.773,1999.999293
26 Oct 2023 20:08:00.000,213.847,13.192,1634.060377
05 Feb 2024 04:16:00.000,295.148,7.789,1999.978135
21 Nov 2023 14:06:00.000,76.767,19.742,1326.717599
05 Mar 2024 11:50:00.000,81.738,7.861,1995.062027
23 Dec 2023 21:32:00.000,53.930,12.310,1691.689067
31 Oct 2023 21:40:00.000,23.173,28.102,1057.216771
13 Aug 2023 12:08:00.000,255.135,7.811,1999.987273
01 Jan 2024 22:49:00.000,155.382,9.050,1896.016974
06 Apr 2023 17:20:00.000,293.864,7.935,1999.979534
23 Sep 2023 11:03:00.000,70.954,24.966,1146.363028
06 May 2023 01:22:00.000,48.776,16.263,1482.219663
07 Jul 2023 23:38:00.000,26.819,29.501,1024.330634
29 May 2023 14:24:00.000,283.317,20.706,1292.730036
22 Feb 2024 20:44:00.000,329.349,25.456,1127.708559
25 Aug 2023 01:37:00.000,314.357,27.288,1078.488749
18 Jan 2024 08:32:00.000,123.288,42.925,786.613077
09 Mar 2024 11:39:00.000,61.897,9.345,1887.854736
11 Apr 2023 08:46:00.000,211.164,7.757,1999.987697
19 Jan 2024 08:24:00.000,232.090,7.721,1999.991550
30 Sep 2023 07:18:00.000,213.171,7.713,1999.979209
31 Oct 2023 01:08:00.000,137.944,13.918,1592.093097
07 Oct 2023 10:28:00.000,91.299,72.952,584.636076
12 Jul 2023 21:41:00.000,300.640,7.883,1999.998509
01 Mar 2024 15:22:00.000,51.039,23.704,1182.579557
25 May 2023 21:14:00.000,280.986,7.881,2000.000084
25 Feb 2024 20:41:00.000,79.887,11.787,1719.956842
15 May 2023 23:19:00.000,355.888,42.634,794.032179
17 Mar 2024 09:34:00.000,54.389,11.679,1732.737666
30 Aug 2023 20:17:00.000,211.745,7.724,1999.985837
02 Nov 2023 00:56:00.000,269.927,12.441,1681.472235
19 Jan 2024 15:11:00.000,245.572,24.939,1142.647210
08 Oct 2023 08:45:00.000,33.727,35.277,904.441093
05 Jun 2023 17:35:00.000,215.423,11.354,1750.740625
15 Aug 2023 05:22:00.000,329.549,38.334,852.755218
04 Aug 2023 10:53:00.000,58.074,10.343,1824.121743
29 Sep 2023 14:07:00.000,287.622,36.159,889.229397
25 Sep 2023 17:39:00.000,230.685,11.583,1734.603204
10 Jul 2023 02:55:00.000,214.120,10.675,1789.026336
28 Sep 2023 14:13:00.000,105.319,41.861,802.495171
21 Oct 2023 03:14:00.000,77.793,11.542,1738.406364
30 Mar 2024 00:28:00.000,139.608,10.801,1775.685811
10 Dec 2023 03:06:00.000,294.058,30.829,989.907320
13 Apr 2023 12:08:00.000,332.562,26.262,1112.126293
16 Feb 2024 19:19:00.000,194.919,12.476,1671.853225
04 Feb 2024 00:58:00.000,202.829,12.725,1656.613475
28 Nov 2023 08:40:00.000,294.372,19.827,1322.792452
19 Jul 2023 19:54:00.000,97.482,8.250,1966.949747
14 Aug 2023 08:46:00.000,353.883,44.685,768.393508
23 Jan 2024 13:19:00.000,252.245,27.787,1063.566393
08 Dec 2023 03:08:00.000,250.179,7.722,1999.973321
22 Jul 2023 14:37:00.000,261.254,21.808,1249.780051
07 Oct 2023 07:01:00.000,281.248,7.812,1999.991714
23 Nov 2023 10:32:00.000,280.538,13.212,1640.456201
01 Jun 2023 17:46:00.000,135.652,14.414,1572.724676
03 Oct 2023 12:16:00.000,295.608,22.287,1233.147497
15 Sep 2023 14:42:00.000,53.936,74.415,581.393334
14 Nov 2023 10:58:00.000,158.173,10.206,1821.107970
13 Jan 2024 12:09:00.000,48.734,22.501,1224.899742
12 Oct 2023 06:49:00.000,301.388,7.839,1999.999762
01 Feb 2024 02:55:00.000,69.255,7.793,1999.984761
14 Aug 2023 05:27:00.000,47.568,21.583,1257.436415
01 Jul 2023 04:50:00.000,293.344,7.841,1999.980848
23 Dec 2023 18:08:00.000,126.671,10.885,1774.841984
29 May 2023 16:11:00.000,57.505,15.628,1516.734091
30 Mar 2024 07:15:00.000,100.273,14.829,1546.659881
17 Jul 2023 16:30:00.000,256.953,35.981,892.310709
24 Sep 2023 15:59:00.000,296.991,22.245,1235.205232
27 Sep 2023 15:57:00.000,161.964,15.184,1528.734281
08 Apr 2023 08:58:00.000,119.168,8.770,1928.461217
09 Jul 2023 21:56:00.000,61.938,7.860,1999.997350
15 Sep 2023 13:01:00.000,130.003,18.144,1391.136442
20 May 2023 18:06:00.000,322.021,42.285,799.766715
09 Jan 2024 12:21:00.000,82.469,20.402,1299.477553
10 Jul 2023 20:13:00.000,58.489,7.996,1990.824182
24 Feb 2024 17:13:00.000,242.564,7.720,1999.982408
03 Nov 2023 18:09:00.000,298.640,53.412,683.409332
26 May 2023 12:54:00.000,111.918,14.717,1559.134675
09 Jul 2023 01:21:00.000,118.629,7.750,1999.984063
10 Jan 2024 18:58:00.000,245.869,25.091,1136.946417
08 May 2023 04:42:00.000,145.259,7.732,1999.999360
06 Jul 2023 01:27:00.000,90.074,7.800,1999.989828
02 Jun 2023 10:56:00.000,171.996,45.913,754.027563
15 Jan 2024 13:40:00.000,306.155,12.915,1659.393124
10 Mar 2024 13:13:00.000,17.341,28.520,1047.016873
06 Oct 2023 08:53:00.000,70.670,7.855,1999.980744
13 Mar 2024 11:26:00.000,55.209,11.116,1768.497685
22 Jul 2023 16:25:00.000,61.543,7.899,1999.989953
28 Sep 2023 14:09:00.000,300.461,22.279,1234.149307
29 Sep 2023 14:12:00.000,124.917,15.552,1512.325623
23 May 2023 23:03:00.000,229.201,11.233,1757.339928
07 Oct 2023 10:27:00.000,310.513,62.726,624.876510
08 Apr 2023 13:55:00.000,297.188,7.929,1999.978883
11 Apr 2023 12:09:00.000,298.204,12.891,1665.084885
04 Apr 2023 17:30:00.000,85.574,38.328,855.939586
12 Sep 2023 14:49:00.000,121.314,29.303,1027.249919
19 Mar 2024 07:41:00.000,263.236,21.652,1249.911799
15 Jul 2023 21:35:00.000,300.517,7.885,1999.971903
13 May 2023 21:40:00.000,297.015,19.723,1330.396375
19 Jul 2023 18:10:00.000,42.986,21.891,1249.062214
24 Oct 2023 20:18:00.000,114.170,17.066,1436.344234
14 Jun 2023 13:56:00.000,199.544,7.767,1999.994830
19 Apr 2023 06:51:00.000,254.629,13.652,1614.329016
11 Mar 2024 14:50:00.000,353.185,45.307,759.427039
03 May 2023 23:46:00.000,72.032,14.571,1566.888594
21 Feb 2024 19:02:00.000,257.161,7.733,1999.991328
27 Jan 2024 08:05:00.000,312.629,18.932,1359.202395
24 May 2023 21:18:00.000,275.791,20.869,1284.978646
24 Apr 2023 03:25:00.000,99.911,24.223,1166.752199
07 May 2023 01:22:00.000,62.989,7.865,1999.997326
01 Jan 2024 14:19:00.000,167.690,7.696,1999.999795
13 Jun 2023 08:57:00.000,56.546,10.681,1801.485208
28 Dec 2023 22:57:00.000,63.091,65.203,610.515422
06 Sep 2023 01:10:00.000,222.201,29.812,1011.780656
19 Sep 2023 16:10:00.000,306.513,13.036,1654.966525
13 Jul 2023 01:11:00.000,168.238,7.696,1999.998639
04 Sep 2023 20:13:00.000,54.339,13.829,1607.171974
20 Feb 2024 19:10:00.000,25.416,70.213,590.898063
11 Dec 2023 03:01:00.000,276.344,7.766,1999.975178
18 Feb 2024 03:43:00.000,215.871,7.652,1999.998903
07 Jul 2023 21:58:00.000,46.277,18.334,1387.000925
09 Nov 2023 14:30:00.000,223.229,13.507,1619.138004
27 Jan 2024 11:26:00.000,274.273,20.626,1290.182544
05 Aug 2023 07:30:00.000,73.944,7.860,1999.971891
18 Sep 2023 17:59:00.000,92.696,23.360,1194.828232
05 Jul 2023 20:20:00.000,122.361,32.450,956.806856
25 Jul 2023 12:57:00.000,64.046,9.453,1885.747313
13 Mar 2024 13:03:00.000,333.141,26.965,1087.581173
05 Sep 2023 16:47:00.000,126.112,10.812,1783.819317
30 Dec 2023 22:49:00.000,277.630,34.741,910.040695
05 Apr 2023 14:08:00.000,58.882,7.946,1999.977418
21 Sep 2023 11:06:00.000,121.847,31.390,979.636527
02 Oct 2023 05:40:00.000,97.560,7.791,1999.983069
17 Aug 2023 05:22:00.000,57.553,10.389,1817.677611
20 Feb 2024 00:16:00.000,66.121,66.730,603.265975
05 Apr 2023 17:29:00.000,111.971,25.644,1127.272885
18 Oct 2023 23:57:00.000,68.586,7.805,1999.991304
01 Jul 2023 22:05:00.000,211.869,13.241,1633.447548
13 Jan 2024 13:44:00.000,292.835,7.843,1999.990912
04 Feb 2024 02:43:00.000,39.625,36.916,872.955345
10 Aug 2023 08:56:00.000,22.772,28.110,1059.859030
01 Jul 2023 23:48:00.000,284.884,32.457,957.490420
02 Jan 2024 21:01:00.000,312.146,62.492,623.967944
31 May 2023 11:01:00.000,137.346,22.684,1217.557961
19 Aug 2023 06:58:00.000,96.554,14.483,1568.391843
25 Dec 2023 19:45:00.000,58.557,15.460,1517.247081
03 Aug 2023 09:07:00.000,243.617,13.638,1613.754748
24 Aug 2023 03:22:00.000,25.941,28.987,1035.574773
18 Apr 2023 06:54:00.000,242.666,22.170,1234.251803
01 Nov 2023 23:21:00.000,102.824,24.723,1147.969177
23 Jul 2023 16:22:00.000,54.152,15.442,1524.908164
22 Jul 2023 14:44:00.000,59.802,9.042,1915.434206
15 Mar 2024 13:00:00.000,65.899,30.445,999.745060
26 Sep 2023 14:12:00.000,301.471,7.890,1999.998223
23 Apr 2023 10:06:00.000,294.382,13.795,1611.162224
02 Sep 2023 20:14:00.000,259.726,62.021,627.675393
04 Nov 2023 19:44:00.000,294.694,7.840,1999.986427
13 Oct 2023 03:30:00.000,38.979,36.872,875.124577
24 Apr 2023 06:49:00.000,60.295,9.985,1847.437566
31 Oct 2023 23:16:00.000,300.824,7.827,1999.981642
20 May 2023 18:04:00.000,279.742,20.868,1286.264042
30 May 2023 11:04:00.000,123.550,14.484,1569.848712
03 Sep 2023 23:36:00.000,60.760,27.987,1059.722315
24 Jul 2023 12:58:00.000,70.731,14.959,1548.930421
13 Dec 2023 06:26:00.000,131.097,14.964,1538.051509
11 Jan 2024 13:49:00.000,281.253,7.824,1999.990105
08 Apr 2023 10:41:00.000,69.044,7.917,1999.979953
02 Mar 2024 16:56:00.000,329.171,25.465,1128.862735
02 Dec 2023 08:28:00.000,299.047,7.839,1999.992212
